"cu_id"	"Account"	"Customer"	"New Delivery Day"	"Alliant Sequence"	"Customer Name"	"Address"	"X_Longitude"	"Y_Latitude"
"10328"	"73366"	"00000"	"M"	""	"RUSTY SAW TAVERN"	"3459 US 31, BRUTUS MI 49716 US"	"-84.7805135"	"45.501409"
"10364"	"73368"	"00000"	"R"	""	"SAND BAR & GRILL"	"9027 W LONG LAKE RD, ALPENA MI 49707 US"	"-83.457461"	"45.177913"
"10861"	"73388"	"00000"	"R"	""	"SHEPLER FERRY-ST IGNACE"	"601 NORTH STATE ST, ST IGNACE MI 49781 US"	"-84.727312"	"45.874202"
"10862"	"73389"	"00000"	"W"	""	"SHEPLER FERRY-MACKINAW"	"556 EAST CENTUZL, MACKINAW CITY MI 49701 US"	"-84.722255"	"45.781478"
"11031"	"73394"	"00000"	"W"	""	"MACKINAW CITY POPCORN FACTORY"	"301 E. CENTRAL, MACKINAW MI 49701 US"	"-84.727024"	"45.781831"
"11217"	"73404"	"00000"	"W"	""	"THUNDER BAY HEALTH-CHEBOYGAN"	"905 W. LINCOLN, CHEBOYGAN MI 49721 US"	"-84.497003"	"45.632194"
"11400"	"73413"	"00000"	"T"	""	"HINCKA LOGGING LLC"	"6464 LAKE AUGUSTA HWY, POSEN MI 49776 US"	"-83.7107533"	"45.3083383"
"11439"	"73415"	"00000"	"R"	""	"THE GREAT TURTLE BREWING & DIS"	"1359 HOBAN ST VIA-STARLINE MACKNIAW CITY, MACKINAW"	"-84.61899"	"45.847777"
"11508"	"70900"	"00002"	"R"	""	"ISLAND HOUSE HOTEL"	"6966 MAIN ST VIA-ARNOLD LINE, MACKINAC ISLAND MI 4"	"-84.613853"	"45.851185"
"11516"	"73425"	"00000"	"W"	""	"KILWINS/MACKINAW CITY"	"226 E. CENTRAL AVE, MACKINAW CITY MI 49701 US"	"-84.728128"	"45.78108"
"11659"	"99138"	"00008"	"W"	""	"WIENERLICIOUS"	"102 E. CENTRAL, MACKINAW CITY MI 49701 US"	"-84.731856"	"45.781227"
"11660"	"99138"	"00004"	"W"	""	"TOAST-A-GO-GO"	"416 S. HURON, MACKINAW CITY MI 49701 US"	"-84.7272872"	"45.7772777"
"11826"	"73444"	"00000"	"T"	""	"FIRST CLASS AUTO REPAIR"	"498 S 6TH STREET, ROGER CITY MI 49779 US"	"-83.814552"	"45.410736"
"11852"	"99031"	"00148"	"R"	""	"BLARNEY CASTLE 850"	"98 W. US 2, ST. IGNACE MI 49781 US"	"-84.7573383"	"45.854595"
"12053"	"99138"	"00003"	"W"	""	"THE LIGHTHOUSE RESTAURANT"	"718 S HURON, MACKINAW CITY MI 49701 US"	"-84.726833180263"	"45.7733461913389"
"12285"	"73459"	"00000"	"T"	""	"UP NORTH 23"	"530 NORTH 3RD, ROGER CITY MI 49779 US"	"-83.822051"	"45.425121"
"12492"	"73464"	"00000"	"M"	""	"MODERN PHARMACY"	"3944 SOUTH STRAITS HWY, INDIAN RIVER MI 49749 US"	"-84.615113"	"45.405638"
"12585"	"99138"	"00001"	"W"	""	"MACKINAW COFFEE"	"302 SOUTH HURON, MACKINAW CITY MI 49701 US"	"-84.7260475"	"45.7797368"
"12612"	"73474"	"00000"	"R"	""	"MIGHTY MAC"	"7315 MAIN ST, MACKINAW ISLAND MI 49757 US"	"-84.6186658120255"	"45.8475363919055"
"12616"	"99138"	"00006"	"W"	""	"THE HISTORIC DEPOT"	"248 S. HURON, MACKINAW CITY MI 49701 US"	"-84.727303"	"45.780214"
"12619"	"73476"	"00000"	"R"	""	"MASSEY FISH CO."	"1442 W. ROAD, ST IGNACE MI 49781 US"	"-84.738093"	"45.897739"
"12632"	"73415"	"00004"	"R"	""	"VERDE'S"	"7263 MAIN STREET, MACKINAW ISLAND MI 49757 US"	"-84.617129"	"45.849774"
"12635"	"73478"	"00000"	"R"	""	"LEHTOS"	"626 N STATE, ST IGNACE MI 49781 US"	"-84.7299035"	"45.8746188"
"12751"	"99138"	"00005"	"W"	""	"THE HOOK"	"201 S. HURON, MACKINAW CITY MI 49701 US"	"-84.724594"	"45.779733"
"13055"	"99161"	"00106"	"W"	""	"SPT. FAM FARE #1504 FIRST AID"	"992 S. MAIN, CHEBOYGAN MI 49721 US"	"-84.482395"	"45.628502"
"13078"	"99161"	"00107"	"R"	""	"SPT. FAMILY FARE #1530 FIRST A"	"699 US 2, ST. IGNACE MI 49781 US"	"-84.7195217"	"45.8573467"
"13139"	"99161"	"00112"	"T"	""	"FAMILY FARE #1502 FIRST AID"	"100 S. BRADLEY HWY., ROGERS CITY MI 49779 US"	"-83.825057"	"45.41273"
"13227"	"73490"	"00000"	"W"	""	"ARBY'S"	"840 SOUTH MAIN, CHEBOYGAN MI 49721 US"	"-84.480967"	"45.630595"
"13544"	"73495"	"00000"	"F"	""	"ALPENA CRTC OPERATIONS"	"5884 A STREET, ALPENA MI 49707 US"	"-83.570388"	"45.077396"
"13581"	"99161"	"00037"	"M"	""	"KEN'S VILLAGE MARKET FIRST AID"	"6433 BARBRA INDIAN RIVER P.O. BOX 2009, INDIAN RIV"	"-84.617712"	"45.403873"
"13670"	"73499"	"00000"	"M"	""	"ORTHOSPORT PHYSICAL THERAPY"	"351 S. STRAITS HWY, INDIAN RIVER MI 49749 US"	"-84.609185"	"45.456819"
"13700"	"70897"	"00001"	"R"	""	"MURDICKS FUDGE"	"190 SHURON AVE SHELPERS BOAT, MACKINAC ISLAND MI 4"	"-84.7027178"	"45.854356"
"13939"	"73596"	"00000"	"R"	""	"SANDERS CANDIES"	"303 FERRY LANE, MACKINAC ISLAND MI 49708 US"	"-84.7027178"	"45.854356"
"13967"	"73502"	"00000"	"R"	""	"KINGSTON KITCHEN"	"1384 HOBAN, MACKINAC ISLAND MI 49757 US"	"-84.61924"	"45.848106"
"14131"	"73508"	"00000"	"F"	""	"PAC SANITATION"	"1273 M-211, ONAWAY MI 49765 US"	"-84.227202"	"45.3925237"
"14475"	"73516"	"00000"	"F"	""	"PAINTER PETROLEUM"	"4016 MICHIGAN AVENUE, ONAWAY MI 49765 US"	"-84.23428"	"45.353873"
"14480"	"73517"	"00000"	"M"	""	"THE THIRSTY STURGEON"	"11900 SCOTT ROAD, WOLVERINE MI 49799 US"	"-84.608283"	"45.291795"
"14487"	"73519"	"00000"	"W"	""	"AUDIE'S RESTAURANT"	"314 N. STREET, MACKINAC CITY MI 49701 US"	"-84.7318713"	"45.7844581"
"14501"	"73521"	"00000"	"M"	""	"MOOSE JAW JUNCTION"	"966 W. VAN ROAD, PELLSTON MI 49769 US"	"-84.934675"	"45.594061"
"14502"	"73522"	"00000"	"R"	""	"MULLIGANS RESTAURANT"	"320 NORTH MAIN, CHEBOYGAN MI 49721 US"	"-84.4757"	"45.645423"
"14510"	"73523"	"00000"	"T"	""	"ROGERS CITY POST OFFICE"	"188 N. THIRD ST., ROGERS CITY MI 49779 US"	"-83.816274"	"45.420401"
"14511"	"73523"	"00001"	"T"	""	"POSEN POST OFFICE"	"10933 MICHIGAN AVE., POSEN MI 49776 US"	"-83.6988018154967"	"45.2608084922195"
"14520"	"99152"	"00001"	"F"	""	"ONAWAY IMAGING DEPARTMENT"	"21258 W. M-68 HWY, ONAWAY MI 49765 US"	"-84.241833"	"45.354402"
"14550"	"73524"	"00000"	"F"	""	"211 BAR & GRILL"	"3444 M-21, ONAWAY MI 49765 US"	"-84.229372"	"45.431372"
"14554"	"73526"	"00000"	"W"	""	"MICKEY'S MINI MART"	"404 S. HURON AVE, MACKINAC CITY MI 49701 US"	"-84.726833"	"45.7777023"
"14570"	"99137"	"00000"	"T"	""	"ADRIAN'S SPORT SHOP"	"335 N. BRADLEY HWY., ROGERS CITY MI 49779 US"	"-83.8309751"	"45.4182907"
"14571"	"99137"	"00001"	"T"	""	"ROGERS CITY CITGO"	"159 S. 3RD STREET, ROGERS CITY MI 49779 US"	"-83.8148073778734"	"45.4186083318028"
"14572"	"99137"	"00002"	"M"	""	"MILLERSBURG MINI-MART"	"5285 MAIN ST., MILLERSBURG MI 49759 US"	"-84.059689"	"45.337442"
"14698"	"99161"	"00096"	"F"	""	"TOM'S FAMILY MARKET F.A."	"20597 STATE ST, ONAWAY MI 49765 US"	"-84.225884"	"45.35698"
"14760"	"73535"	"00000"	"T"	""	"MALE'S GROCERY, INC."	"6811 LONG RAPIDS ROAD, ALPENA MI 49707 US"	"-83.590269"	"45.129471"
"14832"	"73539"	"00000"	"R"	""	"CHEBOYGAN EAGLES"	"626 N.MAIN, CHEBOYGAN MI 49707 US"	"-84.4731592"	"45.6478197"
"14858"	"73404"	"00008"	"M"	""	"THUNDER BAY HEALTH-INDIAN RIVE"	"4363 S STRAITS HWY, INDIAN RIVER MI 49749 US"	"-84.626735"	"45.3986933"
"14866"	"73540"	"00000"	"T"	""	"ROUTE 65 DINER"	"10760 MICHIGAN AVE, POSEN MI 49776 US"	"-83.699165"	"45.265733"
"14908"	"73543"	"00000"	"R"	""	"JOHNNIE'S RESTAURANT"	"748 US-2, ST IGNACE MI 49781 US"	"-84.75362"	"45.854994"
"14926"	"73544"	"00000"	"M"	""	"HOPPIES LANDING"	"1395 N. US-31, PELLSTON MI 49769 US"	"-84.785984"	"45.57158"
"15575"	"73547"	"00000"	"R"	""	"THE GALLEY RESTAURANT"	"241 N STATE STREET, ST IGNACE MI 49781 US"	"-84.726084"	"45.868662"
"15577"	"73549"	"00000"	"T"	""	"BOLTON BAR"	"9101 S. BOLTON RD, POSEN MI 49776 US"	"-83.589863"	"45.179118"
"15590"	"73550"	"00000"	"R"	""	"BENSMAN LONG LAKE MARKET"	"9538 W. LONG LAKE ROAD, ALPENA MI 49707 US"	"-83.468359"	"45.184772"
"15722"	"73557"	"00000"	"W"	""	"THE WHITE BUFFALO"	"312 E. CENTRAL AVENUE, MACKINAC CITY MI 49701 US"	"-84.726622"	"45.781224"
"15726"	"73558"	"00000"	"T"	""	"PRESQUE ISLE TOWNSHIP"	"12653 E. GRAND LAKE ROAD, PRESQUE ISLE MI 49777 US"	"-83.433039"	"45.243408"
"15760"	"73559"	"00001"	"T"	""	"HOPE SHORES ALLIANCE"	"380 N. THIRD STREET, ROGERS CITY MI 49779 US"	"-83.819108"	"45.422936"
"15834"	"73561"	"00000"	"W"	""	"MAIN STREET FITNESS"	"836 S. MAIN STREET, CHEBOYGAN MI 49721 US"	"-84.481039"	"45.630915"
"15916"	"73565"	"00000"	"W"	""	"LIBBY'S DOWNTOWN"	"411 NORTH MAIN, CHEBOYGAN MI 49721 US"	"-84.475704"	"45.646347"
"15926"	"73566"	"00000"	"R"	""	"THE CLUB AT BREAKERS"	"927 N. STATE STREET, ST. IGNACE MI 49781 US"	"-84.724094"	"45.881262"
"15940"	"73566"	"00001"	"R"	""	"BREAKERS RESORT-HOTEL"	"927 N. STATE STREET, ST. IGNACE MI 49781 US"	"-84.724094"	"45.881262"
"15988"	"73568"	"00000"	"M"	""	"THREE CEDARS RESTAURANT"	"5388 MAIN STREET, MILLERSBURG MI 49759 US"	"-84.06031"	"45.336019"
"15998"	"73569"	"00000"	"T"	""	"SAND BAY MARINA"	"14019 US-23 SOUTH, PRESQUE ISLE MI 49777 US"	"-83.573711"	"45.330811"
"16059"	"73575"	"00000"	"W"	""	"THE BIG DIPPER"	"405 N. MAIN C, CHEBOYGAN MI 49721 US"	"-84.475633"	"45.646333"
"16102"	"73576"	"00000"	"M"	""	"BURT LAKE MARINA"	"7010 BUNKER RD, INDIAN RIVER MI 49749 US"	"-84.6300633"	"45.386125"
"16110"	"73577"	"00000"	"R"	""	"ALCOCK'S MARKET"	"523 MACKINAC AVENUE, CHEBOYGAN MI 49721 US"	"-84.477245"	"45.648505"
"16113"	"73578"	"00000"	"M"	""	"HIDDEN RIVER GOLF CLUB"	"7688 MAPLE RIVER RD, BRUTUS MI 49716 US"	"-84.756687"	"45.50509"
"16157"	"99031"	"00172"	"F"	""	"BLARNEY CASTLE EZ MART 733"	"21016 M-68 HWY 12218 WEST S. BOX 246, ONAWAY MI 49"	"-84.234345"	"45.354374"
"16163"	"233684"	"00000"	"M"	""	"BEACH'S UP IN SMOKE BBQ"	"944 STIMPSON ST, PELLSTON MI 49769 US"	"-84.783554"	"45.564515"
"16242"	"73580"	"00000"	"R"	""	"NORTHERN CONFECTIONS"	"1114 N. STATE STREET, ST IGNACE MI 49781 US"	"-84.726727"	"45.88983"
"16270"	"70613"	"00003"	"R"	""	"SUBWAY-CHEBOYGAN"	"428 N. MAIN STREET, CHEBOYGAN MI 49753 US"	"-84.4748"	"45.646513"
"16295"	"99031"	"00180"	"F"	""	"BLARNEY CASTLE 735"	"101 MICHIGAN AVE, ONAWAY MI 49765 US"	"-84.233642"	"45.353847"
"16296"	"99031"	"00181"	"M"	""	"BLARNEY CASTLE 596"	"6153 M-68 HIGHWAY PO BOX 87, INDIAN RIVER MI 49749"	"-84.6160645"	"45.4043829"
"16297"	"99031"	"00182"	"W"	""	"BLARNEY CASTLE 648"	"101 JAMET ST, MACKINAW CITY MI 49701 US"	"-84.733459"	"45.783405"
"16334"	"99031"	"00189"	"M"	""	"BLARNEY CASTLE 328"	"95851 N STRAITS HWY, CHEBOYGAN MI 49721 US"	"-84.47562285"	"45.59957644"
"16335"	"99031"	"00190"	"M"	""	"BLARNEY CASTLE 650"	"6977 M-68, ALANSON MI 49706 US"	"-84.772182"	"45.442356"
"16336"	"99031"	"00191"	"W"	""	"BLARNEY CASTLE 652"	"604 MAIN ST, CHEBOYGAN MI 49721 US"	"-84.482614"	"45.635723"
"16380"	"99189"	"00001"	"M"	""	"BREAKERS TOPINABEE"	"967 N. STRAITS HWY, TOPINABEE MI 49791 US"	"-84.596968"	"45.477781"
"16381"	"99189"	"00002"	"M"	""	"THE WIGWAM"	"4529 ONAWAY RD, INDIAN RIVER MI 49749 US"	"-84.579291"	"45.41068"
"16424"	"73584"	"00000"	"R"	""	"PATRICK DOUDS IRISH PUB"	"7304 MAIN STREET, MACKINAC ISLAND MI 49757 US"	"-84.61817"	"45.849565"
"16445"	"73586"	"00000"	"F"	""	"GRAYLING AIR GUNNERY RANGE"	"5884 A STREET, ALPENA MI 49707 US"	"-83.570402"	"45.077408"
"16517"	"73588"	"00000"	"F"	""	"TUBE FAB ROMAN ENGINEERING"	"1715 M-68 EAST, AFTON MI 49705 US"	"-84.455976"	"45.374971"
"16636"	"73590"	"00000"	"T"	""	"TRACTOR SUPPLY 2744"	"1015 M-68, ROGERS CITY MI 49779 US"	"-83.828776"	"45.41149"
"16638"	"73591"	"00000"	"W"	""	"STEP INN"	"325 N MAIN STREET, CHEBOYGAN MI 49721 US"	"-84.476249"	"45.645734"
"16716"	"73595"	"00000"	"M"	""	"BRUTUS CAMP DELI LLC"	"4086 US 31, ALANSON MI 49706 US"	"-84.86471"	"45.41668"
"16899"	"99189"	"00003"	"M"	""	"TORREY TAVERN LLC"	"12946 S. STRAITS HWY, WOLVERINE MI 49799 US"	"-84.603892"	"45.273879"
"16980"	"70897"	"00004"	"W"	""	"MURDICK'S FUDGE-MACKINAW CITY"	"190 S. HURON AVE, MACKINAW CITY MI 49701 US"	"-84.728079"	"45.780752"
"17076"	"73470"	"00003"	"M"	""	"BIGGBY COFFEE-INDIAN RIVER"	"4141 CLUB RD, INDIAN RIVER MI 49749 US"	"-84.610099"	"45.401743"
"1847"	"70010"	"00000"	"W"	""	"DARROW'S FAMILY RESTAURANT    "	"301 N. LOUVINGNY P.O.BOX 857, MACKINAW CITY MI 497"	"-84.734854"	"45.784022"
"1848"	"70011"	"00000"	"W"	""	"JOANN'S FUDGE - MAC. CITY     "	"303 E. CENTRAL AVE., MACKINAW CITY MI 49701 US"	"-84.7269835"	"45.7818955"
"1850"	"70013"	"00000"	"W"	""	"THE BRIDGEVIEW 24-HR DINER    "	"110 W. CENTRAL, MACKINAW CITY MI 49701 US"	"-84.7335357"	"45.7820272"
"1851"	"70900"	"00004"	"R"	""	"STARBUCKS                     "	"7308 MIAN ST VIA-ARNOLD LINE, MACKINAC ISLAND MI 4"	"-84.618211"	"45.849494"
"1852"	"73474"	"00001"	"R"	""	"JOANN'S FUDGE "	"303 E CENTRAL AVE VIA-ARNOLD LINE, MACKINAC ISLAND"	"-84.7027178"	"45.854356"
"1858"	"70021"	"00000"	"F"	""	"STATE STREET DAIRY"	"20560 STATE ST, ONAWAY MI 49765 US"	"-84.224953"	"45.357765"
"1861"	"70024"	"00000"	"T"	""	"CURTIS EXCAVATING             "	"501 PARK DR, ROGERS CITY MI 49779 US"	"-83.8145141"	"45.4088745"
"1873"	"70901"	"00001"	"R"	""	"YANKEE REBEL                  "	"1493 ASTOR ST VIA-SHEPPLER ST IGNACE, MACKINAC ISL"	"-84.618702"	"45.849262"
"1896"	"99138"	"00000"	"W"	""	"NONNA LISA                    "	"312 S. HURON, MACKINAW CITY MI 49701 US"	"-84.726742"	"45.778344"
"1907"	"70324"	"00000"	"F"	""	"ONAWAY AUTO SALES             "	"21061 M-68, ONAWAY MI 49765 US"	"-84.2357717"	"45.3535117"
"1985"	"70537"	"00000"	"T"	""	"Shalla's                      "	"326 Long Lake Ave, Alpena MI 49707 US"	"-83.431821"	"45.072337"
"2007"	"70559"	"00000"	"F"	""	"PHELPS COLLINS THE RIVER CLUB"	"5884 G Street Phelps Collins ANG, Alpena MI 49707 "	"-83.570388"	"45.077396"
"2033"	"70588"	"00000"	"F"	""	"Alpena Electric Motor Service "	"1581 M-32 West P.O. Box 565, Alpena MI 49707 US"	"-83.4837433"	"45.0610183"
"2061"	"70618"	"00000"	"T"	""	"GOODRICH PAVING               "	"5614 WESSEL RD., ALPENA MI 49707 US"	"-83.4131945"	"45.1285713"
"2075"	"70634"	"00000"	"F"	""	"Magnaloy Coupling             "	"501 Commerce Drive P.O. Box 455, Alpena MI 49707 U"	"-83.4236967"	"45.0757233"
"2080"	"70634"	"00001"	"F"	""	"Great Northern Food           "	"170 N. Industrial Hwy. P.O. Box 475, Alpena MI 497"	"-83.4602"	"45.10359"
"2214"	"99052"	"00009"	"T"	""	"APS HINKS ELEMENTARY SCHOOL"	"7667 US-23, ALPENA MI 49707 US"	"-83.466161"	"45.036612"
"2258"	"70832"	"00000"	"M"	""	"Wilson's Rivers Edge          "	"4208 South Straits Hwy, Indian River MI 49749 US"	"-84.61889"	"45.402212"
"2262"	"99062"	"00037"	"M"	""	"KEN'S VILLAGE MARKET 213"	"6433 Barbra Indian River P.O. Box 2009, Indian Riv"	"-84.617712"	"45.403873"
"2268"	"99138"	"00002"	"W"	""	"Dixie Saloon Food & Spirits   "	"401 E. Central, Mackinaw City MI 49701 US"	"-84.7252007"	"45.7819027"
"2270"	"70845"	"00000"	"W"	""	"American Legion Post 159      "	"106 South Huron, Mackinaw City MI 49701 US"	"-84.725823"	"45.7809195"
"2271"	"70846"	"00000"	"W"	""	"Key Hole Bar                  "	"323 Central Ave., Mackinaw City MI 49701 US"	"-84.7389210339216"	"45.7816024359122"
"2276"	"70852"	"00000"	"M"	""	"DOUGLAS LAKE BAR & STEAKHOUSE "	"7314 DOUGLAS LAKE DRIVE, PELLSTON MI 49769 US"	"-84.71399"	"45.5700999"
"2283"	"99047"	"00007"	"W"	""	"ALPENA ALCONA CU-CHEBOYGAN"	"1005 S MAIN ST, Cheboygan MI 49721 US"	"-84.4781742"	"45.6285902"
"2287"	"99061"	"00106"	"W"	""	"SPT. FAMILY FARE #1504"	"992 S. MAIN 992 S MAIN ST, CHEBOYGAN MI 49721 US"	"-84.482395"	"45.628502"
"2291"	"99178"	"00001"	"W"	""	"BIG BOY RESTAURANT"	"861 S MAIN ST, Cheboygan MI 49721 US"	"-84.479049"	"45.630255"
"2295"	"70876"	"00000"	"W"	""	"Straits Area Printing         "	"313 LaFayette Ave, Cheboygan MI 49721 US"	"-84.46345"	"45.6413017"
"2302"	"70883"	"00000"	"W"	""	"Modern Pharmacy               "	"127 N. Main Street, Cheboygan MI 49721 US"	"-84.47769"	"45.643894"
"2303"	"99120"	"00003"	"W"	""	"NICOLET BANK - CHEBOYGAN     "	"350 S. MAIN ST., CHEBOYGAN MI 49721 US"	"-84.481112"	"45.639913"
"2313"	"70894"	"00000"	"R"	""	"MDOT-St. Ignace               "	"500 FERRY LANE, St. Ignace MI 49781 US"	"-84.7036623"	"45.8532267"
"2314"	"70895"	"00000"	"R"	""	"Village Inn  - St. Ignace     "	"250 S. State St., St. Ignace MI 49781 US"	"-84.719217"	"45.864275"
"2315"	"99061"	"00107"	"R"	""	"SPT. FAMILY FARE #1530"	"699 US 2 4200 Manchester, ST. IGNACE MI 49781 US"	"-84.7195217"	"45.8573467"
"2316"	"70897"	"00000"	"R"	""	"GOOD DAY CAFE"	"7216 MAIN ST FREIGHT BOAT ONLY, MACKINAC ISLAND MI"	"-84.617428"	"45.850336"
"2317"	"70897"	"00003"	"R"	""	"MURDICK'S FUDGE ST IGNACE     "	"204 N. STATE ST., ST. IGNACE MI 49781 US"	"-84.725508"	"45.868168"
"2319"	"70900"	"00000"	"R"	""	"PANCAKE HOUSE                 "	"7245 MAINT ST VIA-ARNOLD LINE, MACKINAC ISLAND MI "	"-84.617338"	"45.849884"
"2320"	"70901"	"00000"	"R"	""	"HORN'S BAR                    "	"7300 Main St VIA-SHEPPLER ST IGNACE, MACKINAC ISLA"	"-84.618106"	"45.84962"
"2323"	"70904"	"00000"	"R"	""	"MILLIES ON MAIN               "	"7294 MAIN ST VIA-ARNOLD LINE, MACKINAC ISLAND MI 4"	"-84.61805"	"45.849682"
"2324"	"70900"	"00003"	"R"	""	"MARY'S BISTRO                 "	"7463 MAINT ST VIA-STARLINE, MACKINAC ISLAND MI 497"	"-84.61846"	"45.847444"
"2531"	"73404"	"00003"	"F"	""	"THUNDER BAY HEALTH - HS       "	"4549 M 33 SBHC-HIGH SCHOOL, ONAWAY MI 49765 US"	"-84.228407"	"45.349059"
"2532"	"71128"	"00000"	"F"	""	"Woodwind Restaurant           "	"20812 WASHINGTON AV, Onaway MI 49765 US"	"-84.230505"	"45.356851"
"2535"	"71131"	"00000"	"M"	""	"Eagles - Millersburg          "	"12551 Orcutt Hwy., Millersburg MI 49759 US"	"-84.061214"	"45.365906"
"2536"	"71132"	"00000"	"F"	""	"Manzana's Deli                "	"4068 Michigan Ave., Onaway MI 49765 US"	"-84.234335"	"45.35316"
"2539"	"99062"	"00096"	"F"	""	"TOM'S FAMILY MARKET 132"	"20597 STATE ST, Onaway MI 49765 US"	"-84.225884"	"45.35698"
"2540"	"71136"	"00000"	"F"	""	"City of Onaway - City Hall    "	"20774 Historical Courthouse P.O. Box 761, Onaway M"	"-84.22935"	"45.358319"
"2544"	"99126"	"00003"	"T"	""	"ROGERS CITY ACE HARDWARE"	"1040 M-68, ROGERS CITY MI 49779 US"	"-83.830983"	"45.411712"
"2546"	"73404"	"00002"	"T"	""	"Thunder Bay Health - Rogers Ci"	"205 S Bradley, ROGERS CITY MI 49779 US"	"-83.826676"	"45.411112"
"2549"	"71145"	"00000"	"W"	""	"LUTZ AUTO REPAIR LLC"	"5613 US-23 North, Rogers City MI 49779 US"	"-83.888645"	"45.467345"
"2550"	"71146"	"00000"	"T"	""	"Mike Lynch Ford               "	"135 N. Bradley Hwy, Roger City MI 49779 US"	"-83.828038"	"45.413412"
"2552"	"71148"	"00000"	"T"	""	"Chee Peng Restaurant          "	"119 W. Third St., Rogers City MI 49779 US"	"-83.81605"	"45.419479"
"2553"	"71149"	"00000"	"R"	""	"Kelly's Venture Inn           "	"3090 US-23 North, Rogers City MI 49779 US"	"-83.783115"	"45.369474"
"2556"	"99047"	"00008"	"T"	""	"ALPENA ALCONA CU-ROGERS CITY"	"478 N. Third St., Rogers City MI 49779 US"	"-83.820821"	"45.424324"
"2557"	"99061"	"00112"	"T"	""	"FAMILY FARE #1502"	"100 S. BRADLEY HWY., ROGERS CITY MI 49779 US"	"-83.825057"	"45.41273"
"2563"	"71159"	"00000"	"T"	""	"BISHOP CHEVROLET BUICK, INC."	"420 US 23, Rogers City MI 49779 US"	"-83.831184"	"45.420333"
"2564"	"71160"	"00000"	"T"	""	"CHEBOYGAN LIFE SUPPORT"	"500 PARK DR, ROGERS CITY MI 49779 US"	"-83.8145335"	"45.4099945"
"2565"	"71161"	"00000"	"T"	""	"Lighthouse Restaurant         "	"377 N. Third St., Rogers City MI 49779 US"	"-83.819732"	"45.422841"
"2567"	"71163"	"00000"	"T"	""	"NAUTICAL CITY QUICK LUBE"	"100 N. Bradley Hwy., Rogers City MI 49779 US"	"-83.826572"	"45.413896"
"2653"	"71251"	"00000"	"T"	""	"FIRST MERIT BANK 0100217     "	"10875 Michigan Ave 101 N. Washington Ave., Posen M"	"-83.6986898"	"45.2639402"
"2654"	"99047"	"00009"	"T"	""	"ALPENA ALCONA CU-POSEN"	"10514 N. Michigan, Posen MI 49776 US"	"-83.699545"	"45.269065"
"2657"	"71255"	"00000"	"T"	""	"E & T Party Store             "	"7090 State St., Posen MI 49776 US"	"-83.700910030562"	"45.2622146926681"
"2762"	"71366"	"00000"	"W"	""	"Marshall's Fudge              "	"308 E. Central Ave., Mackinaw City MI 49701 US"	"-84.726712"	"45.781181"
"2781"	"99192"	"00003"	"T"	""	"Benjey Grinding Shop          "	"108 E. Herman St., Alpena MI 49707 US"	"-83.416981"	"45.071593"
"2793"	"71399"	"00000"	"R"	""	"Hideaway Bar                  "	"10085 US 23, Alpena MI 49707 US"	"-83.434614"	"45.193737"
"2798"	"70900"	"00001"	"R"	""	"SEABISCUIT                    "	"1997 MAIN ST. VIA-ARNOLD LINE, MACKINAW ISLAND MI "	"-84.6223884958899"	"45.8467865833301"
"2808"	"71415"	"00000"	"T"	""	"O.N. Minerals                 "	"1035 Calcite Rd., Rogers City MI 49779 US"	"-83.807596"	"45.418859"
"2818"	"71425"	"00000"	"F"	""	"ALPENA CRTC ROADS AND GROUNDS "	"5884 A STREET, ALPENA MI 49707 US"	"-83.570388"	"45.077396"
"2857"	"73020"	"00000"	"F"	""	"ALPENA CRTC BASE SERVICES 122"	"5884 A-STREET, ALPENA MI 49707-8125 US"	"-83.570388"	"45.077396"
"2873"	"99212"	"00004"	"M"	""	"AWAKON FCU-WOLVERINE"	"12842 S. STATE HWY, WOLVERINE MI 49799 US"	"-84.5920843323959"	"45.2480292752454"
"2874"	"99212"	"00000"	"T"	""	"AWAKON FCU-ROGER CITY"	"279 US 23, ROGER CITY MI 49779 US"	"-83.825541"	"45.410042"
"2876"	"99212"	"00003"	"F"	""	"AWAKON FCU-ONWAY"	"20855 WASHINGTON AVE, ONWAY MI 49765 US"	"-84.230898"	"45.355891"
"2879"	"73047"	"00000"	"R"	""	"DUNCAN BAY BOAT CLUB          "	"902 BOAT CLUB DRIVE P.O. BOX 6041, CHEBOYGAN MI 49"	"-84.4408249"	"45.651286"
"2898"	"73079"	"00000"	"M"	""	"CHEBOYGAN COUNTY ROAD COMMISSI"	"7055 BUNKER RD, INDIAN RIVER MI 49749 US"	"-84.63181"	"45.38522"
"2918"	"73107"	"00000"	"F"	""	"ALPENA CRTC VECHILE MAINTENANC"	"5884 A ST BLDG 7, ALPENA MI 49707 US"	"-83.570388"	"45.077396"
"2933"	"73126"	"00000"	"M"	""	"INLAND TRANSMISSIONS          "	"5839 S. Straits Highway, INDIAN RIVER MI 49749 US"	"-84.628642"	"45.377473"
"2943"	"73404"	"00001"	"F"	""	"THUNDER BAY HEALTH            "	"21258 W M-68 HWY PO Box 722, ONAWAY MI 49765 US"	"-84.241833"	"45.354402"
"2992"	"73190"	"00000"	"T"	""	"MEDILODGE OF ROGERS CITY"	"555 N BRADLEY HWY STE D, ROGER CITY MI 49779 US"	"-83.835032"	"45.422018"
"3001"	"70897"	"00002"	"R"	""	"ISLAND SLICE PIZZERIA         "	"7234 MAIN ST, MACKINAW ISLAND MI 49757 US"	"-84.6175018"	"45.8501157"
"8534"	"99031"	"00061"	"M"	""	"BLARNEY CASTLE 220"	"7640 US31 SOUTH, ALANSON MI 49706 US"	"-84.790657"	"45.440225"
"8562"	"99031"	"00089"	"M"	""	"BLARNEY CASTLE 592"	"4524 S. STRAITS HWY, INDIAN RIVER MI 49749 US"	"-84.629666"	"45.396473"
"8563"	"99031"	"00090"	"M"	""	"BLARNEY CASTLE 600"	"6220 M-68, INDIAN RIVER MI 49749 US"	"-84.629668"	"45.396535"
"8564"	"99031"	"00091"	"W"	""	"BLARNEY CASTLE 808"	"912 S. MAIN ST, CHEBOYGAN MI 49721 US"	"-84.479809"	"45.629203"
"8565"	"99031"	"00092"	"T"	""	"BLARNEY CASTLE 816"	"101 S. BRADLEY HWY, ROGERS CITY MI 49779 US"	"-83.827228"	"45.412089"
"8566"	"99031"	"00093"	"R"	""	"BLARNEY CASTLE 852"	"200 S. STATE, ST IGNACE MI 49781 US"	"-84.71965"	"45.864679"
"8567"	"99031"	"00094"	"R"	""	"BLARNEY CASTLE 856"	"917 W US-2, ST IGNACE MI 49781 US"	"-84.7367883"	"45.8561457"
"8650"	"99031"	"00097"	"M"	""	"BLARNEY BRANCH OFFICE"	"6416 RIGGSVILLE RD, CHEBOYGAN MI 49721 US"	"-84.618787"	"45.578816"
"8702"	"73260"	"00000"	"W"	""	"TENDERCARE"	"824 S. HURON ST., CHEBOYGAN MI 49721 US"	"-84.486279"	"45.629648"
"8707"	"73262"	"00000"	"W"	""	"ROSA'S SQUEEZE INN"	"16454 US 23 N, MILLERSBURG MI 49759 US"	"-84.0963333"	"45.4943267"
"8748"	"73264"	"00000"	"M"	""	"PIER M33 ON THE CHEBOYGAN"	"9500 N. M-33, CHEBOYGAN MI 49721 US"	"-84.473717"	"45.596049"
"9052"	"73277"	"00000"	"F"	""	"ALPENA CRTC-CUSTODIAL SERVICES"	"5884 A ST, ALPENA MI 49707 US"	"-83.570388"	"45.077396"
"9098"	"99212"	"00001"	"M"	""	"AWAKON FCU-INDIAN RIVER"	"6272 M-68 HWY, INDIAN RIVER MI 48749 US"	"-84.614047"	"45.404429"
"9279"	"73289"	"00000"	"T"	""	"IMPORT & DOMESTIC AUTO SERVICE"	"6201 US 23 N, ALPENA MI 49707 US"	"-83.4402733"	"45.1369617"
"9732"	"99031"	"00104"	"T"	""	"BLARNEY CASTLE #772"	"10706 MICHIGAN AVE POSEN EZ MART #772, POSEN MI 49"	"-83.69931"	"45.266653"
"9766"	"73328"	"00000"	"M"	""	"ONAWAY DENTISTRY"	"4080 MICHIGAN AVE, ONAWAY MI 49765 US"	"-84.234377"	"45.352938"
