"cu_id"	"Account"	"Customer"	"New Delivery Day"	"Alliant Sequence"	"Customer Name"	"Address"	"X_Longitude"	"Y_Latitude"
"10136"	"73359"	"00000"	"M"	""	"AUSABLE TOWNSHIP HALL"	"4420 NORTH HURON ROAD, OSCODA MI 48750 US"	"-83.3301984560118"	"44.4283713497895"
"10295"	"73365"	"00000"	"F"	""	"THE BOAT HOUSE"	"2015 HAMILTON RD, ALPENA MI 49707 US"	"-83.45018"	"45.1045967"
"10683"	"73383"	"00000"	"W"	""	"VILLAGES OF OSCODA"	"5631 GEORGIA DRIVE, OSCODA MI 48750 US"	"-83.3534467"	"44.4433167"
"10900"	"73393"	"00000"	"F"	""	"SCHULZE, OSWALD, MILLER & EDWA"	"120 N. RIPLEY, ALPENA MI 49707 US"	"-83.451772"	"45.062343"
"11250"	"99058"	"00048"	"F"	""	"FORWARD MI STOP"	"1124 US 23 N, ALPENA MI 49707 US"	"-83.4453207400244"	"45.0722108287274"
"11498"	"73420"	"00000"	"T"	""	"LOST LAKE WOODS"	"4243 LOST LAKE TRAIL, LINCOLN MI 48742 US"	"-83.433946"	"44.778513"
"11541"	"73426"	"00000"	"R"	""	"STONE BAR & GRILL"	"7002 HURBERT RD, HUBBARD LAKE MI 49747 US"	"-83.587519"	"44.859347"
"11578"	"73431"	"00001"	"M"	""	"HURON COMMUNITY BANK-OSCODA"	"5077 N. US 23, OSCODA MI 48750 US"	"-83.330772"	"44.426996"
"11915"	"70613"	"00002"	"M"	""	"SUBWAY- OSCODA"	"5121 US 23 NORTH, OSCODA MI 48750 US"	"-83.330663"	"44.428352"
"12227"	"73457"	"00000"	"T"	""	"JACKS GARAGE"	"324 E HAWLEY, LINCOLN MI 48742 US"	"-83.407024"	"44.6825785"
"12368"	"73063"	"00006"	"M"	""	"ALCONA HEALTH CENTER-OSCODA"	"208 SOUTH STATE ST, OSCODA MI 48750 US"	"-83.353148"	"44.450185"
"13052"	"99161"	"00121"	"T"	""	"THE LINCOLN MARKET 5679 F.A."	"863 N. BARLOW RD, LINCOLN MI 48742 US"	"-83.404028"	"44.681067"
"13077"	"99161"	"00113"	"W"	""	"FAMILY FARE #1519 FIRST AID"	"5463 N. HURON RD., OSCODA MI 48750 US"	"-83.330908"	"44.437776"
"13277"	"70622"	"00002"	"M"	""	"WOLVERINE STATE CREDIT UNION"	"201 N. STATE AVE., OSCODA MI 48750 US"	"-83.330539"	"44.421708"
"13576"	"73496"	"00000"	"M"	""	"MIDWEST DIESEL SERVICE LLC"	"7230 M-32, ALPENA MI 49707 US"	"-83.597586"	"45.061156"
"13577"	"99152"	"00005"	"T"	""	"MID MICHIGAN HOSP.-LINCOLN"	"177 N. BARLOW ROAD, LINCOLN MI 48742 US"	"-83.403719"	"44.661088"
"13587"	"73498"	"00000"	"W"	""	"ALCONA BREW HAUS"	"676 N. US-23, HARRISVILLE MI 48740 US"	"-83.290475"	"44.675762"
"14044"	"73506"	"00000"	"F"	""	"B CUBED "	"666 MCKINLEY AVE, ALPENA MI 49707 US"	"-83.4491633"	"45.0669067"
"14179"	"99058"	"00046"	"M"	""	"FORWARDS OSCODA #137"	"5123 N. US-23, OSCODA MI 48750 US"	"-83.3305433"	"44.4286883"
"14258"	"99058"	"00047"	"M"	""	"GARY OIL BASE GARAGE"	"5123 N. US-23, OSCODA MI 48750 US"	"-83.3305433"	"44.4286883"
"14326"	"73431"	"00005"	"W"	""	"HURON COMMUNITY BANK-HARRISVIL"	"423 EAST MAIN STREET, HARRISVILLE MI 48740 US"	"-83.289918"	"44.65673"
"14327"	"73431"	"00006"	"T"	""	"HURON COMMUNITY BANK-LINCOLN"	"327 TRAVERSE BAY ROAD, LINCOLN MI 48742 US"	"-83.4074733"	"44.68209"
"14418"	"73515"	"00000"	"R"	""	"NORTHERN INDUSTRIAL SUPPLY"	"1105 STATE STREET, ALPENA MI 49707 US"	"-83.4460883"	"45.0493117"
"14596"	"73528"	"00000"	"R"	""	"DAVE'S CUSTOM TILLAGE, INC."	"289 E. SWEDE ROAD, SPRUCE MI 48762 US"	"-83.5140333"	"44.8295012"
"14684"	"73532"	"00000"	"W"	""	"WAGON WHEEL BAR & GRILL"	"2030 E. NICHOLSON HILL RD, OSSINEKE MI 49766 US"	"-83.44428"	"44.902672"
"14715"	"73533"	"00000"	"W"	""	"AUSABLE COLLISION"	"5660 F-41, OSCODA MI 48750 US"	"-83.346789"	"44.448705"
"14824"	"73538"	"00000"	"W"	""	"THE RED FORK"	"3228 US-23, GREENBUSH MI 48738 US"	"-83.315451"	"44.563342"
"14928"	"73545"	"00000"	"R"	""	"OSSINEKE HARDWARE/BLDG SUPPLY"	"11925 US-23, OSSINEKE MI 49766 US"	"-83.44155"	"44.90288"
"15759"	"73559"	"00000"	"W"	""	"HOPE SHORES ALLIANCE"	"837 S. STATE, OSCODA MI 48750 US"	"-83.326438"	"44.412775"
"15885"	"73563"	"00000"	"W"	""	"PLOWMANS"	"3146 US 23 SOUTH, ALPENA MI 49707 US"	"-83.465137"	"45.028589"
"16022"	"99152"	"00011"	"M"	""	"MYMICHIGAN IMAGING SERVICES"	"208 S. STATE STREET, OSCODA MI 49707 US"	"-83.330434"	"44.419115"
"16035"	"73571"	"00000"	"F"	""	"THUNDER BAY TRANSPORTATION"	"3859 US-23 N., ALPENA MI 49707 US"	"-83.452815"	"45.104706"
"16053"	"73574"	"00000"	"R"	""	"MICKEY'S MOTORS"	"11895 US-23, OSSINEKE MI 49766 US"	"-83.442545"	"44.903941"
"16159"	"73579"	"00000"	"M"	""	"OFFICE LOUNGE & GRILL"	"110 E. DWIGHT ST., OSCODA MI 48750 US"	"-83.329517"	"44.419172"
"16318"	"99031"	"00187"	"W"	""	"BLARNEY CASTLE 538"	"217 S. STATE, HARRISVILLE MI 48740 US"	"-83.29737716"	"44.65420903"
"16319"	"99031"	"00188"	"R"	""	"BLARNEY CASTLE 588"	"7120 HUBERT RD, HUBBARD LAKE MI 49747 US"	"-83.589953"	"44.859351"
"16341"	"99031"	"00192"	"M"	""	"BLARNEY CASTLE 653"	"5170 N STATE ST, OSCODA MI 48750 US"	"-83.3301826"	"44.42319585"
"16361"	"73582"	"00000"	"R"	""	"SMOKEY'S FARM TO FORK"	"5992 N. HUBBARD LAKE RD., HUBBARD LAKE MI 48762 US"	"-83.525289"	"44.826342"
"16677"	"99053"	"00017"	"T"	""	"I2P, LLC"	"711 WEST CHISHOLM, ALPENA MI 49707 US"	"-83.440462"	"45.068509"
"16692"	"73594"	"00000"	"R"	""	"LIVING HOPE CHURCH"	"1499 M-32 WEST, ALPENA MI 49707 US"	"-83.482277"	"45.060875"
"16826"	"73063"	"00011"	"T"	""	"ALCONA HEALTH CENTER-PEDIATRIC"	"1209 US 23 N, ALPENA MI 49707 US"	"-83.458266"	"45.092517"
"16929"	"73470"	"00002"	"F"	""	"BIGGBY COFFEE"	"224 E. CHISHOLM STREET, ALPENA MI 49707 US"	"-83.432013"	"45.060696"
"16991"	"73602"	"00000"	"T"	""	"HAMMER & NAIL RESTAURANT"	"1770 W. TRASK LAKE RD., BARTON CITY MI 48705 US"	"-83.599456"	"44.68318"
"16995"	"73603"	"00000"	"F"	""	"ALPENA FLOUR LLC"	"633 W. CAMPBELL ST., ALPENA MI 49707 US"	"-83.454161"	"45.060732"
"17009"	"73606"	"00000"	"F"	""	"SCRIBBLES & GIGGLES DAYCARE CT"	"1880 HAMILTON ROAD, ALPENA MI 49707 US"	"-83.45615"	"45.106947"
"17012"	"73607"	"00000"	"M"	""	"WEINKAUF PLUMBING & HEATING"	"1411 M-43 W, ALPENA MI 49707 US"	"-83.480047"	"45.060851"
"1868"	"70031"	"00000"	"M"	""	"SANDCASTLE BEACH RESORT       "	"3354 US 23, OSCODA MI 48750 US"	"-83.3325614"	"44.37745"
"1885"	"70106"	"00000"	"R"	""	"KENTUCKY FRIED CHICKEN        "	"1130 STATE ST, ALPENA MI 49707 US"	"-83.446096"	"45.048542"
"1913"	"70359"	"00000"	"M"	""	"Bavarian Bakery               "	"5222 North US - 23, Oscoda MI 48750 US"	"-83.329624"	"44.431433"
"1936"	"70485"	"00000"	"R"	""	"ARBY'S                        "	"2250 US-23 SOUTH, Alpena MI 49707 US"	"-83.456922"	"45.044087"
"1937"	"70486"	"00000"	"T"	""	"Alcona Motors, Inc.           "	"313 S. Second Lincoln P.O. Box 130, Lincoln MI 487"	"-83.411042"	"44.681911"
"1950"	"70500"	"00000"	"R"	""	"Players Pub & Grub            "	"113 S. Ninth St., Alpena MI 49707 US"	"-83.4422808"	"45.0687915"
"1952"	"70502"	"00000"	"T"	""	"Latitudes                     "	"307 W. Chisholm St., Alpena MI 49707 US"	"-83.435797"	"45.06455"
"1962"	"70512"	"00000"	"F"	""	"CLIFF ANSCHUETZ CHEVY - BODY  "	"1074 US-23 NORTH, ALPENA MI 49707 US"	"-83.455893"	"45.08653"
"1967"	"70518"	"00000"	"M"	""	"Alpena County Road            "	"1400 N. BAGLEY STREET, ALPENA MI 49707 US"	"-83.4732837"	"45.0661747"
"1972"	"70523"	"00000"	"F"	""	"L & S Concrete Co.            "	"520 Fair St., Alpena MI 49707 US"	"-83.45029"	"45.06624"
"1979"	"99178"	"00000"	"R"	""	"Big Boy Ripley                "	"400 South Ripley, Alpena MI 49707 US"	"-83.452781"	"45.048124"
"1989"	"70541"	"00000"	"F"	""	"Immanuel Lutheran Church      "	"351 Wilson St., Alpena MI 49707 US"	"-83.452501"	"45.082956"
"1993"	"70545"	"00000"	"F"	""	"ALPENA GOLF CLUB              "	"1135 GOLF COURSE RD, ALPENA MI 49707 US"	"-83.4671475"	"45.087826"
"2012"	"70565"	"00000"	"R"	""	"Mancino's - Alpena            "	"1235 State St. 319 Parson St., Alpena MI 49707 US"	"-83.447651"	"45.048427"
"2039"	"70595"	"00000"	"F"	""	"CHARTER TOWNSHIP OF ALPENA"	"4385 US-23 North, Alpena MI 49707 US"	"-83.4500298"	"45.1108792"
"2046"	"70603"	"00000"	"T"	""	"ALLEGRA PRINTING"	"829 W. Chisholm St., Alpena MI 49707 US"	"-83.442205"	"45.070042"
"2054"	"70611"	"00000"	"R"	""	"Birchwood Meadows             "	"2550 E. Grant St., Alpena MI 49707 US"	"-83.4595983"	"45.0464783"
"2064"	"70622"	"00000"	"F"	""	"WOLVERINE STATE CREDIT UNION"	"1381 N. Bagley St P.O. Box 395, Alpena MI 49707 US"	"-83.470976"	"45.065142"
"2065"	"70623"	"00000"	"R"	""	"Downtown Union 76             "	"201 E. Chisholm St., Alpena MI 49707 US"	"-83.431776"	"45.061298"
"2082"	"70641"	"00000"	"W"	""	"State St. Lube                "	"105 Mason St., Alpena MI 49707 US"	"-83.4485"	"45.04766"
"2094"	"70655"	"00000"	"F"	""	"19th Hole                     "	"1081 U.S.23 North, Alpena MI 49707 US"	"-83.45743"	"45.086734"
"2104"	"70666"	"00000"	"T"	""	"Sports Page Lounge            "	"823 W. Chisholm St., Alpena MI 49707 US"	"-83.4415"	"45.06927"
"2139"	"70703"	"00000"	"F"	""	"Skiba Insurance               "	"127 River St., Alpena MI 49707 US"	"-83.432485"	"45.063289"
"2143"	"70707"	"00000"	"T"	""	"Steve's Repair Shop           "	"1208 N. US-23, Alpena MI 49707 US"	"-83.45718"	"45.0920783"
"2144F"	"99152"	"00008"	"F"	""	"ALPENA REGIONAL MEDICAL CENTER"	"1501 W. Chisholm, Alpena MI 49707 US"	"-83.449526"	"45.077756"
"2144M"	"99152"	"00008"	"M"	""	"ALPENA REGIONAL MEDICAL CENTER"	"1501 W. Chisholm, Alpena MI 49707 US"	"-83.449526"	"45.077756"
"2147"	"70711"	"00000"	"R"	""	"Bogarts Tavern                "	"2085 Werth Rd., Alpena MI 49707 US"	"-83.461684"	"45.041214"
"2152"	"99052"	"00004"	"R"	""	"APS SANBORN ELEMENTARY SCHOOL"	"12170 US-23 South, Ossineke MI 49766 US"	"-83.442794"	"44.899742"
"2160"	"99053"	"00006"	"F"	""	"PCI - 2nd Ave.                "	"112 2nd Ave P.O. Box 115, Alpena MI 49707 US"	"-83.432461"	"45.06246"
"2173"	"70740"	"00000"	"T"	""	"Joe's Bar                     "	"1300 Ford Ave., Alpena MI 49707 US"	"-83.417866"	"45.06883"
"2192"	"70762"	"00000"	"R"	""	"Rosa's Lookout Inn            "	"6808 US-23 South, Spruce MI 48762 US"	"-83.418689"	"44.854673"
"2193"	"73063"	"00008"	"R"	""	"OSSINEKE SERVICES"	"11745 US 23 S PO Box 83, Ossineke MI 49766 US"	"-83.442202"	"44.905986"
"2196"	"99213"	"00000"	"R"	""	"Ossineke Industries           "	"10401 Piper Rd. P.O. Box 376, Ossineke MI 49766 US"	"-83.4424178"	"44.9287363"
"2197"	"99047"	"00001"	"R"	""	"Alp-Alcona C.U. (Ossineke)    "	"11829 US-23 South P.O. Box 515, Ossineke MI 49766 "	"-83.442369"	"44.904732"
"2198"	"70768"	"00000"	"R"	""	"Ossineke Pharmacy             "	"11897 US-23 South, Ossineke MI 49766 US"	"-83.442495"	"44.9036017"
"2199"	"70769"	"00000"	"R"	""	"Francis Service               "	"11923 US-23 SOUTH COMPANY 159, Ossineke MI 49766 U"	"-83.442621"	"44.903046"
"2203"	"70773"	"00000"	"W"	""	"Gauthier Heating              "	"5401 N. US -23, BLACK RIVER MI 48721 US"	"-83.34962677"	"44.80986364"
"2209"	"70780"	"00000"	"R"	""	"Connie's Cafe                 "	"11585 US-23 South, Ossineke MI 49766 US"	"-83.442377"	"44.908148"
"2212"	"70784"	"00000"	"R"	""	"CHIPPEWA POINT                "	"6575 US 23, SPRUCE MI 48762 US"	"-83.406732"	"44.845368"
"2226"	"70799"	"00000"	"T"	""	"Alcona Elementary School      "	"51 N. Barlow Rd., Lincoln MI 48742 US"	"-83.406471"	"44.661378"
"2227"	"70800"	"00000"	"T"	""	"Alcona High School            "	"51 N. Barlow Rd., Lincoln MI 48742 US"	"-83.406471"	"44.661378"
"2228"	"70801"	"00000"	"T"	""	"ALCONA COUNTY COMMISION ON AGI"	"207 CHURCH ST., LINCOLN MI 48742 US"	"-83.408116"	"44.68328"
"2230"	"70803"	"00000"	"W"	""	"Party & Food Center           "	"5692 N. F-41, Oscoda MI 48750 US"	"-83.346098"	"44.446731"
"2232"	"70805"	"00000"	"W"	""	"Irish Pub                     "	"4709 F-41, Oscoda MI 48750 US"	"-83.332569"	"44.4365462"
"2376"	"70961"	"00000"	"F"	""	"WMCR                          "	"224 WEST CHISHOLM, ALPENA MI 49707 US"	"-83.4348855756681"	"45.0634615269899"
"2377"	"99047"	"00003"	"T"	""	"Alp-Alcona C.U. (North)       "	"1013 US-23 North P.O. Box 515, Alpena MI 49707 US"	"-83.456318"	"45.083646"
"2378"	"70963"	"00000"	"F"	""	"Thunder Bay Title             "	"621 W CHISHOLM ST, ALPENA MI 49707 US"	"-83.4396918"	"45.0677392"
"2429"	"71016"	"00000"	"R"	""	"DeRocher Masonry              "	"12272 US-23 South, Ossineke MI 49766 US"	"-83.4409362"	"44.8973358"
"2460"	"73063"	"00002"	"W"	""	"Alcona Health Center - Harrisv"	"205 North State Street P.O. Box 130, Harrisville M"	"-83.294992"	"44.657998"
"2462"	"71054"	"00000"	"W"	""	"Sunrise Tool Products         "	"604 S. Third, Harrisville MI 48740 US"	"-83.294174"	"44.6513113"
"2466"	"71058"	"00000"	"W"	""	"Manus Tool                    "	"510 S. Third St. P.O. Box 248, Harrisville MI 4874"	"-83.294262"	"44.651854"
"2467"	"71059"	"00000"	"W"	""	"SHOTMAKERS                    "	"49 Main Street, HARRISVILLE MI 48740 US"	"-83.2945433"	"44.65629"
"2469"	"71061"	"00000"	"R"	""	"North End Restaruant          "	"1575 Hubert Rd P.O. Box 131, Hubbard Lake MI 49747"	"-83.59025"	"44.85878"
"2578"	"71174"	"00000"	"T"	""	"Barton City Eagles            "	"671 Sanborn Rd., Barton City MI 48705 US"	"-83.5853"	"44.66934"
"2579"	"71175"	"00000"	"M"	""	"Mikado Market                 "	"2276 F-41 P.O. Box 165, Mikado MI 48745 US"	"-83.422876"	"44.5901"
"2580"	"71176"	"00000"	"T"	""	"SCOTT'S BAR & GRILL"	"1758 W TRASK LAKE RD, Barton City MI 48705 US"	"-83.598663"	"44.682985"
"2581"	"71177"	"00000"	"R"	""	"White Pine Golf               "	"3450 N.Hubbard Lake Rd., Spruce MI 48762 US"	"-83.525289"	"44.754415"
"2585"	"71181"	"00000"	"T"	""	"Lincoln Outdoor Center        "	"300 S SECOND ST, LINCOLN MI 48742 US"	"-83.412004"	"44.682569"
"2586"	"71182"	"00000"	"T"	""	"NORTHERN INDUSTRIAL WOOD INC."	"507 STATE ROAD COMPANY 164, Lincoln MI 48742 US"	"-83.4177133"	"44.6793067"
"2587"	"71183"	"00000"	"T"	""	"Northern Precision            "	"601 South Lake St, Lincoln MI 48742 US"	"-83.4129063"	"44.6790728"
"2593"	"99062"	"00121"	"T"	""	"THE LINCOLN MARKET 5679"	"863 N. Barlow Rd., Lincoln MI 48742 US"	"-83.404028"	"44.681067"
"2595"	"73063"	"00003"	"T"	""	"Alcona Health Center-Lincoln  "	"177 N. BARLOW RD PO BOX 279, Lincoln MI 48742 US"	"-83.403719"	"44.661088"
"2596"	"71193"	"00000"	"T"	""	"Alcona County Road            "	"301 N LAKE ST PO BOX 40, LINCOLN MI 48742 US"	"-83.414273"	"44.687208"
"2597"	"71194"	"00000"	"T"	""	"Lincoln Haven Health Care     "	"950 N. Barlow Rd., Lincoln MI 48742 US"	"-83.40244"	"44.683676"
"2600"	"99047"	"00002"	"T"	""	"Alp-Alcona C.U.(Lincoln)      "	"111 Church St. Lincoln P.O. Box 515, Lincoln MI 48"	"-83.407733"	"44.684253"
"2601"	"71198"	"00000"	"M"	""	"AMERICAN LEGION 254          "	"2205 Alger P.O. Box 161, Mikado MI 48745 US"	"-83.420475"	"44.592527"
"2602"	"71199"	"00000"	"M"	""	"Mikado Tavern                 "	"2167 S. F 41, Mikado MI 48745 US"	"-83.42221"	"44.593389"
"2603"	"99061"	"00113"	"W"	""	"FAMILY FARE #1519"	"5463 N. HURON RD. 5463 N. HURON RD, OSCODA MI 4875"	"-83.330908"	"44.437776"
"2607"	"99121"	"00007"	"M"	""	"Oscoda G's Pizzeria           "	"5226 N. US-23, Oscoda MI 48750 US"	"-83.329243"	"44.431558"
"2609"	"71206"	"00000"	"W"	""	"Tait's Bill of Fare           "	"111 E. Dwight Ave., Oscoda MI 48750 US"	"-83.329413"	"44.419678"
"2610"	"71207"	"00000"	"W"	""	"Pete's Party Store            "	"6521 US-23 North, Oscoda MI 48750 US"	"-83.3240648"	"44.468213"
"2614"	"71211"	"00000"	"W"	""	"Lakewood Shores P.O.A.        "	"7701 E. Cedar Lake Dr., Oscoda MI 48750 US"	"-83.3326127"	"44.5029742"
"2616"	"71213"	"00000"	"M"	""	"V.F.W. Post 3735              "	"240 Chrysler, Oscoda MI 48750 US"	"-83.325314"	"44.413266"
"2618"	"71215"	"00000"	"M"	""	"Oscoda Kentucky Fried Chicken "	"5150 N US-23 P.O. Box 1385, Oscoda MI 48750 US"	"-83.329645"	"44.429369"
"2621"	"71218"	"00000"	"W"	""	"Mama's Country Kitchen        "	"384 S. State Street, Oscoda MI 48750 US"	"-83.3259177"	"44.4110612"
"2622"	"71219"	"00000"	"M"	""	"CHANG YANG"	"220 S. State St., Oscoda MI 48750 US"	"-83.3339765797817"	"44.4071296543162"
"2623"	"71220"	"00000"	"M"	""	"AuSable Trans                 "	"209 S. State St., Oscoda MI 48750 US"	"-83.3317988640494"	"44.4084207272673"
"2627"	"71224"	"00000"	"M"	""	"Vista Lanes                   "	"5214 N. US-23 P.O. Box 481, Oscoda MI 48750 US"	"-83.329344"	"44.430907"
"2628"	"71225"	"00000"	"M"	""	"Block & Bottle                "	"5155 US-23 North P.O. Box 243, Oscoda MI 48750 US"	"-83.330653"	"44.430515"
"2632"	"71229"	"00000"	"M"	""	"Gilbert's Drug Store          "	"212 State St., Oscoda MI 48750 US"	"-83.33054"	"44.418915"
"2634"	"71231"	"00000"	"M"	""	"Desi's Taco Lounge            "	"1945 W. River, Oscoda MI 48750 US"	"-83.5608480159421"	"44.4422925132319"
"2637"	"99047"	"00000"	"M"	""	"Alpena Alcona Area C.U. (Oscod"	"103 S. State St. P.O. Box 515, Oscoda MI 48750 US"	"-83.3315114548439"	"44.4086153443763"
"2638"	"71235"	"00000"	"M"	""	"Johnson Auto Supply           "	"5070 US-23, Oscoda MI 48750 US"	"-83.329568"	"44.427057"
"2640"	"71237"	"00000"	"W"	""	"Eagles                        "	"6685 US-23 North, Oscoda MI 48750 US"	"-83.323018"	"44.471865"
"2641"	"71238"	"00000"	"W"	""	"Trinity Lutheran Church       "	"5625 N. US 23, Oscoda MI 48750 US"	"-83.33096"	"44.442705"
"2787"	"99152"	"00006"	"T"	""	"MYMICHIGAN HEALTH"	"1501 W. Chisholm St., Alpena MI 49707 US"	"-83.449542"	"45.077664"
"2804"	"71411"	"00000"	"W"	""	"Jamieson Nursing Home         "	"790 U.S. 23 South P.O. Box 369, Harrisville MI 487"	"-83.311008"	"44.634412"
"2811"	"99152"	"00004"	"M"	""	"MID MICHIGAN HOSP.-OSCODA   "	"208 SOUTH STATE STREET, OSCODA MI 48750 US"	"-83.403719"	"44.661088"
"2814"	"73063"	"00004"	"M"	""	"ALCONA HEALTH CENTER - OSCODA "	"208 SOUTH STATE ST, OSCODA MI 48750 US"	"-83.353148"	"44.450185"
"2836"	"72000"	"00000"	"M"	""	"American Legion               "	"849 S. State, Oscoda MI 48750 US"	"-83.324691"	"44.412177"
"2891"	"99054"	"00030"	"M"	""	"CHARTER COMMUNICATION OSCODA  "	"345 S. STATE ST., OSCODA MI 48750 US"	"-83.33206"	"44.408121"
"2912"	"73099"	"00000"	"F"	""	"CLIFF ANSCHUETZ CHEV - SERVICE"	"1074 US - 23 NORTH, ALPENA MI 49707 US"	"-83.455893"	"45.08653"
"2913"	"73102"	"00000"	"F"	""	"CLIFF ANSCHUETZ CHEVROLET OLDS"	"1074 US-23 NORTH BODY SHOP, ALPENA MI 49707 US"	"-83.455893"	"45.08653"
"2966"	"73162"	"00000"	"F"	""	"LAFARGE MIDWEST INC OFFICE    "	"1435 FORD AVE, ALPENA MI 49707 US"	"-83.409056"	"45.0707383"
"2971"	"73168"	"00000"	"R"	""	"ABEND BROTHERS COLLISION      "	"10130 US 23 SOUTH, OSSINEKE MI 49766 US"	"-83.436572"	"44.931034"
"8530"	"99031"	"00057"	"R"	""	"BLARNEY CASTLE 736"	"11596 US 23 SO, OSSINEKE MI 49766 US"	"-83.44357"	"44.908698"
"8539"	"99031"	"00066"	"W"	""	"BLARNEY CASTLE #536"	"449 S. US 23, HARRISVILLE MI 48740 US"	"-83.304158"	"44.643395"
"9582"	"73311"	"00000"	"W"	""	"HILLTOP BAR & GRILL"	"431 N MILL ST, OSCODA MI 48750 US"	"-83.341904"	"44.419621"
"9618"	"73314"	"00000"	"T"	""	"MARATHON"	"921 N BARLOW, LINCOLN MI 48742 US"	"-83.403769"	"44.68212"
"9759"	"73327"	"00000"	"W"	""	"MOUNTAIN FOOD SERVICE"	"5495 US 23 N, BLACK RIVER MI 48721 US"	"-83.3568901094524"	"44.8139621425122"
"9797"	"73332"	"00000"	"R"	""	"COUSINS GRILL"	"214 W MT. MARIE RD, SPRUCE MI 48762 US"	"-83.533343"	"44.756618"
"9919"	"99062"	"00120"	"M"	""	"ROGERS-OSCOCA 4055"	"5112 US 23, OSCODA MI 48750 US"	"-83.329316"	"44.427904"
