"cu_id"	"Account"	"Customer"	"New Delivery Day"	"Alliant Sequence"	"Customer Name"	"Address"	"X_Longitude"	"Y_Latitude"
"10254"	"31251"	"00000"	"R"	""	"THE PANTHEION CLUB"	"12900 MICH AVE, DEARBORN MI 48126 US"	"-83.169096"	"42.324441"
"10255"	"31252"	"00000"	"R"	""	"LA SHISH"	"12918 MICHIGAN AVE, DEARBORN MI 48126 US"	"-83.16928"	"42.324325"
"10534"	"31470"	"00000"	"M"	""	"BIG BOY-ROMULUS"	"8210 MERRIMAN, ROMULUS MI 48174 US"	"-83.348665"	"42.245086"
"10573"	"31492"	"00000"	"R"	""	"KINGS BAKERY"	"4618 GREENFIELD ROAD, DEARBORN MI 48121 US"	"-83.194667"	"42.318371"
"1064"	"27018"	"00000"	"T"	""	"JONNA'S MARKET                "	"16937 BEECH DALY, TAYLOR MI 48180 US"	"-83.286211"	"42.18312"
"10717"	"31608"	"00000"	"F"	""	"ADONIS RESTAURANT"	"4853 SCHAFER ROAD, DEARBORN MI 48126 US"	"-83.176272"	"42.322754"
"10753"	"31623"	"00000"	"T"	""	"PREMIER DENTAL LAB"	"10501 Allen Road SUITE 210, Allen Park MI 48101 US"	"-83.256413"	"42.341513"
"10809"	"31647"	"00000"	"M"	""	"HI LITE SUPERMARKET"	"15539 S. TELEGRAPH, MONROE MI 48161 US"	"-83.427014"	"41.903646"
"10957"	"99033"	"00206"	"M"	""	"MONROE POWER PLANT 43086"	"3500 E. FRONT ST, MONROE MI 48161 US"	"-83.346254"	"41.892536"
"10959"	"99033"	"00208"	"M"	""	"DET EDISON OSB 43084"	"6400 DIXIE HWY, NEWPORT MI 48166 US"	"-83.269819"	"41.999177"
"10983"	"99111"	"00000"	"M"	""	"BEAUMONT FOOD & NUTRITION"	"5450 FORT ST, TRENTON MI 48183 US"	"-83.213547"	"42.117024"
"10985"	"99111"	"00001"	"T"	""	"BEAUMONT HOSPITAL - DEARBORN"	"18101 OAKWOOD BLVD, DEARBORN MI 48124 US"	"-83.21441"	"42.290672"
"10995"	"99111"	"00002"	"T"	""	"BEAUMONT HOSPITAL - TAYLOR"	"10000 TELEGRAPH ROAD, TAYLOR MI 48180 US"	"-83.276538"	"42.235168"
"11012"	"99033"	"00110"	"W"	""	"ECORSE PUBLIC SCHOOLS 12062"	"27385 W. OUTER DR, ECORSE MI 48229 US"	"-83.151039"	"42.250772"
"11148"	"99108"	"00001"	"M"	""	"THE PLAYHOUSE"	"13201 MIDDLEBELT ROAD, ROMULUS MI 48174 US"	"-83.326176"	"42.208616"
"11364"	"99076"	"00011"	"F"	""	"VISTA MARIA-MYRIAM HALL"	"20651 WEST WARREN, DEARBORN HEIGHTS MI 48127 US"	"-83.244289"	"42.340653"
"1144"	"99048"	"00019"	"T"	""	"OLGAS 603 FAIRLANE"	"3432 FAIRLANE DR, ALLEN PARK MI 48101 US"	"-83.208741"	"42.280915"
"1146"	"99048"	"00020"	"M"	""	"OLGAS 610 WOODHAVEN"	"23404 ALLEN ROAD, WOODHAVEN MI 48183 US"	"-83.227005"	"42.138284"
"11488"	"32043"	"00000"	"T"	""	"THE BRAKE SHOP"	"21896 GODDARD, TAYLOR MI 48180 US"	"-83.247834"	"42.227524"
"1176"	"27509"	"00000"	"W"	""	"EURIKA FARM MARKET            "	"14601 EURIKA, SOUTHGATE MI 48195 US"	"-83.201215"	"42.198607"
"1179"	"99055"	"00016"	"F"	""	"JET'S PIZZA MI-089"	"23541 FORD RD, DEARBORN MI 48128 US"	"-83.26714"	"42.326711"
"12015"	"32322"	"00000"	"M"	""	"ZHONDING USA INC"	"400 DETROIT AVENUE, MONROE MI 48162 US"	"-83.370921"	"41.91584"
"12038"	"99033"	"00192"	"T"	""	"DLTC-LEVY"	"222 REPUBLIC DR, ALLEN PARK MI 48101 US"	"-83.201834"	"42.298914"
"12111"	"499014"	"00059"	"M"	""	"RX OPTICAL                    "	"22750 ALLEN RD, WOODHAVEN MI 48183 US"	"-83.226935"	"42.142154"
"1218"	"27670"	"00000"	"T"	""	"CATTLEMANS                    "	"11400 TELEGRAPH, TAYLOR MI 48180 US"	"-83.2715"	"42.223976"
"12219"	"32436"	"00000"	"M"	""	"BIG BOY"	"22100 WEST ROAD, WOODHAVEN MI 48183 US"	"-83.247402"	"42.13878"
"1228"	"499014"	"00033"	"F"	""	"RX OPTICAL                    "	"23055 OUTER DR, ALLEN PARK MI 48101 US"	"-83.214132"	"42.278261"
"12308F"	"99079"	"00030"	"F"	""	"MOTOR CITY PEAKS"	"14980 DIX TOLEDO RD, SOUTHGATE MI 48195 US"	"-83.211449"	"42.199622"
"12308T"	"99079"	"00030"	"T"	""	"MOTOR CITY PEAKS"	"14980 DIX TOLEDO RD, SOUTHGATE MI 48195 US"	"-83.211449"	"42.199622"
"12310"	"32483"	"00000"	"F"	""	"ISLAMIC CENTER OF AMERICA"	"19500 FORD ROAD, DEARBORN MI 48128 US"	"-83.229821"	"42.330378"
"12419"	"32540"	"00000"	"R"	""	"ALANOS PIZZA"	"14212 MICHIGAN AVENUE, DEARBORN MI 48216 US"	"-83.180717"	"42.321018"
"12525"	"32597"	"00000"	"W"	""	"HDV LINCOLN PARK"	"980 JOHN A PAPALAS DRIVE, LINCOLN PARK MI 48146 US"	"-83.176219"	"42.264858"
"12610"	"32660"	"00000"	"W"	""	"BUFFY'S MEXI-CASIAN GRILL"	"1620 John A Papalas Drive, Lincoln Park MI 48146 U"	"-83.18123"	"42.211247"
"12664"	"32701"	"00000"	"R"	""	"DEARBORN-BUILDING SVC MAINT"	"2951 GREENFIELD DOOR 14, DEARBORN MI 48216 US"	"-83.1838745"	"42.2979198"
"12665"	"32701"	"00001"	"R"	""	"DEARBORN-CENTRAL GARAGE"	"2650 GREENFIELD, DEARBORN MI 48216 US"	"-83.1791565"	"42.2962387"
"12668"	"32701"	"00003"	"R"	""	"DEARBORN-HOUSING KENNEDY PLAZA"	"5111 BINGHAM, DEARBORN MI 48216 US"	"-83.173967"	"42.325135"
"12669"	"32701"	"00004"	"R"	""	"DEARBORN-HOUSING TT"	"7000 FREDA ST, DEARBORN MI 48216 US"	"-83.159154"	"42.343092"
"12670"	"32701"	"00007"	"R"	""	"DEARBORN-PUBLIC SERVICES HWY"	"2951 GREENFIELD DOOR 1, DEARBORN MI 48216 US"	"-83.1838745"	"42.2979198"
"12671"	"32701"	"00008"	"R"	""	"DEARBORN-PUBLIC SERVICES PARKS"	"2951 GREENFIELD DOOR 1, DEARBORN MI 48216 US"	"-83.1838745"	"42.2979198"
"12672"	"32701"	"00005"	"R"	""	"DEARBORN-POLICE GARAGE"	"16099 MICHIGAN AVENUE, DEARBORN MI 48213 US"	"-83.20033"	"42.313969"
"12673"	"32701"	"00006"	"R"	""	"DEARBORN-POWERHOUSE"	"16001 MICHIGAN AVENUE, DEARBORN MI 48216 US"	"-83.1974353"	"42.3126865"
"12674"	"32701"	"00009"	"R"	""	"DEARBORN-PUBLIC SVC SANITATION"	"2951 GREENFIELD, DEARBORN MI 48216 US"	"-83.1838745"	"42.2979198"
"12675"	"32701"	"00010"	"R"	""	"DEARBORN-RECREATION"	"15801 MICHIGAN AVENUE, DEARBORN MI 48216 US"	"-83.197219"	"42.313966"
"12677"	"32701"	"00011"	"R"	""	"DEARBORN-SEWERAGE"	"2701 GREENFIELD, DEARBORN MI 48216 US"	"-83.181655"	"42.296206"
"12678"	"32701"	"00012"	"R"	""	"DEARBORN-WATER"	"2951 GREENFIELD DOOR 14, DEARBORN MI 48216 US"	"-83.1838745"	"42.2979198"
"12686"	"32709"	"00000"	"R"	""	"DEARBORN-ADMINISTRATIVE CENTER"	"16901 MICHIGAN AVENUE, DEARBORN MI 48126 US"	"-83.205931"	"42.312559"
"12688"	"32709"	"00002"	"R"	""	"DEARBORN-19TH DISTRICT COURT"	"16077 MICHIGAN AVENUE, DEARBORN MI 48126 US"	"-83.1996212"	"42.3129375"
"12691"	"32709"	"00005"	"R"	""	"DEARBORN-DPW PUBLIC SERVICE"	"2951 GREENFIELD DOOR 12, DEARBORN MI 48120 US"	"-83.1838745"	"42.2979198"
"12692"	"32709"	"00006"	"R"	""	"DEARBORN-DPW ADMINISTRATIVE"	"2951 GREENFIELD DOOR 5, DEARBORN MI 48120 US"	"-83.1838745"	"42.2979198"
"1273"	"99048"	"00024"	"T"	""	"OLGA'S 205"	"23380 EUREKA RD., TAYLOR MI 48180 US"	"-83.259595"	"42.198396"
"1275"	"99048"	"00026"	"M"	""	"OLGA'S 201 MONROE"	"2072 NORTH TELEGRAPH RD, FRENCHTOWN TOWNSHIP MI 48"	"-83.398905"	"41.950005"
"12766"	"32701"	"00013"	"R"	""	"DEARBORN CENTRAL GARAGE"	"2650 GREENFIELD, DEARBORN MI 48216 US"	"-83.1791565"	"42.2962387"
"12784"	"32764"	"00000"	"W"	""	"GRAND PORT CAFE"	"4453 W. JEFFERSON AVENUE, ECORSE MI 48229 US"	"-83.14428"	"42.241447"
"12892"	"99033"	"00226"	"W"	""	"ATRIA KING HAVEN 47128"	"14800 KING ROAD, RIVERVIEW MI 48193 US"	"-83.203845"	"42.156171"
"12924"	"32814"	"00000"	"W"	""	"CHARLIE'S FAMILY DINING"	"1817 DIX ROAD, LINCOLN PARK MI 48146 US"	"-83.191551"	"42.256548"
"13161"	"32881"	"00000"	"F"	""	"ALWATAN BAKERY"	"24725 W. WARREN, DEARBORN HEIGHTS MI 48129 US"	"-83.281003"	"42.340896"
"1330"	"28140"	"00000"	"M"	""	"TOARMINAS PIZZA               "	"7640 MERRIMAN, ROMULUS MI 48174 US"	"-83.348559"	"42.248385"
"1331"	"28141"	"00000"	"M"	""	"WORK SAFE-MIDWEST HEALTH      "	"1 INTERNATIONAL DRIVE, FLAT ROCK MI 48134 US"	"-83.24762"	"42.103213"
"13506"	"99101"	"00000"	"W"	""	"CHICAGO'S PIZZA  ALLEN PARK"	"6639 ALLEN ROAD, ALLEN PARK MI 48101 US"	"-83.209264"	"42.257767"
"13588"	"32956"	"00000"	"W"	""	"BIG BOY"	"3366 BIDDLE AVENUE, WYANDOTTE MI 48192 US"	"-83.151704"	"42.199115"
"1358F"	"99076"	"00010"	"F"	""	"VISTA MARIA-DEROY"	"20651 WEST WARREN, DEARBORN HEIGHTS MI 48127 US"	"-83.243806"	"42.340804"
"1358T"	"99076"	"00010"	"T"	""	"VISTA MARIA-DEROY"	"20651 WEST WARREN, DEARBORN HEIGHTS MI 48127 US"	"-83.244289"	"42.340653"
"1359F"	"99076"	"00009"	"F"	""	"VISTA MARIA-DONNA MARIA       "	"20651 WEST WARREN, DEARBORN HEIGHTS MI 48127 US"	"-83.243806"	"42.340804"
"1359T"	"99076"	"00009"	"T"	""	"VISTA MARIA-DONNA MARIA       "	"20651 WEST WARREN, DEARBORN HEIGHTS MI 48127 US"	"-83.244289"	"42.340653"
"13603"	"32685"	"00001"	"M"	""	"BROSE NEW BOSTON"	"23400 BELL ROAD, NEW BOSTON MI 48164 US"	"-83.38494"	"42.133867"
"1360F"	"99076"	"00012"	"F"	""	"VISTA MARIA-DELORES HALL      "	"20651 WEST WARREN, DEARBORN HEIGHTS MI 48127 US"	"-83.243806"	"42.340804"
"1360T"	"99076"	"00012"	"T"	""	"VISTA MARIA-DELORES HALL      "	"20651 WEST WARREN, DEARBORN HEIGHTS MI 48127 US"	"-83.244289"	"42.340653"
"1361F"	"99076"	"00008"	"F"	""	"VISTA MARIA-ROSE HALL         "	"20651 WEST WARREN, DEARBORN HEIGHTS MI 48127 US"	"-83.243806"	"42.340804"
"1361T"	"99076"	"00008"	"T"	""	"VISTA MARIA-ROSE HALL         "	"20651 WEST WARREN, DEARBORN HEIGHTS MI 48127 US"	"-83.244289"	"42.340653"
"1362F"	"99076"	"00007"	"F"	""	"VISTA MARIA-LOURDES HALL      "	"20651 WEST WARREN, DEARBORN HEIGHTS MI 48127 US"	"-83.243806"	"42.340804"
"1362T"	"99076"	"00007"	"T"	""	"VISTA MARIA-LOURDES HALL      "	"20651 WEST WARREN, DEARBORN HEIGHTS MI 48127 US"	"-83.244289"	"42.340653"
"1363F"	"99076"	"00006"	"F"	""	"VISTA MARIA-BEATA HALL        "	"20651 WEST WARREN, DEARBORN HEIGHTS MI 48127 US"	"-83.243806"	"42.340804"
"1363T"	"99076"	"00006"	"T"	""	"VISTA MARIA-BEATA HALL        "	"20651 WEST WARREN, DEARBORN HEIGHTS MI 48127 US"	"-83.244289"	"42.340653"
"1364"	"99076"	"00005"	"F"	""	"VISTA MARIA-GYM/KITCHEN       "	"20651 WEST WARREN, DEARBORN HEIGHTS MI 48127 US"	"-83.244289"	"42.340653"
"1365"	"99076"	"00004"	"F"	""	"VISTA MARIA-BRENNEN HALL      "	"20651 WEST WARREN, DEARBORN HEIGHTS MI 48127 US"	"-83.244289"	"42.340653"
"1366"	"99076"	"00003"	"F"	""	"VISTA MARIA-COMMUNITY PROGRAMS"	"20651 WEST WARREN, DEARBORN HEIGHTS MI 48127 US"	"-83.244289"	"42.340653"
"1367"	"99076"	"00002"	"F"	""	"VISTA MARIA-WURZER HALL       "	"20651 WEST WARREN, DEARBORN HEIGHTS MI 48127 US"	"-83.244289"	"42.340653"
"1368"	"99076"	"00001"	"F"	""	"VISTA MARIA-GUARDHOUSE        "	"20651 WEST WARREN, DEARBORN HEIGHTS MI 48127 US"	"-83.244289"	"42.340653"
"13934"	"32984"	"00000"	"W"	""	"PARK RESTAURANT"	"1681 FORT STREET, LINCOLN PARK MI 48146 US"	"-83.1774015"	"42.2522152"
"14072"	"99112"	"00000"	"T"	""	"INTIMATE IDEAS-TAYLOR"	"11619 TELEGRAPH RD, TAYLOR MI 48180 US"	"-83.268308"	"42.22221"
"14095"	"33066"	"00000"	"R"	""	"ROTI MAX BAKERY"	"14430 MICHIGAN AVENUE, DEARBORN MI 48126 US"	"-83.183201"	"42.320345"
"1416"	"99051"	"00027"	"T"	""	"JET'S PIZZA MI-060"	"22314 GODDARD, TAYLOR MI 48180 US"	"-83.25345"	"42.227913"
"1417"	"99051"	"00030"	"W"	""	"JET'S PIZZA MI-082"	"6701 ALLEN ROAD, ALLEN PARK MI 48101 US"	"-83.20987"	"42.257407"
"1418"	"99051"	"00033"	"W"	""	"JET'S PIZZA MI-095"	"3022 FORT ST, LINCOLN PARK MI 48146 US"	"-83.18067"	"42.241682"
"14304"	"33148"	"00000"	"F"	""	"ST. CLEMENT ORTHODOX CHURCH"	"19600 FORD ROAD, DEARBORN MI 48128 US"	"-83.231011"	"42.330262"
"14400"	"99127"	"00002"	"M"	""	"JERSEY GIANT"	"23250 ALLEN ROAD, WOODHAVEN MI 48183 US"	"-83.2261109279045"	"42.1392764440058"
"14431"	"32701"	"00014"	"R"	""	"DEARBORN-BACKFLOW DOOR 6"	"2951 GREENFIELD, DEARBORN MI 48120 US"	"-83.1838745"	"42.2979198"
"14440"	"33220"	"00000"	"T"	""	"SEMCA TAYLOR"	"25363 EUREKA ROAD, TAYLOR MI 48180 US"	"-83.2836744"	"42.1966204"
"14443F"	"99076"	"00013"	"F"	""	"VISTA MARIA-FREEDOM CENTER"	"20651 WEST WARREN, DEARBORN HEIGHTS MI 48127 US"	"-83.243806"	"42.340804"
"14443T"	"99076"	"00013"	"T"	""	"VISTA MARIA-FREEDOM CENTER"	"20651 WEST WARREN, DEARBORN HEIGHTS MI 48127 US"	"-83.244289"	"42.340653"
"14458"	"32701"	"00015"	"R"	""	"DEARBORN-CENTRAL PARTS GARAGE "	"2650 GREENFIELD, DEARBORN MI 48216 US"	"-83.1791565"	"42.2962387"
"14552"	"32701"	"00016"	"R"	""	"DEARBORN POLICE DEPARTMENT"	"16099 MICHIGAN AVENUE, DEARBORN MI 48216 US"	"-83.20033"	"42.313969"
"14704"	"33318"	"00000"	"R"	""	"PARTS & LABOR BAR"	"17993 ALLEN ROAD, MELVINDALE MI 48122 US"	"-83.185898"	"42.284442"
"14719"	"33321"	"00000"	"M"	""	"VACUUM ORNA-METAL"	"11380 HARRISON STREET, ROMULUS MI 48174 US"	"-83.3174950569591"	"42.2210622351556"
"14738"	"33325"	"00000"	"M"	""	"MR. MIGUEL'S"	"21980 TELEGRAPH ROAD, BROWNSTOWN MI 48183 US"	"-83.266772"	"42.145509"
"1478"	"99054"	"00032"	"M"	""	"CHARTER COMMUNICATIONS        "	"1145 S TELEGRAPH RD, MONROE MI 48161 US"	"-83.420661"	"41.910585"
"14782"	"99054"	"00048"	"M"	""	"CHARTER COMMUNICATIONS        "	"2342 N. TELEGRAPH RD, MONROE MI 48162 US"	"-83.39643"	"41.95456"
"14817"	"33360"	"00000"	"W"	""	"THE VAULT ON 1ST"	"3058 1ST ST, WYANDOTTE MI 48192 US"	"-83.150371"	"42.202292"
"1487"	"99184"	"00001"	"T"	""	"FAMOUS DAVES                  "	"23811 EUREKA RD, TAYLOR MI 48180 US"	"-83.26569"	"42.196745"
"14887"	"33390"	"00000"	"R"	""	"K & B CONEY"	"3051 OAKWOOD BLVD, MELVINDALE MI 48122 US"	"-83.175375"	"42.282224"
"14889"	"33391"	"00000"	"M"	""	"BOTTOM LINE BAIT & TACKLE"	"32660 W JEFFERSON, ROCKWOOD MI 48173 US"	"-83.211309"	"42.06946"
"1489"	"99108"	"00002"	"M"	""	"LANDING STRIP                 "	"36431 GODDARD ROAD, ROMULUS MI 48174 US"	"-83.395877"	"42.221804"
"14918"	"33405"	"00000"	"M"	""	"CARLETON HOTEL BAR"	"927 MONROE STREET, CARLETON MI 48117 US"	"-83.389697"	"42.058918"
"14966"	"99153"	"00002"	"W"	""	"BINSON'S MEDICAL"	"18800 EUREKA RD, SOUTHGATE MI 48195 US"	"-83.224502"	"42.199083"
"14970"	"99153"	"00005"	"F"	""	"BINSON'S MEDICAL"	"5250 AUTO CLUB DR, DEARBORN MI 48126 US"	"-83.218313"	"42.326568"
"1509"	"28754"	"00000"	"T"	""	"BALDOS RESTAURANT             "	"20051 TELEGRAPH RD, BROWNSTOWN MI 48174 US"	"-83.265968"	"42.159237"
"15161"	"99108"	"00004"	"W"	""	"SUBI'S"	"12916 NORTHLINE ROAD, SOUTHGATE MI 48195 US"	"-83.183354"	"42.214024"
"1521"	"28802"	"00000"	"W"	""	"DIFFERENT TWIST PRETZEL CO    "	"1069 HIGHLAND AVE, LINCOLN PARK MI 48146 US"	"-83.178904"	"42.230334"
"1527"	"99076"	"00000"	"F"	""	"VISTA MARIA-DENIS HALL        "	"20651 WEST WARREN, DEARBORN HEIGHTS MI 48127 US"	"-83.244289"	"42.340653"
"1528F"	"28826"	"00000"	"F"	""	"HABIBS CUISINE                "	"14316 MICHIGAN, DEARBORN MI 48126 US"	"-83.1818"	"42.320758"
"1528T"	"28826"	"00000"	"T"	""	"HABIBS CUISINE                "	"14316 MICHIGAN, DEARBORN MI 48126 US"	"-83.1818"	"42.320758"
"1550"	"28930"	"00000"	"T"	""	"TOARMINAS PIZZA               "	"11054 ALLEN RD, TAYLOR MI 48180 US"	"-83.23028"	"42.226659"
"15585"	"33438"	"00000"	"M"	""	"CHAMPIONS SPORTS GRILL"	"22112 SIBLEY ROAD, BROWNSTOWN MI 48193 US"	"-83.249412"	"42.169859"
"15713"	"33478"	"00000"	"F"	""	"WILD MUSTANG"	"18728 FORD ROAD, DETROIT MI 48228 US"	"-83.223419"	"42.329214"
"1577"	"29010"	"00000"	"W"	""	"MY PLACE GRILL & BAR          "	"806 BIDDLE ST, WYANDOTTE MI 48192 US"	"-83.150341"	"42.226036"
"15779"	"33502"	"00000"	"M"	""	"INTERNATIONAL PAINT STRIPPING"	"15300 OAKWOOD DRIVE, ROMULUS MI 48174 US"	"-83.393382"	"42.192241"
"15780"	"99157"	"00000"	"W"	""	"DIX ANIMAL HOSPITAL/REHAB"	"1127 DIX HWY #B, LINCOLN PARK MI 48146 US"	"-83.184313"	"42.265388"
"15781"	"99157"	"00001"	"W"	""	"DIX ANIMAL HOSPITAL"	"1127 DIX HWY #A, LINCOLN PARK MI 48146 US"	"-83.184313"	"42.265388"
"15836"	"33528"	"00000"	"R"	""	"BINT JEBAIL"	"14201 PROSPECT ST, DEARBORN MI 48126 US"	"-83.1771"	"42.316064"
"15843"	"33531"	"00000"	"F"	""	"SUPER FIT NUTRITION"	"24735 W. WARREN AVENUE, DEARBORN HEIGHTS MI 48127 "	"-83.281093"	"42.340882"
"15860"	"33569"	"00000"	"M"	""	"PRECISION SLITTING"	"28975 SMITH ROAD, ROMULUS MI 48174 US"	"-83.3215983"	"42.2453294"
"1587"	"29048"	"00000"	"T"	""	"MARRIOTT HOTEL & RESORT       "	"30559 FLYNN DR, ROMULUS MI 48174 US"	"-83.33785"	"42.241452"
"15971"	"99169"	"00018"	"W"	""	"DEAN TRANSPORTATION-TRENTON"	"2601 VETERANS PARKWAY, TRENTON MI 48124 US"	"-83.186384"	"42.143319"
"15999"	"33619"	"00000"	"M"	""	"ACE FORWARDING"	"11895 WAYNE RD. #112, ROMULUS MI 48174 US"	"-83.382266"	"42.216851"
"16144"	"29048"	"00001"	"T"	""	"SHERATON DETROIT METRO AIRPORT"	"8000 MERRIMAN ROAD, ROMULUS MI 48174 US"	"-83.348895"	"42.246313"
"16262"	"33794"	"00000"	"M"	""	"M TWELVE FUELD LLC-BP"	"9201 MIDDLEBELT, ROMULUS MI 48174 US"	"-83.327316"	"42.238554"
"16326"	"33154"	"00001"	"M"	""	"MALEK AL KABOB-TRENTON"	"3323 WEST RD, TRENTON MI 48183 US"	"-83.20921"	"42.140583"
"16467"	"99195"	"00003"	"M"	""	"WELLSPRING NEXDINE 358"	"1236 S MONROE ST, MONROE MI 48161 US"	"-83.40864"	"41.905743"
"16476"	"33835"	"00000"	"R"	""	"GOLD STAR TRUCK REPAIR"	"3969 WYOMING ST, DEARBORN MI 48120 US"	"-83.158176"	"42.317328"
"16513"	"99198"	"00004"	"F"	""	"MJ DIAMONDS"	"18900 MICHIGAN AVE, DEARBORN MI 48126 US"	"-83.222889"	"42.316855"
"16651"	"33920"	"00000"	"W"	""	"ATRIA KINGHAVEN"	"14800 KING ROAD, RIVERVIEW MI 48193 US"	"-83.203829"	"42.156193"
"16659"	"33922"	"00000"	"M"	""	"CONWAY'S CAR CARE"	"32009 FORT RD, ROCKWOOD MI 48173 US"	"-83.244788"	"42.073555"
"16690"	"33938"	"00000"	"M"	""	"DELTA CONEY ISLAND"	"1301 NORTH TELEGRAPH ROAD, MONROE MI 48162 US"	"-83.40714"	"41.939893"
"16752"	"33974"	"00000"	"F"	""	"SALON WEST DEARBORN"	"1840 NORTH TELEGRAPH ROAD, DEARBORN MI 48128 US"	"-83.271824"	"42.324681"
"16754"	"99076"	"00014"	"F"	""	"VISTA MARIA-FACILITIES"	"20651 WEST WARREN, DEARBORN HEIGHTS MI 48127 US"	"-83.244314"	"42.341245"
"16886"	"34201"	"00000"	"W"	""	"BOX WHEEL"	"21588 DIX TOLEDO ORAD, BROWNSTOWN TOWNSHIP MI 4819"	"-83.2580539"	"42.1491214"
"16925"	"99220"	"00002"	"R"	""	"BT'S "	"14417 MICHIGAN AVENUE, DEARBORN MI 48126 US"	"-83.182635"	"42.319956"
"16930"	"34040"	"00000"	"R"	""	"AL SHABANI"	"3249 WYOMING AVE, DEARBORN MI 48120 US"	"-83.152539"	"42.310696"
"1801"	"50383"	"00000"	"T"	""	"STATE FARM/ ARCE          "	"25755 GODDARD, TAYLOR MI 48180 US"	"-83.287769"	"42.225686"
"213"	"20217"	"00000"	"R"	""	"COUNTRY RESTAURANT            "	"5131 SHAEFER, DEARBORN MI 48126 US"	"-83.176386"	"42.325266"
"3295"	"99974"	"00000"	"M"	""	"ROUTE 9 OVER/SHORT           "	"BRIGHTON BRANCH, BRIGHTON MI 48116 US"	"-83.79359942"	"42.48604812"
"42"	"10184"	"00000"	"M"	""	"DANNY'S II                    "	"199 COLE ROAD, MONROE MI 48161 US"	"-83.383392"	"41.936741"
"43"	"10185"	"00000"	"M"	""	"DANNY'S FINE FOODS            "	"1002 WEST ELM AVE, MONROE MI 48161 US"	"-83.408074"	"41.922773"
"564"	"99079"	"00007"	"W"	""	"RED ROBIN 378                "	"15777 EUREKA RD., SOUTHGATE MI 48195 US"	"-83.216202"	"42.198357"
"593"	"24218"	"00000"	"F"	""	"AL SHALLAL                    "	"24402 WARREN, DEARBORN HEIGHTS MI 48126 US"	"-83.277301"	"42.341647"
"781"	"25142"	"00000"	"R"	""	"GATE FOUR MEDICAL A-1 QUALITY "	"3001 MILLER RD RD 4 & F DPT D14A, DEARBORN MI 4812"	"-83.166708"	"42.307589"
"815"	"25229"	"00000"	"R"	""	"THE FISH MARKET, INC.         "	"4355 SCHAEFER ROAD, DEARBORN MI 48126 US"	"-83.176159"	"42.320424"
"816"	"99218"	"00001"	"F"	""	"MEXICAN FIESTA RESTAURANT     "	"24310 FORD ROAD, DEARBORN MI 48127 US"	"-83.275164"	"42.327162"
"8172"	"29547"	"00000"	"F"	""	"SZEGEDI'S CATERING"	"5704 N TELEGRAPH RD, DEARBORN HEIGHTS MI 48127 US"	"-83.272057"	"42.32859"
"8175"	"29550"	"00000"	"R"	""	"HABIBS 2"	"6220 MILLER RD, DEARBORN MI 48126 US"	"-83.166111"	"42.33626"
"825"	"25256"	"00000"	"W"	""	"SOUTHGATE DAVITA 4219"	"14752 NORTHLINE RD., SOUTHGATE MI 48195 US"	"-83.204419"	"42.214249"
"827"	"25266"	"00000"	"W"	""	"MOSCHECKS MEAT & PRODUCE      "	"5223 ALLEN RD., ALLEN PARK MI 48101 US"	"-83.201256"	"42.264309"
"829"	"25270"	"00000"	"R"	""	"ROUGE COMPLEX UAW-FORD        "	"3001 MILLER RD ALL A1 QUALITY, DEARBORN MI 48121 U"	"-83.166708"	"42.307589"
"830"	"25273"	"00000"	"M"	""	"FLAT ROCK REHAB               "	"1 INTERNATIONAL DRIVE AUTO ALLIANCE PLANT, FLAT RO"	"-83.24762"	"42.103213"
"831"	"25277"	"00000"	"W"	""	"BAFFO'S                       "	"18556 FORT ST., RIVERVIEW MI 48192 US"	"-83.189845"	"42.173503"
"8675"	"29876"	"00000"	"F"	""	"M&R MACHINE"	"5900 TELEGRAPH RD, DEARBORN HEIGHTS MI 48127 US"	"-83.272149"	"42.329685"
"87"	"16380"	"00000"	"W"	""	"AGEMY & SONS SUPERMA          "	"14730 CHAMPAIGN, ALLEN PARK MI 48101 US"	"-83.204468"	"42.245959"
"8950"	"30157"	"00000"	"T"	""	"MALEK AL KABOB"	"22371 GODDARD RD., TAYLOR MI 48180 US"	"-83.253921"	"42.226467"
"8952"	"30159"	"00000"	"R"	""	"AL AMAL SUPERMARKET"	"13255 MICHIGAN AVENUE, DEARBORN MI 48126 US"	"-83.173246"	"42.322717"
"90"	"16521"	"00000"	"T"	""	"CORDIAL SHOPPE, THE           "	"9045 TELEGRAPH, TAYLOR MI 49002 US"	"-83.268936"	"42.24229"
"9146"	"30326"	"00000"	"T"	""	"KACELIS FAMILY RESTAURANT"	"21000 ECORSE RD, TAYLOR MI 48180 US"	"-83.242472"	"42.256528"
"918"	"25903"	"00000"	"T"	""	"IMPRESSIVE GRAPHICS           "	"22001 W OUTER DRIVE, DEARBORN MI 48124 US"	"-83.233734"	"42.285634"
"9212"	"30376"	"00000"	"R"	""	"ARAB AMERICAN NATIONAL MUSEUM"	"13624 MICHIGAN AVENUE, DEARBORN MI 48126 US"	"-83.176606"	"42.322276"
"924"	"25974"	"00000"	"M"	""	"ON THE GO                     "	"540 N TELEGRAPH, MONROE MI 48162 US"	"-83.4105403"	"41.9302657"
"941"	"499014"	"00031"	"T"	""	"RX OPTICAL                    "	"15204 EUREKA ROAD, SOUTHGATE MI 48195 US"	"-83.208243"	"42.199622"
"959"	"26263"	"00000"	"T"	""	"J.N.S. MEAT MARKET            "	"19240 ECORSE RD., ALLEN PARK MI 48101 US"	"-83.22952"	"42.256773"
"965"	"26286"	"00000"	"T"	""	"TIM'S CONEY ISLAND            "	"16015 SOUTHFIELD RD, ALLEN PARK MI 48101 US"	"-83.211101"	"42.260089"
