"cu_id"	"Account"	"Customer"	"New Delivery Day"	"Alliant Sequence"	"Customer Name"	"Address"	"X_Longitude"	"Y_Latitude"
"10008"	"231034"	"00000"	"W"	"250"	"MECOSTA/OSECOLA DIESEL/AUTO "	"15830 190TH AVE, BIG RAPIDS MI 49307 US"	"-85.462173"	"43.6957246"
"10028"	"231052"	"00000"	"W"	"230"	"MECOSTA-OSCEOLA I.S.D."	"18710 16 MILE RD, BIG RAPIDS MI 49307 US"	"-85.4576052"	"43.6998935"
"10147"	"231156"	"00000"	"T"	"300"	"POMPEII'S PIZZA EVART LLC"	"790 W 7TH, EVART MI 49631 US"	"-85.270883"	"43.900877"
"10335"	"208615"	"00003"	"T"	"280"	"EAGLE VILLAGE BRANSON"	"4507 170TH, HERSEY MI 49639 US"	"-85.423832"	"43.879838"
"10594"	"99049"	"00005"	"W"	"110"	"QUAD CAFE"	"805 CAMPUS DRIVE, BIG RAPIDS MI 49307 US"	"-85.479781"	"43.688239"
"10651"	"99049"	"00010"	"W"	"120"	"STARBUCKS U.C."	"805 CAMPUS DRIVE, BIG RAPIDS MI 49307 US"	"-85.479781"	"43.688239"
"10652"	"99049"	"00011"	"W"	"130"	"STARBUCKS IRC"	"1201 SOUTH STATE BUSINESS BUILDING, BIG RAPIDS MI "	"-85.482834"	"43.685386"
"10687"	"99031"	"00111"	"F"	"70"	"BLARNEY CASTLE EZ MART 530"	"701 N 1ST STREET, HARRISON MI 48625-8429 US"	"-84.804067"	"44.026139"
"10690"	"231585"	"00000"	"M"	"390"	"HOSPICE OF CADILLAC"	"932 N. MITCHELL, CADILLAC MI 49601 US"	"-85.404809"	"44.26063"
"10869"	"231675"	"00000"	"R"	"230"	"J & J SMOKED MEATS"	"7475 41 RD PO BOX 672, CADILLAC MI 49601 US"	"-85.4156232"	"44.230505"
"10888"	"231684"	"00000"	"T"	"50"	"SEVEN SLOT GRILLLE"	"113 N. CHESTNUT, REED CITY MI 49677 US"	"-85.510179"	"43.876234"
"10897"	"231690"	"00000"	"T"	"220"	"HERSEY PIZZA PLACE"	"640 N. MAIN ST, HERSEY MI 49639 US"	"-85.4437588"	"43.8566878"
"10911"	"99031"	"00127"	"T"	"330"	"BLARNEY CASTLE EZ MART 418"	"310 W. 7TH STREET, EVART MI 49631 US"	"-85.262988"	"43.901007"
"11246"	"131866"	"00000"	"F"	"80"	"COMMUNITY MENTAL HEALTH"	"789 CLARE AVE, HARRISON MI 48625 US"	"-84.76772016"	"43.97715247"
"11373"	"231079"	"00004"	"M"	"240"	"NMCAA LINCOLN AVE"	"716 LINCOLN AVE, CADILLAC MI 49601 US"	"-85.391212"	"44.254295"
"11403"	"231976"	"00000"	"F"	"260"	"ADVANCED MECHANICAL ELECTRICAL"	"19466 18 MILE ROAD, LEROY MI 49655 US"	"-85.47132"	"44.075489"
"11481"	"232038"	"00000"	"M"	"400"	"CADILLAC PARTY BAR"	"516 N. MITCHELL, CADILLAC MI 49601 US"	"-85.402473"	"44.254561"
"11548"	"232084"	"00000"	"M"	"150"	"WEXFORD COUNCIL ON AGING"	"714 W. 13TH ST., CADILLAC MI 49601 US"	"-85.419358"	"44.267308"
"11675"	"232158"	"00000"	"M"	"10"	"13TH STREET MARKET"	"3075 W. 13TH STREET, CADILLAC MI 49601 US"	"-85.46863"	"44.268295"
"11683"	"232163"	"00000"	"M"	"20"	"CADILLAC RENEWABLE ENERGY"	"1525 FRANK MILTNER ST, CADILLAC MI 49601 US"	"-85.435075"	"44.263477"
"11797"	"232218"	"00000"	"M"	"370"	"WEXFORD CIVIC ARENA"	"1320 N MITCHELL, CADILLAC MI 49601 US"	"-85.40446"	"44.269064"
"11843"	"232236"	"00000"	"M"	"230"	"CLAM LAKE BEER CO LLC"	"106 S. MITCHELL, CADILLAC MI 49601 US"	"-85.399454"	"44.249915"
"11866"	"99084"	"00002"	"W"	"390"	"BURNIPS EQUIPMENT CO"	"18612 NORTHLAND DRIVE, BIG RAPIDS MI 49307 US"	"-85.501917"	"43.736423"
"11934"	"232281"	"00000"	"W"	"300"	"THE GATE 2"	"327 S. 3RD AVE, BIG RAPIDS MI 49307 US"	"-85.469543"	"43.697146"
"12012"	"232320"	"00000"	"W"	"150"	"RES LIFE CHURCH"	"14734 215TH AVE, BIG RAPIDS MI 49307 US"	"-85.513147"	"43.681021"
"12034"	"232330"	"00000"	"T"	"40"	"ARLYN REED CITY"	"420 N. CHESTNUT ST, REED CITY MI 49677 US"	"-85.50959"	"43.879883"
"12076"	"208615"	"00005"	"T"	"270"	"EAGLES VILLAGE LEARNING CTR"	"4507 170TH, HERSEY MI 49639 US"	"-85.423832"	"43.879838"
"12080"	"232357"	"00000"	"M"	"180"	"BETTEN/BAKER CDJR OF CADILLAC"	"1110 N. MITCHELL, CADILLAC MI 49601 US"	"-85.40562"	"44.263761"
"12145"	"99087"	"00002"	"T"	"180"	"WEST MICHIGAN CREDIT UNION"	"758 S. CHESTNUT ST, REED CITY MI 49677 US"	"-85.50917"	"43.868015"
"12248"	"208615"	"00001"	"T"	"230"	"EAGLE VILLAGE MASK"	"4507 170TH AVE, HERSEY MI 49639 US"	"-85.423832"	"43.879838"
"12251"	"99033"	"00203"	"M"	"30"	"CHARTWELLS/CADILLAC SCHOOLS"	"500 CHESTNUT ST, CADILLAC MI 49601 US"	"-85.413821"	"44.250499"
"12352"	"232508"	"00000"	"F"	"170"	"4 CORNERS GRILL"	"15086 M-115, MARION MI 49665 US"	"-85.147166"	"44.031669"
"12367"	"232519"	"00000"	"W"	"200"	"DAGGETT-GILBERT FUNERAL HOME "	"13985 NORTHLAND DR, BIG RAPIDS MI 49307 US"	"-85.484209"	"43.669119"
"12402"	"228660"	"00001"	"F"	"270"	"PINE RIVER AREA SCHOOL-KITCHEN"	"17445 PINE RIVER RD, LEROY MI 49655 US"	"-85.488912"	"44.064836"
"12558"	"211119"	"00001"	"F"	"230"	"NORTHERN MOLDING INC"	"17951 180TH AVE, LEROY MI 49655 US"	"-85.444478"	"44.073269"
"12572"	"232629"	"00000"	"M"	"50"	"CADILLAC TRUCK SERVICE"	"4675 39 1/2 RD, CADILLAC MI 49601 US"	"-85.4310858"	"44.269545"
"12655"	"232694"	"00000"	"R"	"60"	"PRIMOS BBQ LLC"	"916 SOUTH MITCHELL, CADILLAC MI 49601 US"	"-85.396896"	"44.24215"
"12698"	"232714"	"00000"	"R"	"110"	"HIGHPOINT AUTO & TRUCK"	"7555 US 131 SOUTH, CADILLAC MI 49601 US"	"-85.395225"	"44.229475"
"12717"	"232723"	"00000"	"R"	"130"	"DOUBLE A MOBILE TRUCK SERVICE"	"8128 S. MACKINAW TRAIL, CADILLAC MI 49601 US"	"-85.404755"	"44.22107"
"12748"	"232744"	"00000"	"T"	"340"	"SIXTH & MAIN"	"202 N MAIN, EVART MI 49631 US"	"-85.25908"	"43.902067"
"12753"	"232747"	"00000"	"M"	"210"	"UP NORTH ARTS, INC."	"601 CHESTNUT SUITE C, CADILLAC MI 49601 US"	"-85.416377"	"44.248503"
"13075"	"99161"	"00177"	"F"	"50"	"SPARTAN #543 FIRST AID"	"1713 N. CLARE AVE., HARRISON MI 48625 US"	"-84.790754"	"44.0116652"
"13080"	"99161"	"00097"	"F"	"20"	"FAMILY FARE #1523 FIRST AID"	"1570 N. CLARE AVE., HARRISON MI 48625 US"	"-84.792256"	"44.01091"
"13082"	"99161"	"00089"	"R"	"20"	"SPT FAMILY FARE #648 FIRST AID"	"602 S MITCHELL, CADILLAC MI 49601 US"	"-85.398042"	"44.24579"
"13179"	"232892"	"00000"	"T"	"210"	"RIVER JUNCTION"	"107 N MAIN STREET, HERSEY MI 49639 US"	"-85.4441767"	"43.8495742"
"13199"	"99097"	"00039"	"W"	"10"	"JOHNNY'S MARKET 4050"	"21445 PERRY ST, BIG RAPIDS MI 49307 US"	"-85.512385"	"43.687471"
"13271"	"99031"	"00153"	"R"	"15"	"CADILLAC EZ MART 302"	"1010 S MITCHELL ST, CADILLAC MI 49601 US"	"-85.396949"	"44.24127"
"13346"	"232916"	"00000"	"W"	"50"	"NORTHERN HEIGHTS CITGO"	"11031 NORTHLAND DR., BIG RAPIDS MI 49307 US"	"-85.484188"	"43.62788"
"13500"	"232942"	"00000"	"W"	"360"	"BR LUNCH BOX"	"105 W BELLEVUE, BIG RAPIDS MI 49307 US"	"-85.4844283"	"43.703096"
"13633"	"99103"	"00034"	"W"	"350"	"ADMIRAL 5798"	"805 N. STATE ST, BIG RAPIDS MI 49307-1107 US"	"-85.484563"	"43.707814"
"13635"	"99103"	"00036"	"W"	"30"	"ADMIRAL  5820"	"631 S. STATE ST, BIG RAPIDS MI 49307-1955 US"	"-85.483432"	"43.690636"
"13641"	"99103"	"00042"	"R"	"50"	"ADMIRAL  5737"	"805 S MITCHELL ST, CADILLAC MI 49601-2565 US"	"-85.396"	"44.243733"
"13697"	"232969"	"00000"	"R"	"140"	"MAPLE RIDGE LIVING CENTER"	"9072 S. MACKINAW TRAIL, CADILLAC MI 49601 US"	"-85.405951013786"	"44.2164198159521"
"13734"	"232977"	"00000"	"R"	"320"	"CRANDALL PRECISION INC."	"615 5TH STREET, CADILLAC MI 49601 US"	"-85.4180369"	"44.257889"
"13754"	"232979"	"00000"	"M"	"320"	"WEXFORD COUNTY SHERIFF DEPT"	"1015 LINCOLN ST, CADILLAC MI 49601 US"	"-85.381997"	"44.255261"
"14030"	"233028"	"00000"	"R"	"240"	"MI KADA LLC"	"811 SUNNYSIDE DR, CADILLAC MI 49601 US"	"-85.4176197"	"44.2335133"
"14086"	"233058"	"00000"	"M"	"160"	"THE TRUCK STOP"	"902 W. 13TH STREET, CADILLAC MI 49601 US"	"-85.4225183"	"44.2672667"
"14118"	"99062"	"00063"	"F"	"110"	"MARION VILLAGE MARKET #4407"	"401 S. MILL RD, MARION MI 49665 US"	"-85.146249"	"44.099099"
"14119"	"99161"	"00063"	"F"	"120"	"MARION VILLAGE MKT 4407 F.A. "	"401 S. MILL RD, MARION MI 49665 US"	"-85.146249"	"44.099099"
"14176"	"99117"	"00045"	"T"	"320"	"WESCO 63"	"660 W 7TH ST, EVART MI 49631 US"	"-85.267691"	"43.901152"
"14177"	"99117"	"00046"	"T"	"310"	"SUBWAY 163"	"660 W 7TH ST, EVART MI 49631 US"	"-85.267691"	"43.901152"
"14183"	"99117"	"00051"	"T"	"20"	"WESCO 61"	"4921 220TH, REED CITY MI 49677 US"	"-85.523398"	"43.88642"
"14184"	"99117"	"00052"	"T"	"30"	"SUBWAY 161"	"4921 220TH, REED CITY MI 49677 US"	"-85.523398"	"43.88642"
"14185"	"99117"	"00053"	"T"	"190"	"WESCO 50"	"602 S. CHESTNUT AVE., REED CITY MI 49677 US"	"-85.509644"	"43.870237"
"14193"	"99117"	"00056"	"W"	"20"	"WESCO 60"	"21380 PERRY AVE, BIG RAPIDS MI 49307 US"	"-85.508704"	"43.688965"
"14343"	"233171"	"00000"	"R"	"290"	"BREIDENSTEIN OIL & AUTO SVC"	"502 S. MITCHELL STREET, CADILLAC MI 49601 US"	"-85.396679"	"44.246362"
"14410"	"99033"	"00254"	"W"	"310"	"BIG RAPIDS PRODUCTS"	"1315 HANCHETTE DR, BIG RAPIDS MI 49307 US"	"-85.465195"	"43.7036467"
"14585"	"208615"	"00004"	"T"	"250"	"EAGLE VILLAGE CTC"	"4507 170TH AVE, HERSEY MI 49639 US"	"-85.423832"	"43.879838"
"14628"	"233284"	"00000"	"M"	"280"	"JIMMY JOHN'S"	"207 S. MITCHELL ST A, CADILLAC MI 49601 US"	"-85.398057"	"44.249146"
"14750"	"99140"	"00007"	"W"	"160"	"ARBY'S BIG RAPIDS"	"1294 PERRY RD, BIG RAPIDS MI 49307 US"	"-85.50322"	"43.688341"
"14834"	"233369"	"00000"	"M"	"60"	"CADILLAC CULVERT"	"5305 M-115, CADILLAC MI 49601 US"	"-85.4712853"	"44.2745613"
"14897"	"233396"	"00000"	"T"	"130"	"EDSTROM'S NEIGHBORHOOD GARAGE"	"227 N CHESTNUT AVE, REED CITY MI 49677 US"	"-85.510294"	"43.877997"
"14898"	"233397"	"00000"	"F"	"200"	"DYER'S SAWMILL"	"17688 15 MILE ROAD, LEROY MI 49655 US"	"-85.4387211"	"44.0309937"
"14946"	"231585"	"00001"	"W"	"190"	"HOSPICE OF BIG RAPIDS"	"400 PERRY, BIG RAPIDS MI 49307 US"	"-85.488171"	"43.689038"
"14959"	"225815"	"00001"	"T"	"80"	"EBELS GENERAL STORE        "	"716 S. CHESTBUT, REED CITY MI 49601 US"	"-85.509636"	"43.868969"
"14975"	"233424"	"00000"	"R"	"17"	"CAST IRON KITCHEN OF CADILLAC"	"621 S. MITCHELL ST., CADILLAC MI 49601 US"	"-85.396037"	"44.245167"
"14979"	"233427"	"00000"	"T"	"90"	"REED CITY TIRE CENTER"	"857 S. CHESTNUT, REED CITY MI 49677 US"	"-85.508458"	"43.860875"
"15698"	"99097"	"00068"	"T"	"10"	"JOHNNY'S MARKET 1780"	"5065 220TH AVE, REED CITY MI 49677 US"	"-85.523875"	"43.888563"
"15826"	"233521"	"00000"	"M"	"40"	"ZHONGDING RUBBER PRODUCTS"	"1200 8TH AVE, CADILLAC MI 49601 US"	"-85.41977378597"	"44.26030237104"
"15877"	"99087"	"00004"	"W"	"140"	"WEST MICHIGAN CREDIT UNION    "	"825 DIVISION, BIG RAPIDS MI 49307 US"	"-85.486035"	"43.688746"
"15995"	"99169"	"00028"	"M"	"110"	"DEAN TRANSPORTATION-CADILLAC"	"1004 LEESON AVENUE, CADILLAC MI 49601 US"	"-85.4262505"	"44.2590617"
"16002"	"233621"	"00000"	"W"	"60"	"WEST MICHIGAN SURGERY CENTER"	"20095 GILBERT RD., BIG RAPIDS MI 49307 US"	"-85.485789"	"43.671047"
"16058"	"233648"	"00000"	"R"	"270"	"NORTHERN LOGISTICS-CADILLAC"	"6961 SOUTH 45 RD, CADILLAC MI 49601 US"	"-85.381921"	"44.238121"
"16129"	"231079"	"00015"	"M"	"120"	"NMCAA-E. NORTH"	"403 E. NORTH ST, CADILLAC MI 49601 US"	"-85.399429"	"44.256655"
"16176"	"99049"	"00014"	"W"	"100"	"SPORTS COMPLEX CONCESSIONS"	"210 SPORTS DR., BIG RAPIDS MI 49307 US"	"-85.485447"	"43.67936"
"16233"	"229456"	"00001"	"R"	"190"	"SALISBURY INC                 "	"7641 PIT ROAD, CADILLAC MI 49601 US"	"-85.392238"	"44.22767"
"16245"	"216466"	"00001"	"F"	"100"	"POLLINGTON MACHINE            "	"645 MORTON DR, MARION MI 49665 US"	"-85.15103325"	"44.10981835"
"16263"	"232989"	"00001"	"F"	"340"	"BENNY'S FROYO AND MO"	"207 S MITCHELL ST SUITE C, CADILLAC MI 49601 US"	"-85.398057"	"44.249146"
"16268"	"233737"	"00000"	"W"	"370"	"PARIS AUTO SERVICE"	"18415 NORTHLAND DRIVE, BIG RAPIDS MI 49307 US"	"-85.5041"	"43.734356"
"16283"	"233743"	"00000"	"T"	"100"	"REED CITY AUTO REPAIR"	"2704 OLD US HIGHWAY 131, REED CITY MI 49677 US"	"-85.504023"	"43.854391"
"16294"	"233745"	"00000"	"F"	"290"	"SWICK CUSTOM BUTCHERING"	"19197 19 MILE ROAD, TUSTIN MI 49688 US"	"-85.468064"	"44.087508"
"16300"	"233747"	"00000"	"T"	"120"	"SUNNY'S SPORTS BAR & GRILL"	"122 WEST UPTON AVENUE, REED CITY MI 49677 US"	"-85.510892"	"43.876254"
"16428"	"233804"	"00000"	"R"	"90"	"MCCURDY WOTILA & PORTEOUS, PC"	"120 WEST HARRIS STREET, CADILLAC MI 49601 US"	"-85.39984"	"44.250291"
"16471"	"233831"	"00000"	"T"	""	"STEVE'S TIRE SERVICE"	"9190 WEST COUNTY LINE ROAD, MARION MI 49665 US"	"-85.314282"	"44.164856"
"16548"	"99062"	"00021"	"F"	""	"STEVE'S COUNTRY MARKET 723714"	"3170 NORTH CLARE AVENUE, HARRISON MI 48625 US"	"-84.806964"	"44.033435"
"16549"	"99161"	"00021"	"F"	""	"STEVE'S COUNTRY MKT 3714 F.A."	"3170 NORTH CLARE AVENUE, HARRISON MI 48625 US"	"-84.806964"	"44.033435"
"16573"	"233876"	"00000"	"T"	""	"GREAT LAKES EQUIP/TRUCK SALES "	"2995 OLD US HIGHWAY 131, REED CITY MI 49677 US"	"-85.507335"	"43.858347"
"16588"	"233886"	"00000"	"F"	""	"TIPPY CANOE BAR"	"501 EAST DAVIS STREET, HARRISON MI 48625 US"	"-85.025738"	"44.031383"
"16607"	"99033"	"00335"	"T"	""	"REED CITY-GT NORMAN"	"338 W LINCOLN AVE, REED CITY MI 49677 US"	"-85.514086"	"43.872384"
"16608"	"99033"	"00336"	"T"	""	"REED CITY-HIGH SCHOOL"	"225 W CHURCH AVENUE, REED CITY MI 49677 US"	"-85.512437"	"43.86658"
"16609"	"99033"	"00337"	"T"	""	"REED CITY-MIDDLE SCHOOL"	"233 W CHURCH AVE, REED CITY MI 49677 US"	"-85.513573"	"43.865989"
"16685"	"233937"	"00000"	"F"	""	"MAXI MUFFLER"	"233 NORTH 1ST STREET, HARRISON MI 48625 US"	"-84.79951193"	"44.01990648"
"16705"	"225815"	"00002"	"T"	""	"EBELS EVART"	"820 WEST 7TH STREET, EVART MI 49631 US"	"-85.272667"	"43.901512"
"16837"	"233997"	"00000"	"F"	""	"PROTECTED AUTO"	"522 NORTH MITCHELL STREET, CADILLAC MI 49601 US"	"-85.402458"	"44.254846"
"3921"	"206626"	"00000"	"W"	"240"	"MECOSTA OSCEOLA CR-G          "	"15830 190TH AVE GRAPHIC ART, BIG RAPIDS MI 49307 U"	"-85.462173"	"43.6957246"
"3927"	"207920"	"00000"	"R"	"80"	"APPLE VALLEY NATURAL FOODS    "	"211 SOUTH MITCHELL, CADILLAC MI 49601 US"	"-85.3976883"	"44.2486817"
"3928"	"208011"	"00000"	"M"	"290"	"CADILLAC PRINTING CO          "	"214 S. MITCHELL ST., CADILLAC MI 49601 US"	"-85.398614"	"44.248659"
"3929"	"208042"	"00000"	"M"	"300"	"FIRST BAPTIST CHURCH          "	"125 STIMSON, CADILLAC MI 49601 US"	"-85.396463"	"44.248253"
"3930"	"208058"	"00000"	"F"	"250"	"MCQUESTION, DJ & SON          "	"17708 18 MILE RD., LEROY MI 49655 US"	"-85.439803"	"44.074021"
"3933"	"208147"	"00000"	"R"	"220"	"VILLAGE MARKET                "	"3770 N. MACKINAW TRAIL, LEROY MI 49655 US"	"-85.44441"	"44.04255"
"3937"	"208301"	"00000"	"R"	"260"	"T.J.'S                        "	"10709 S 45 ROAD, CADILLAC MI 49601 US"	"-85.3820647"	"44.238214"
"3940"	"208615"	"00000"	"T"	"240"	"EAGLE VILLAGE EAGLE NEST"	"4507 170TH AVE, HERSEY MI 49639 US"	"-85.423832"	"43.879838"
"3950"	"209285"	"00000"	"T"	"60"	"POMPEII'S PIZZA REED CITY LLC"	"113 S. CHESTNUT, REED CITY MI 49677 US"	"-85.510251"	"43.875528"
"3951"	"209349"	"00000"	"T"	"200"	"MDOT-MAINTENANCE GAR          "	"19424 US-10, REED CITY MI 49677 US"	"-85.4699694"	"43.8738447"
"3972"	"211119"	"00000"	"F"	"240"	"LEROY TOOL & DIE              "	"17951 180TH AVENUE, LEROY MI 49655 US"	"-85.444478"	"44.073269"
"3975"	"211252"	"00000"	"F"	"180"	"CHUCK'S CORNER                "	"15057 M-115, MARION MI 49655 US"	"-85.147297"	"44.030788"
"3988"	"212732"	"00000"	"F"	"330"	"THOMAS FLINT & SON            "	"10213 S. 39 MILE, CADILLAC MI 49601 US"	"-85.4356592"	"44.1908337"
"3999"	"213757"	"00000"	"W"	"320"	"ORIGINAL FOOTWEAR COMPANY"	"1005 BALDWIN, BIG RAPIDS MI 49307 US"	"-85.479032"	"43.710756"
"4016"	"214914"	"00000"	"R"	"100"	"MEEKOFF TIRE OF CADILLAC"	"7296 U.S. 131, CADILLAC MI 49601 US"	"-85.3967533"	"44.2332333"
"4022"	"215570"	"00000"	"T"	"150"	"MARION EAGLES                 "	"101 E. MAIN, MARION MI 49665 US"	"-85.147757"	"44.102138"
"4025"	"215767"	"00000"	"R"	"310"	"PETERSON'S                    "	"324 N. MITCHELL, CADILLAC MI 49601 US"	"-85.400918"	"44.253044"
"4027"	"99061"	"00089"	"R"	"30"	"SPT FAMILY FARE #648 "	"602 S MITCHELL, CADILLAC MI 49601 US"	"-85.398042"	"44.24579"
"4039"	"216466"	"00000"	"F"	"90"	"POLLINGTON MACHINE            "	"20669 30TH AVE., MARION MI 49665 US"	"-85.148204"	"44.112438"
"4042"	"216505"	"00000"	"M"	"220"	"TIRE WHOLESALERS NOR          "	"111 WEST RIVER, CADILAC MI 49601 US"	"-85.405517"	"44.255953"
"4060"	"217634"	"00000"	"M"	"90"	"FIBER TECH                    "	"1637 MARTY PAUL, CADILLAC MI 49601 US"	"-85.432378"	"44.265812"
"4061"	"217672"	"00000"	"T"	"170"	"H & D CHUCKWAGON              "	"20221 US 10, REED CITY MI 49677 US"	"-85.485948"	"43.87257"
"4068"	"218209"	"00000"	"W"	"380"	"PARIS AUTO SALES              "	"18415 NORTHLAND, BIG RAPIDS MI 49307 US"	"-85.5041"	"43.734356"
"4095"	"99049"	"00000"	"W"	"90"	"FSU CATERING"	"1401 Bond Circle, BIG RAPIDS MI 49307 US"	"-85.4850095"	"43.6825233"
"4125"	"219234"	"00000"	"W"	"170"	"MFIA - MECOSTA CO             "	"800 WATER TOWER RD., BIG RAPIDS MI 49307 US"	"-85.49697"	"43.6895767"
"4129"	"219498"	"00000"	"W"	"260"	"MECOSTA-OSCEOLA CAREER CENTER "	"15830 190TH AVE., BIG RAPIDS MI 49307 US"	"-85.462173"	"43.6957246"
"4140"	"219993"	"00000"	"M"	"310"	"FAMILY PRACTICE OF CADILLAC   "	"827 E. DIVISION, CADILLAC MI 49601 US"	"-85.384744"	"44.252873"
"4142"	"220011"	"00000"	"R"	"260"	"BLUE HERON                    "	"304 N. MITCHELL, CADILLAC MI 49061 US"	"-85.400668"	"44.25241"
"4145"	"220367"	"00000"	"R"	"160"	"DYNAMIC PHYSICAL THERAPY      "	"8872 PROFESSIONAL DR, CADILLAC MI 49601 US"	"-85.398805"	"44.2252367"
"4154"	"99061"	"00097"	"F"	"30"	"FAMILY FARE #1523"	"1570 N. CLARE AVE., HARRISON MI 48625 US"	"-84.792256"	"44.01091"
"4191"	"221163"	"00000"	"W"	"280"	"MECOSTA-OSCEOLA FOOD SVC      "	"190th ave, BIG RAPIDS MI 49332 US"	"-85.463557849929"	"43.6786735000004"
"4224"	"99193"	"00004"	"T"	"160"	"MDOT OFFICE                   "	"2897 16 MILE RD, MARION MI 49665 US"	"-85.1456778"	"44.044113"
"4260"	"222432"	"00000"	"R"	"180"	"ASC AUDIOLOGICAL SVC OF CADILL"	"8872 PROFESSIONAL DRIVE SUITE A., CADILLAC MI 4960"	"-85.398805"	"44.2252367"
"4307"	"99082"	"00006"	"F"	"10"	"SUNRISE STORE 16 MARATHON    "	"111 NORTH FIRST ST., HARRISON MI 48623 US"	"-84.799833"	"44.019941"
"4320"	"223935"	"00000"	"F"	"140"	"SHANANJAC'S PIZZA             "	"221 E. MAIN STREET, MARION MI 49665 US"	"-85.144156"	"44.102696"
"4341"	"224126"	"00000"	"W"	"270"	"MECOSTA OSCEOLA MANUFACTURING "	"15670 190TH AVE., BIG RAPIDS MI 49307 US"	"-85.462945"	"43.6937167"
"4361"	"224415"	"00000"	"M"	"250"	"FOCUS ON MASSAGE - NORTH      "	"124 N. MITCHELL SUITE #107, CADILLAC MI 49601 US"	"-85.399875"	"44.251178"
"4363"	"224417"	"00000"	"F"	"300"	"VILLAGE GRILL"	"112 CHURCH ST, TUSTIN MI 48688 US"	"-85.458075"	"44.102377"
"4393"	"99061"	"00177"	"F"	"40"	"SPARTAN QUICK STOP #543"	"1713 N. CLARE AVE., HARRISON MI 48625 US"	"-84.790754"	"44.0116652"
"4402"	"225659"	"00000"	"R"	"10"	"SAMARITAS SENIOR LIVING"	"460 PEARL ST, CADILLAC MI 49601 US"	"-85.405469"	"44.238007"
"4422"	"208615"	"00002"	"T"	"260"	"EAGLE VILLAGE HOLBROOK        "	"4507 170TH, HERSEY MI 49639 US"	"-85.423832"	"43.879838"
"4424"	"225992"	"00000"	"R"	"210"	"TRAVLER'S BAR & GRILL         "	"4699 N MACKINAW, LEROY MI 49655 US"	"-85.4569607318992"	"44.0344051621239"
"4440"	"226231"	"00000"	"F"	"320"	"MINERAL SPRINGS BAR           "	"21257 MACKINAW TRAIL, TUSTIN MI 49688 US"	"-85.440611"	"44.120886"
"4441"	"226234"	"00000"	"M"	"85"	"G&D PIZZA & PARTY STORE"	"223 S MITCHELL ST, CADILLAC MI 49601 US"	"-85.397691"	"44.248698"
"4444"	"226268"	"00000"	"F"	"360"	"AMERICAN LEGION               "	"422 N MITCHELL ST, CADILLAC MI 49601 US"	"-85.401954"	"44.2539315"
"4448"	"226300"	"00000"	"R"	"200"	"MICH DEPT OF TRANSPORTATION   "	"7915 US-131 HWY, CADILLAC MI 49601 US"	"-85.3951117"	"44.224088"
"4466"	"226635"	"00000"	"T"	"70"	"PERE MARQUETTE BISTRO CATERING"	"102 E. UPTOWN, REED CITY MI 49677 US"	"-85.509766"	"43.876231"
"4468"	"99049"	"00001"	"W"	"70"	"FSU-THE ROCK                  "	"1420 KNOLLVIEW SO.COMMONS BLDG, BIG RAPIDS MI 4930"	"-85.481816"	"43.681234"
"4474"	"226666"	"00000"	"M"	"190"	"WEXFORD COMMUNITY CU"	"1021 N. MITCHELL, CADILLAC MI 49601 US"	"-85.406077"	"44.261986"
"4482"	"231079"	"00014"	"M"	"80"	"NMCAA-MEALS ON WHEELS"	"1630 MARTY PAUL ST, CADILLAC MI 49601 US"	"-85.4302567"	"44.2660267"
"4484"	"231079"	"00013"	"M"	"70"	"NMCAA-MARTY PAUL"	"1640 MARTY PAUL, CADILLAC MI 49601 US"	"-85.4300938"	"44.2659863"
"4511"	"226989"	"00000"	"T"	"350"	"MOOSE LODGE                   "	"8400 E US 10, EVART MI 49631 US"	"-85.253603"	"43.9023147"
"4535"	"227617"	"00000"	"R"	"150"	"ADVANCED FOOT & ANKLE         "	"8805 PINE RIDGE DR, CADILLAC MI 49601 US"	"-85.399737"	"44.225406"
"4537"	"227625"	"00000"	"R"	"170"	"FAMILY EYE CARE ASSOCIATES    "	"8809 PINE RIDGE DR, CADILLAC MI 48601 US"	"-85.399744"	"44.225343"
"4544"	"227743"	"00000"	"F"	"130"	"DYNAMIC                       "	"105 E MAIN, MARION MI 49665 US"	"-85.147144"	"44.102749"
"4554"	"99063"	"00001"	"M"	"130"	"DTE ENERGY"	"1560 MARTY PAUL ST, CADILLAC MI 49601 US"	"-85.4303033"	"44.2648517"
"4556"	"99063"	"00000"	"W"	"210"	"DTE ENERGY"	"609 BJORNSON, BIG RAPIDS MI 49307 US"	"-85.4745247"	"43.7077887"
"4573"	"99049"	"00003"	"W"	"80"	"FSU THE ROCK CAFE             "	"1420 KNOLLVIEW DR, BIG RAPIDS MI 49307 US"	"-85.481816"	"43.681234"
"4584"	"228110"	"00000"	"R"	"250"	"HERRADURAS BAR & GRILL        "	"1700 S MITCHELL ST, CADILLAC MI 49601 US"	"-85.397126"	"44.234304"
"4649"	"99054"	"00015"	"W"	"290"	"CHARTER COMMUNICATIONS        "	"1100 MAPLE ST, BIG RAPIDS MI 49307 US"	"-85.469432"	"43.701853"
"4650"	"228660"	"00000"	"F"	"280"	"PINE RIVER AREA SCHOOLS       "	"17445 PINE RIVER RD, LEROY MI 49655 US"	"-85.488912"	"44.064836"
"4681"	"228910"	"00000"	"R"	"220"	"ZION LUTHERAN CHURCH          "	"350 PEARL ST, CADILLAC MI 49601 US"	"-85.40392"	"44.237856"
"4685"	"228926"	"00000"	"W"	"330"	"ORIGINAL FOOTWEAR COMPANY"	"1005 BALDWIN ST, BIG RAPIDS MI 49307 US"	"-85.479032"	"43.710756"
"4706"	"229050"	"00000"	"M"	"270"	"CADILLAC NEWS                 "	"130 N MITCHELL, CADILLAC MI 49601 US"	"-85.3996"	"44.25083"
"4803"	"229415"	"00000"	"T"	"140"	"MOOSE LODGE 705"	"200 N ROTH ST, REED CITY MI 49677 US"	"-85.5027375"	"43.8762643"
"4808"	"229456"	"00000"	"F"	"190"	"SALISBURY INC                 "	"12547 20 MILE RD, TUSTIN MI 49688 US"	"-85.3369172"	"44.1011363"
"4819"	"229521"	"00000"	"M"	"100"	"BIGFOOT MANUFACTURING         "	"1480 POTHOFF, CADILLAC MI 49601 US"	"-85.434745"	"44.265716"
"4847"	"99054"	"00016"	"R"	"280"	"CHARTER COMMUNICATIONS        "	"614 S. MITCHELL ST, CADILLAC MI 49601 US"	"-85.398053"	"44.245613"
"8192"	"229565"	"00000"	"M"	"380"	"KILEY CHIROPRACTIC"	"9116 E 13TH ST, CADILLAC MI 49601 US"	"-85.394069"	"44.266393"
"8486"	"99031"	"00014"	"T"	"35"	"BLARNEY CASTLE 792"	"22522 US 10, REED CITY MI 49677 US"	"-85.53336"	"43.887908"
"8514"	"99031"	"00042"	"F"	"60"	"BLARNEY CASTLE 528"	"5778 N CLARE AVE, HARRISON MI 48625 US"	"-84.791387"	"44.071392"
"8522"	"99031"	"00049"	"T"	"360"	"BLARNEY CASTLE 832"	"6037 30TH AVE (M66), SEARS MI 49679 US"	"-85.148518"	"43.901128"
"8542"	"99031"	"00069"	"W"	"40"	"BLARNEY CASTLE 272"	"710 SOUTH STATE ST, BIG RAPIDS MI 49307 US"	"-85.484255"	"43.690623"
"8547"	"99031"	"00074"	"F"	"310"	"BLARNEY CASTLE 888"	"20027 180TH AVE., TUSTIN MI 49688 US"	"-85.444523"	"44.1029"
"8931"	"99051"	"00045"	"W"	"220"	"JET'S PIZZA MI-154"	"215 MAPLE ST., BIG RAPIDS MI 49307 US"	"-85.480929"	"43.698583"
"8948"	"230155"	"00000"	"M"	"140"	"SHIVELY SUPPLY"	"1104 W. 13TH ST., CADILLAC MI 49601 US"	"-85.427075"	"44.267405"
"9005"	"230209"	"00000"	"R"	"85"	"MIDAS MUFFLER OF CADILLAC"	"220 SOUTH MITCHELL, CADILLAC MI 49601 US"	"-85.398387"	"44.248613"
"9021"	"230224"	"00000"	"W"	"340"	"GYPSY NICKEL LOUNGE"	"228 BALDWIN, BIG RAPIDS MI 49307 US"	"-85.480653"	"43.708289"
"9133"	"230321"	"00000"	"W"	"400"	"ASHTON GENERAL STORE"	"10989 210TH AVE, ASHTON MI 49677 US"	"-85.503332"	"43.972822"
"9252"	"230412"	"00000"	"R"	"35"	"RESURRECTION LIFE CHURCH"	"9127 E 44 1/2 ROAD, CADILLAC MI 49601 US"	"-85.392012"	"44.217175"
"9267"	"230427"	"00000"	"T"	"110"	"DAIRY DEPOT"	"534 S CHESTNUT, REED CITY MI 49677 US"	"-85.509659"	"43.870646"
"9307"	"230461"	"00000"	"M"	"330"	"D & G TRUCK REPAIR"	"11835 W WATERGATE, CADILLAC MI 49601 US"	"-85.33294"	"44.2523"
"9484"	"230623"	"00000"	"T"	"290"	"OSCEOLA COUNTY ROAD COMM"	"4737 MAKAWA DR, HERSEY MI 49639 US"	"-85.3555432"	"43.8816402"
"9519"	"99035"	"00031"	"W"	"180"	"INDEPENDENT BANK 616"	"404 PERRY ST., BIG RAPIDS MI 49307 US"	"-85.48837"	"43.68821"
"9598"	"230693"	"00000"	"T"	"150"	"VFW POST 2964"	"129 E OSCEOLA, REED CITY MI 49677 US"	"-85.509447"	"43.870373"
"9861"	"230902"	"00000"	"R"	"120"	"EVERGREEN RESORT"	"7880 MACKINAW TRAIL, CADILLAC MI 49601 US"	"-85.403"	"44.22485"
