"cu_id"	"Account"	"Customer"	"New Delivery Day"	"Alliant Sequence"	"Customer Name"	"Address"	"X_Longitude"	"Y_Latitude"
"10072"	"131092"	"00000"	"M"	"370"	"SHAGGY CHIC PET BOUTIQUE"	"520 S MILL ST, CLIO MI 48458 US"	"-83.7352227"	"43.1730685"
"10393"	"99035"	"00041"	"M"	"390"	"INDEPENDENT BANK 308"	"3500 W. VIENNA RD, CLIO MI 48420 US"	"-83.753303"	"43.177891"
"10788"	"131642"	"00000"	"M"	"60"	"MASS TRANSIT AUTHORITY"	"1401 S. DORT HIGHWAY, FLINT MI 48503 US"	"-83.653164"	"43.014218"
"10817"	"99035"	"00066"	"F"	"200"	"INDEPENDENT BANK 305"	"2593 S.VANDYKE, MARLETTE MI 49453 US"	"-83.083568"	"43.339916"
"10876"	"99132"	"00002"	"W"	"180"	"THE BARN"	"715 TORREY ROAD, FENTON MI 48430 US"	"-83.724984"	"42.805305"
"11079"	"99061"	"00459"	"W"	"290"	"SPT VG'S STARBUCKS #1927"	"1390 N. LEROY, NORTH FENTON MI 48430-2762 US"	"-83.705571"	"42.814323"
"11080"	"99061"	"00460"	"W"	"300"	"SPT VG'S PRODUCE #1927"	"1390 N. LEROY, NORTH FENTON MI 48430-2762 US"	"-83.705571"	"42.814323"
"1112"	"99075"	"00003"	"W"	"30"	"MTA FENTON                    "	"2100 COPPER AVE, FENTON MI  US"	"-83.728869"	"42.793958"
"11286"	"131886"	"00000"	"M"	"310"	"BUS STOP BAR AND GRILLE"	"10014 DIXIE HWY, BIRCH RUN MI 48415 US"	"-83.791137"	"43.27852"
"11356"	"131941"	"00000"	"R"	"100"	"SPINFORM INC"	"1848 TOWERS ST, FLINT MI 48503 US"	"-83.652798"	"43.008133"
"11421"	"131992"	"00000"	"F"	"210"	"LAPEER WINE AND SPIRITS"	"543 S. MAIN, LAPEER MI 48466 US"	"-83.319298"	"43.044826"
"11530"	"99186"	"00007"	"W"	"160"	"LA MARSA-FENTON"	"17055 SILVER PARKWAY, FENTON MI 48430 US"	"-83.736374"	"42.795597"
"11618"	"131644"	"00000"	"M"	"50"	"MASS TRANSIT-SPECIAL ORDERS"	"1401 S. DORT HIGHWAY, FLINT MI 48503 US"	"-83.653164"	"43.014218"
"11688"	"99080"	"00011"	"T"	"250"	"MERCANTILE BANK"	"102 PINE ST., ST CHARLES MI 48655 US"	"-84.142929"	"43.298706"
"11749"	"99082"	"00001"	"F"	"160"	"SUNRISE 52"	"120 S. MAIN, CAPAC MI 48014 US"	"-82.92786"	"43.011854"
"12264"	"132459"	"00000"	"T"	"340"	"PLAYSTATION"	"6154 DIXIE HWY, BRIDGEPORT MI 48722 US"	"-83.881705"	"43.359177"
"12621"	"99185"	"00003"	"T"	"260"	"TONY'S ST CHARLES"	"112 S. SAGINAW, ST CHARLES MI 48655 US"	"-84.140534"	"43.296619"
"12850"	"99094"	"00031"	"W"	"360"	"LMCU 181"	"8121 TRILLIUM CIRCLE, GRAND BLANC MI 48439 US"	"-83.623953"	"42.913647"
"12905"	"132805"	"00000"	"M"	"410"	"MUG SHOTZ"	"13508 N. SAGINAW RD, CLIO MI 48420 US"	"-83.734288"	"43.204343"
"12938"	"99132"	"00000"	"W"	"330"	"THE FENTON PUB"	"108 S. LEROY ST, FENTON MI 48430 US"	"-83.705059"	"42.796233"
"12983"	"99051"	"00060"	"W"	"320"	"JET'S PIZZA MI-080"	"235 N LEROY STREET, FENTON MI 48430 US"	"-83.70559"	"42.798588"
"12986"	"132852"	"00000"	"M"	"230"	"GENESEE SCHOOL DISTRICT-KITCHE"	"7347 N. GENESEE RD., GENESEE MI 48437 US"	"-83.619705"	"43.115196"
"13024"	"99161"	"00386"	"M"	"50"	"SPT VG MKT FRT #1925 FIRST AID"	"710 S. MILL, CLIO MI 48420 US"	"-83.735651"	"43.171075"
"13025"	"99161"	"00389"	"M"	"180"	"VG'S FRONT #1929 FIRST AID"	"7461 N. GENESEE, GENESEE MI 48437 US"	"-83.618816"	"43.118613"
"13089"	"99161"	"00426"	"W"	"230"	"SPT VG'S #1927 FIRST AID"	"1390 N. LEROY, NORTH FENTON MI 48430 US"	"-83.705571"	"42.814323"
"13090"	"99161"	"00415"	"W"	"240"	"SPT VG'S MKT  #1921 FIRST"	"18005 SILVER PARKWAY, FENTON MI 48430 US"	"-83.737862"	"42.793121"
"13100"	"99161"	"00206"	"W"	"220"	"SPT #774 FIRST AID"	"18001 SILVER PARKWAY, FENTON MI 48340 US"	"-83.739148"	"42.79424"
"13114"	"99161"	"00390"	"T"	"300"	"VG'S FRONT #1932 FIRST AID"	"1341 N. M-52, OWOSSO MI 48867 US"	"-84.178049"	"43.014298"
"13116"	"99161"	"00385"	"F"	"130"	"VG'S FRONT #1930 FIRST AID"	"8503 DAVISON, DAVISON MI 48423 US"	"-83.537861"	"43.035591"
"13165"	"132885"	"00000"	"F"	"190"	"PINE HOUSE"	"5800 DRYDEN RD, DRYDEN MI 48428 US"	"-83.11305"	"42.94599"
"13186"	"99075"	"00009"	"R"	"90"	"MTA - RTW"	"1717 S. DORT HWY, FLINT MI 48503 US"	"-83.653719"	"43.010771"
"13484"	"99132"	"00001"	"W"	"140"	"PONEMAH LAKESIDE TAVERN"	"3482 SILVER LAKE ROAD, FENTON MI 48430 US"	"-83.7437665"	"42.810008"
"13501"	"99061"	"00486"	"W"	"80"	"SPT VG'S PRODUCE #1921"	"18005 SILVER PARKWAY, FENTON MI 48430 US"	"-83.737862"	"42.793121"
"13579"	"131642"	"00001"	"W"	"260"	"MASS TRANSIT AUTHORITY"	"5501 DORT HWY, FLINT MI 48507 US"	"-83.65272484"	"42.9450713"
"1371"	"99061"	"00415"	"W"	"50"	"SPT VG'S MKT FRONT #1921"	"18005 SILVER PARKWAY, FENTON MI 48430-3421 US"	"-83.737862"	"42.793121"
"1372"	"99061"	"00416"	"W"	"250"	"SPT VG'S MKT FRONT #1927"	"1390 N. LEROY, NORTH FENTON MI 48430-2762 US"	"-83.705571"	"42.814323"
"13723"	"99106"	"00001"	"W"	"300"	"LEWIS & KNOPF PC-FLINT"	"5206 GATEWAY CENTRE SUITE 100, FLINT MI 48507 US"	"-83.722914"	"42.948249"
"1402"	"28399"	"00000"	"W"	"10"	"AMERICAN MACHINING            "	"2232 WIGGINS RD, FENTON MI 48430 US"	"-83.71735"	"42.859616"
"14079"	"133053"	"00000"	"F"	"250"	"KOOKY'S N CREAM"	"374 W. NEPESSING ST, LAPEER MI 48446 US"	"-83.312493"	"43.054159"
"14298"	"133144"	"00000"	"F"	"240"	"WOODCHIPS"	"315 W. NEPESSING, LAPEER MI 48446 US"	"-83.31179"	"43.053753"
"14445"	"99104"	"00030"	"F"	"120"	"AUNT MILLIES OUTLET-DAVISON"	"3330 N. STATE STREET, DAVISON MI 48423 US"	"-83.51804419"	"43.03885935"
"14543"	"99133"	"00006"	"R"	"160"	"LOGAN'S ROAD HOUSE"	"4404 MILLER RD, FLINT MI 48507 US"	"-83.766658"	"42.978867"
"14560"	"99161"	"00001"	"T"	"20"	"RIVERSIDE MARKET FIRST AID"	"311 N OAK ST, DURAND MI 48116 US"	"-83.988416"	"42.913766"
"14561"	"99161"	"00003"	"T"	"30"	"RIVERSIDE MARKET FIRST AID"	"10236 W VIENNA, MONTROSE MI 48457 US"	"-83.881759"	"43.176912"
"14709"	"99132"	"00003"	"W"	"310"	"THE FENTON MEAT MARKET"	"1110 N. LEROY, FENTON MI 48430 US"	"-83.706991"	"42.809001"
"14807"	"99082"	"00036"	"F"	"130"	"SUNRISE 37"	"123 E LAPEER ST, PECK MI 48466 US"	"-82.812498"	"43.258905"
"14808"	"99082"	"00037"	"F"	"150"	"SUNRISE 39"	"10736 METCALF RD, BROCKWAY MI 48097 US"	"-82.764809"	"43.073481"
"14831"	"233368"	"00000"	"R"	"250"	"LIQUOR PLUS"	"2407 M.L. KING AVE, FLINT MI 48505 US"	"-83.704906"	"43.038364"
"14842"	"133373"	"00000"	"M"	"300"	"GREEN ACRES GOLF"	"7323 DIXIE HWY, BRIDGEPORT MI 48722 US"	"-83.8264163"	"43.3269181"
"14907"	"99115"	"00005"	"R"	"170"	"LOCKWOOD OF GENESEE"	"3375 N. LINDEN RD, FLINT MI 48507 US"	"-83.775149"	"43.055964"
"1505"	"99061"	"00385"	"F"	"140"	"VG'S FRONT #1930 "	"8503 DAVISON, DAVISON MI 48423-2116 US"	"-83.537861"	"43.035591"
"15559"	"99115"	"00006"	"W"	"120"	"LOCKWOOD OF FENTON-FACILITIES"	"16300 SILVER PARKWAY, FENTON MI 48430 US"	"-83.7360527"	"42.7987617"
"15650"	"99115"	"00007"	"R"	"10"	"LOCKWOOD OF GENESEE-FACILITIES"	"3375 N. LINDEN RD, FLINT MI 48507 US"	"-83.775149"	"43.055964"
"15651"	"99115"	"00008"	"W"	"240"	"LOCKWOOD OF BURTON-FACILITIES"	"2173 S CENTER RD, BURTON MI 48519 US"	"-83.6328888"	"42.9991468"
"15816"	"99033"	"00306"	"W"	"320"	"TRANQUILITY ESTATES"	"4069 E. COOK ROAD, GRAND BLANC MI 48439 US"	"-83.628142"	"42.902353"
"15959"	"99169"	"00007"	"F"	"180"	"DEAN TRANSPORTATION-ALMONT"	"4701 HOWLAND ROAD, ALMONT MI 48003 US"	"-83.043855"	"42.929829"
"15963"	"99169"	"00011"	"M"	"10"	"DEAN TRANSPORTATION-BIRCH RUN"	"12400 CHURCH STREET, BIRCH RUN MI 48415 US"	"-83.7954407"	"43.2460352"
"16041"	"431715"	"00009"	"R"	"10"	"CREATIVE DINING-KETTERING"	"1709 UNIVERSITY AVE, FLINT MI 48504 US"	"-83.71362392"	"43.01281225"
"16042"	"431715"	"00010"	"R"	"20"	"CREATIVE DINING-EINSTEIN BAGEL"	"1625 UNIVERSITY DR., FLINT MI 48504 US"	"-83.71186"	"43.01337"
"16109"	"99061"	"00911"	"F"	"180"	"SPT VG'S PRODUCE #1930"	"8503 DAVISON, DAVISON MI 48423-2116 US"	"-83.537861"	"43.035591"
"16269"	"133738"	"00000"	"R"	"230"	"LIQUOR WHEEL"	"4117 CLIO RD, FLINT MI 48504 US"	"-83.733127"	"43.051906"
"16291"	"99061"	"00494"	"M"	"40"	"SPT VG'S MKT PRODUCE #1925"	"710 S. MILL, CLIO MI 48420 US"	"-83.735651"	"43.171075"
"16292"	"99061"	"00495"	"T"	"310"	"VG'S PRODUCE #1932"	"1341 N. M-52, OWOSSO MI 48867 US"	"-84.178049"	"43.014298"
"16374"	"133775"	"00000"	"W"	"170"	"HIPPOS"	"17225 SILVER PARKWAY, FENTON MI 48430 US"	"-83.73619"	"42.7947217"
"16438"	"71018"	"00001"	"T"	"190"	"POSSUM'S PARTY STORE"	"4007 PEET RD., CHESANING MI 48616 US"	"-83.989402"	"43.175389"
"16456"	"133823"	"00000"	"F"	"260"	"HEART AND VASCULAR INST OF MI"	"1075 SUNCREST DR, LAPEER MI 48446 US"	"-83.334122"	"43.059529"
"16522"	"133862"	"00000"	"T"	"280"	"CAM'S BRICK OVEN"	"133 N. SAGINAW ST, ST. CHARLES MI 48655 US"	"-84.141343"	"43.297199"
"16658"	"99062"	"00190"	"F"	""	"ANDY'S QUALITY MARKET"	"3889 S. LAPEER ROAD, METAMORA MI 48455 US"	"-83.311647"	"42.945012"
"16668"	"99161"	"00009"	"F"	""	"ANDY'S MARKET FIRST AID"	"3889 S. LAPEER RD, METAMORA MI 48455 US"	"-83.311647"	"42.945012"
"16708"	"33947"	"00000"	"F"	""	"LIGHTNING ROUNDS"	"266 LAKE NEPESSING ROAD, LAPEER MI 48446 US"	"-83.362363"	"43.039989"
"16710"	"133949"	"00000"	"R"	""	"MIKE LINTZ SCRATCH BBQ"	"2373 AUSTINS PARKWAY, FLINT MI 48507 US"	"-83.739327"	"42.992314"
"1700"	"29212"	"00000"	"W"	"20"	"MEGA CONEY ISLAND             "	"3251 OWEN RD, FENTON MI 48430 US"	"-83.736926"	"42.788967"
"264"	"20727"	"00000"	"F"	"70"	"WOMENS INTEGRATED HEALTH CARE "	"1260 Irish Road, DAVISON MI 48423 US"	"-83.555306"	"43.026513"
"3303"	"108496"	"00000"	"R"	"100"	"KOEGEL MEAT                   "	"3400 WEST BRISTOL RD, FLINT MI 48507 US"	"-83.747432"	"42.973933"
"3306"	"110704"	"00000"	"R"	"120"	"BISHOP INT'L GARAGE           "	"3425 W. BRISTOL RD, FLINT MI 48507 US"	"-83.738759"	"42.973477"
"3307"	"111533"	"00000"	"T"	"320"	"DEPT OF STATE POLICE          "	"6296 DIXIE HWY, BRIDGEPORT MI 48722 US"	"-83.8748405"	"43.355084"
"3309"	"112934"	"00000"	"R"	"110"	"BISHOP INT'L FIRE             "	"3425 W. BRISTOL RD, FLINT MI 48507 US"	"-83.738759"	"42.973477"
"3327"	"117847"	"00000"	"R"	"40"	"FLINT PROVISION               "	"2801 LIPPINCOTT BLVD, FLINT MI 48507 US"	"-83.647791"	"43.004157"
"3329"	"117989"	"00000"	"R"	"190"	"QUICK PICK                    "	"1742 W COUT, FLINT MI 48503 US"	"-83.708537"	"43.00705"
"3331"	"132840"	"00002"	"R"	"20"	"F.G. JOB CORPS-RESIDENTIAL    "	"2400 N SAGINAW ST, FLINT MI 48505 US"	"-83.6914483"	"43.0391367"
"3333"	"132840"	"00000"	"R"	"10"	"FLINT GENESSE JOB-KITCHEN     "	"2400 N SAGINAW, FLINT MI 48505 US"	"-83.6914483"	"43.0391367"
"3334"	"132840"	"00001"	"R"	"30"	"F.G. JOB CORPS FACILITIES     "	"2400 N SAGINAW, FLINT MI 49075 US"	"-83.6914483"	"43.0391367"
"3336"	"119091"	"00000"	"T"	"430"	"CHANGES BARBER SHOP           "	"205 W. MAIN, DURAND MI 48429 US"	"-83.986482"	"42.910603"
"3340"	"99110"	"00004"	"M"	"160"	"SAVE A LOT 304               "	"11972 SAGINAW, MT MORRIS MI 48116 US"	"-83.693"	"43.122581"
"3356"	"120726"	"00000"	"W"	"350"	"WOMENS INTEGRATED HEALTH CARE "	"1595 GENESYS PARKWAY, GRAND BLANC MI 48439 US"	"-83.642835"	"42.892305"
"3357"	"99110"	"00007"	"R"	"140"	"SAVE A LOT 307               "	"2918 FLUSHING RD, FLINT MI 48504 US"	"-83.732057"	"43.02553"
"3358"	"99062"	"00001"	"T"	"410"	"RIVERSIDE MKT BAKERY/DELI 1204"	"311 N. OAK ST., DURAND MI 48116 US"	"-83.988416"	"42.913766"
"3359"	"99062"	"00002"	"T"	"420"	"RIVERSIDE MKT MEAT 1204"	"311 N. OAK ST., DURAND MI 48429 US"	"-83.988416"	"42.913766"
"3360"	"99062"	"00003"	"T"	"140"	"RIVERSIDE MKT BAKERY/DELI 1135"	"10236 W VIENNA, MONTROSE MI 48457 US"	"-83.881759"	"43.176912"
"3361"	"99062"	"00004"	"T"	"120"	"RIVERSIDE MKT MEAT 1135      "	"10236 W VIENNA, MONTROSE MI 48457 US"	"-83.881759"	"43.176912"
"3364"	"121999"	"00000"	"M"	"30"	"GENESYS HURLEY CANCER CENTER  "	"302 KENSINGTON, FLINT MI 48503 US"	"-83.66733"	"43.023887"
"3428"	"123059"	"00000"	"F"	"230"	"LAPEER COUNTY ABSTRACT & TITLE"	"68 W NEPESSING ST, LAPPER MI 48446 US"	"-83.3094708"	"43.0554222"
"3431"	"99110"	"00000"	"M"	"40"	"SAV-A-LOT 308                "	"1918 N DORT HWY, FLINT MI 48506 US"	"-83.654453"	"43.034179"
"348"	"21959"	"00000"	"W"	"210"	"C-n-C HAIR SALON              "	"415 ROUNDS DRIVE, FENTON MI 48430 US"	"-83.720578"	"42.791045"
"3484"	"123175"	"00000"	"M"	"260"	"ROMA PIZZA                    "	"5227 N. SAGINAW ST, FLINT MI 48505 US"	"-83.69395464"	"43.06145695"
"3488"	"123186"	"00000"	"W"	"280"	"KING ARTHURS PASTIES          "	"2259 HILL RD, GRAND BLANC MI 48439 US"	"-83.662579"	"42.944822"
"3489"	"123188"	"00000"	"W"	"290"	"ROCCOS PIZZA                  "	"4501 E. HILL ROAD VICTORIA SQUARE COMPLEX, GRAND B"	"-83.614162"	"42.945968"
"3499"	"123210"	"00000"	"M"	"400"	"ORIENTAL EXPRESS              "	"4254 VIENNA ROAD, CLIO MI 48420 US"	"-83.763796"	"43.17803"
"3503"	"123216"	"00000"	"T"	"230"	"ST. CHARLES PHARMACY"	"1008 N SAGINAW, ST CHARLES MI 48645 US"	"-84.143339"	"43.304316"
"3515"	"99069"	"00001"	"T"	"70"	"BUECHE PRODUCE                "	"226 W. MAIN, FLUSHING MI 48432 US"	"-83.858937"	"43.063655"
"3516"	"99069"	"00002"	"T"	"80"	"BUECHE MEAT DEPT              "	"226 W. MAIN ST, FLUSHING MI 48432 US"	"-83.858937"	"43.063655"
"3517"	"123250"	"00000"	"T"	"220"	"GINA'S PIZZA                  "	"801 CHAMBERLAIN, FLUSHING MI 48433 US"	"-83.838713"	"43.065545"
"3519"	"123252"	"00000"	"R"	"180"	"MICHIGAN EYE INSTITUTE        "	"4499 LINDEN RD, FLINT MI 48532 US"	"-83.771181"	"42.959032"
"3521"	"123257"	"00000"	"R"	"180"	"HONEY BAKED HAM               "	"3320 MILLER RD, FLINT MI 48503 US"	"-83.73276667"	"42.99243164"
"3523"	"123261"	"00000"	"R"	"200"	"CORUNNA ROAD BAR              "	"3110 CORUNNA ROAD, FLINT MI 48503 US"	"-83.728865"	"43.002735"
"3524"	"123263"	"00000"	"R"	"150"	"KING ARTHUR PASTRIES          "	"1261 BALLENGER HIGHWAY, FLINT MI 48504 US"	"-83.732462"	"43.024065"
"3525"	"123264"	"00000"	"R"	"130"	"ST. JOHN'S                    "	"2415 BAGLEY ST., FLINT MI 48504 US"	"-83.721851"	"43.020215"
"3535"	"99069"	"00003"	"T"	"90"	"BUECHE BAKERY                 "	"300 W. MAIN ST, FLUSHING MI 48432 US"	"-83.860466"	"43.063477"
"3563"	"123358"	"00000"	"M"	"30"	"TOTTEN TIRE                   "	"9400 E BIRCH RUN RD, BIRCH RUN MI 48415 US"	"-83.767525"	"43.249769"
"3570"	"123372"	"00000"	"R"	"420"	"SHERMS INSTRUMENT             "	"3128 LAPEER ROAD, FLINT MI 48503 US"	"-83.653455"	"43.009374"
"3578"	"123386"	"00000"	"R"	"160"	"A FOX INTERNATIONAL           "	"1028 PROFESSIONAL DR. BLDG A - SUITE 5A, FLINT MI "	"-83.747341"	"43.017377"
"3603"	"99070"	"00004"	"M"	"140"	"MT. MORRIS MIDDLE SCHOOL"	"12356 WALTER ST., MT. MORRIS MI 48458 US"	"-83.6888"	"43.122915"
"3604"	"99070"	"00000"	"M"	"110"	"JOHNSON HIGH SCHOOL           "	"8041 NEFF RD, MT. MORRIS MI 48458 US"	"-83.715802"	"43.120589"
"3605"	"99070"	"00001"	"M"	"120"	"MONTAGUE SCHOOL               "	"344 MORRIS ST., MT. MORRIS MI 48458 US"	"-83.702723"	"43.118854"
"3606"	"99070"	"00002"	"M"	"130"	"MOORE ELEMENTARY              "	"1201 WISHER, MT. MORRIS MI 48458 US"	"-83.686941"	"43.129108"
"3607"	"99070"	"00003"	"M"	"150"	"PINEHURST SCHOOL              "	"1013 PINEHURST ST., MT. MORRIS MI 48458 US"	"-83.700819"	"43.127723"
"3623"	"99079"	"00013"	"R"	"170"	"RED ROBIN 388                "	"4141 MILLER ROAD, FLINT MI 48507 US"	"-83.756543"	"42.981332"
"3628"	"99069"	"00004"	"T"	"100"	"BUECHE DELI                   "	"226 W MAIN ST, FLUSHING MI 48432 US"	"-83.858937"	"43.063655"
"3656"	"126241"	"00000"	"T"	"50"	"DUFFY'S                       "	"125 E MAIN, FLUSHING MI 48433 US"	"-83.854816"	"43.063177"
"3717"	"99075"	"00002"	"F"	"110"	"MTA DAVISON                   "	"3227 N STATE STREET, DAVISON MI 48423 US"	"-83.51807445"	"43.04193975"
"3722"	"127218"	"00000"	"T"	"200"	"ANIMAL HEALTH CARE            "	"726 E BROAD ST, CHESANING MI 48616 US"	"-84.106989"	"43.182948"
"3725"	"127221"	"00000"	"T"	"210"	"R A HOERNER ACCOUNTING        "	"150 W BROAD ST, CHESANING MI 48616 US"	"-84.115948"	"43.185253"
"3729"	"127229"	"00000"	"T"	"240"	"ALLEY BAR & GRILL             "	"1104 N SAGINAW ST, ST CHARLES MI 48655 US"	"-84.1423373"	"43.3062355"
"3730"	"99075"	"00007"	"R"	"130"	"MTA SWARTZ CREEK              "	"3462 DYE ROAD, SWARTZ CREEK MI  US"	"-83.7832433"	"42.9745017"
"3731"	"127232"	"00000"	"W"	"90"	"DOTTY PET CENTER (BURTON)     "	"1375 E BRISTOL RD, BURTON MI 48529 US"	"-83.678515"	"42.974673"
"3735"	"127238"	"00000"	"T"	"170"	"GABES GROCERY                 "	"13025 SHERIDAN RD, BURT MI 48417 US"	"-83.931783"	"43.235513"
"3736"	"127239"	"00000"	"T"	"330"	"CREATIVE DESIGNS              "	"6197 DIXIE HWY, BRIDGEDPORT MI 48722 US"	"-83.879362"	"43.357861"
"3738"	"127245"	"00000"	"T"	"160"	"IVERSON'S LUMBER COMPANY      "	"195 W STATE ST PO BOX 3250, MONTROSE MI 48457 US"	"-83.896095"	"43.175878"
"3744"	"99075"	"00004"	"T"	"40"	"MTA FLUSHING                  "	"775 MAIN ST, FLUSHING MI 48433 US"	"-83.839209"	"43.065121"
"3746"	"127264"	"00000"	"T"	"370"	"HOME OFFICE REALTY            "	"209 W MAIN ST, OWOSSO MI 48867 US"	"-84.1724243"	"42.9973144"
"3752"	"127282"	"00000"	"M"	"170"	"UNION PRESCRIPTION CENTER     "	"11830 N SAGINAW RD, MT MORRIS MI 48458 US"	"-83.693791"	"43.120174"
"3756"	"99075"	"00006"	"M"	"100"	"MTA MT MORRIS                 "	"8095 CLIO RD, MT MORRIS MI 48458 US"	"-83.7353377"	"43.1213112"
"3758"	"99075"	"00001"	"M"	"70"	"MTA FLINT                     "	"1401 S DORT HWY, FLINT MI 48503 US"	"-83.653164"	"43.014218"
"3761"	"127295"	"00000"	"M"	"380"	"DOTTYS PET CENTER (CLIO)      "	"315 WEST VIENNA, CLIO MI 48470 US"	"-83.737455"	"43.176851"
"3767"	"99075"	"00000"	"R"	"110"	"MTA TRANSFER CENTER           "	"615 HARRISON RD, FLINT MI 48506 US"	"-83.687522"	"43.015674"
"3769"	"127308"	"00000"	"R"	"240"	"AFRO KNOT                     "	"3610 CLIO RD, FLINT MI 48505 US"	"-83.732233"	"43.047892"
"3770"	"127310"	"00000"	"R"	"210"	"QUICK PICK 2                  "	"3138 W PIERSON RD, FLINT MI 48504 US"	"-83.7386454"	"43.0611298"
"3775"	"99075"	"00005"	"W"	"270"	"MTA GRAND BLANC               "	"5051 DORT HWY, FLINT MI 48507 US"	"-83.6514092"	"42.9580859"
"3781"	"127585"	"00000"	"W"	"340"	"GENESYS HEART CENTER"	"3399 POLLOCK RD, GRAND BLANC MI 48439 US"	"-83.635106"	"42.894624"
"3795"	"127934"	"00000"	"R"	"200"	"BONITA WONG DO                "	"1425 S GRAHAM, FLINT MI 48532 US"	"-83.75259"	"43.008029"
"3806"	"99061"	"00386"	"M"	"90"	"SPT VG'S MKT FRONT #1925 "	"710 S. MILL, CLIO MI 48420-1491 US"	"-83.735651"	"43.171075"
"3807"	"128305"	"00000"	"T"	"270"	"THE STATE BANK          "	"207 S SAGINAW, ST CHARLES MI 48655 US"	"-84.139204"	"43.296307"
"3820"	"99062"	"00005"	"T"	"130"	"RIVERSIDE DELI 1135"	"10236 W. VIENNA, MONTROSE MI 48497 US"	"-83.881759"	"43.176912"
"3825"	"99061"	"00389"	"M"	"220"	"VG'S FRONT #1929 "	"7461 N. GENESEE, GENESEE MI 48437-0245 US"	"-83.618816"	"43.118613"
"3826"	"99061"	"00390"	"T"	"350"	"VG'S FRONT #1932 "	"1341 N. M-52, OWOSSO MI 48867-1232 US"	"-84.178049"	"43.014298"
"3827"	"99069"	"00000"	"T"	"60"	"BUECHES MAINTENANCE DEPT      "	"226 W MAIN ST, FLUSHING MI 48733 US"	"-83.858937"	"43.063655"
"3831"	"128591"	"00000"	"F"	"220"	"LOTHAMER DENTAL LAB INC       "	"66 N SAGINAW ST, LAPEER MI 48446 US"	"-83.3054722"	"43.0519057"
"3835"	"128621"	"00000"	"T"	"380"	"ROMA'S BACKDOOR               "	"200 EAST COMSTOCK ST, OWOSSO MI 48867 US"	"-84.168772"	"42.996363"
"3836"	"99054"	"00008"	"T"	"360"	"CHARTER COMMUNICATIONS        "	"1016 E. MAIN ST., OWOSSO MI 48467 US"	"-84.156965"	"42.996986"
"3839"	"99054"	"00009"	"F"	"60"	"CHARTER COMMUNICATIONS        "	"7372 DAVIDSON RD, DAVIDSON MI 48423 US"	"-83.5624"	"43.033243"
"3848"	"128762"	"00000"	"R"	"190"	"DR EDWARD GOMEZ               "	"5060 VILLA LINDE PKWY, FLINT MI 48532 US"	"-83.776242"	"43.015231"
"3849"	"128764"	"00000"	"W"	"330"	"CHRISTOPHER TYKOCKI           "	"8245 HOLLY RD SUITE 103, GRAND BLANC MI 48439 US"	"-83.623254"	"42.910332"
"3850"	"128765"	"00000"	"T"	"180"	"LAYTON CORNER BAR             "	"4004 W PEETE RD, CHESANING MI 48616 US"	"-83.989422"	"43.175877"
"3851"	"99074"	"00002"	"R"	"140"	"BINSON'S MEDICAL EQUIPMENT"	"4433 MILLER RD, FLINT MI 48507 US"	"-83.766311"	"42.977524"
"3852"	"99074"	"00003"	"R"	"150"	"BINSON'S MEDICAL EQUIPMENT"	"4435 MILLER RD, FLINT MI 12877 US"	"-83.76683962"	"42.97783084"
"3867"	"99062"	"00006"	"T"	"400"	"RIVERSID MKT DELI 1204"	"311 N. OAK ST, DURAND MI 48429 US"	"-83.988416"	"42.913766"
"3877"	"99115"	"00000"	"W"	"250"	"LOCKWOOD OF BURTON            "	"2173 S CENTER ROAD, BURTON MI 48519 US"	"-83.6328888"	"42.9991468"
"3887"	"129447"	"00000"	"F"	"50"	"MILEX-MR TRANSMISSION         "	"1268 N. BELSAY, BURTON MI 48509 US"	"-83.5952088"	"43.0267673"
"427"	"22920"	"00000"	"W"	"130"	"SILVER SPRAY SPORTS           "	"4037 SILVER LAKE, FENTON MI 48430 US"	"-83.747114"	"42.809834"
"439"	"23005"	"00000"	"F"	"200"	"JOHNS PIZZA                   "	"9010 DAVISON RD, DAVISON MI 48423 US"	"-83.53681"	"43.033874"
"459"	"23183"	"00000"	"W"	"80"	"BURTON EAGLES                 "	"3317 E BRISTOL RD, BURTON MI 48529 US"	"-83.6419823"	"42.9756613"
"479"	"23317"	"00000"	"W"	"150"	"AQUA SPORTS                   "	"3235 W THOMPSON RD #6, FENTON MI 48430 US"	"-83.738194"	"42.862354"
"8195"	"99061"	"00391"	"T"	"320"	"SPT VG'S MEAT #1932"	"1341 N. M-52, OWOSSO MI 48867-1232 US"	"-84.178049"	"43.014298"
"8196"	"99061"	"00392"	"T"	"330"	"SPT VG'S BAKERY #1932"	"1341 N. M-52, OWOSSO MI 48867-1232 US"	"-84.178049"	"43.014298"
"8197"	"99061"	"00393"	"T"	"340"	"SPT VG'S DELI #1932"	"1341 N. M-52, OWOSSO MI 48867-1232 US"	"-84.178049"	"43.014298"
"8201"	"99061"	"00394"	"M"	"60"	"SPT VG'S MEAT #1925"	"710 S. MILL, CLIO MI 48420-1491 US"	"-83.735651"	"43.171075"
"8202"	"99061"	"00395"	"M"	"70"	"SPT VG'S BAKERY #1925"	"710 S. MILL, CLIO MI 48420-1491 US"	"-83.735651"	"43.171075"
"8203"	"99061"	"00396"	"M"	"80"	"SPT VG'S DELI #1925"	"710 S. MILL, CLIO MI 48420-1491 US"	"-83.735651"	"43.171075"
"8204"	"99061"	"00425"	"W"	"40"	"SPT VG'S STARBUCKS #1921"	"18005 SILVER PARKWAY, FENTON MI 48430-3421 US"	"-83.737862"	"42.793121"
"8205"	"99061"	"00424"	"W"	"60"	"SPT VG'S DELI #1921"	"18005 SILVER PARKWAY, FENTON MI 48430-3421 US"	"-83.737862"	"42.793121"
"8206"	"99061"	"00423"	"W"	"70"	"SPT VG'S BAKERY #1921"	"18005 SILVER PARKWAY, FENTON MI 48430-3421 US"	"-83.737862"	"42.793121"
"8207"	"99061"	"00422"	"W"	"90"	"SPT VG'S MEAT #1921"	"18005 SILVER PARKWAY, FENTON MI 48430-3421 US"	"-83.737862"	"42.793121"
"8208"	"99061"	"00426"	"W"	"260"	"SPT VG'S MEAT #1927"	"1390 N. LEROY, NORTH FENTON MI 48430-2762 US"	"-83.705571"	"42.814323"
"8209"	"99061"	"00427"	"W"	"270"	"SPT VG'S BAKERY #1927"	"1390 N. LEROY, NORTH FENTON MI 48430-2762 US"	"-83.705571"	"42.814323"
"8210"	"99061"	"00428"	"W"	"280"	"SPT VG'S DELI #1927"	"1390 N. LEROY, NORTH FENTON MI 48430-2762 US"	"-83.705571"	"42.814323"
"8214"	"99061"	"00397"	"M"	"210"	"SPT VG'S MEAT #1929"	"7461 N. GENESEE, GENESEE MI 48437-0245 US"	"-83.618816"	"43.118613"
"8215"	"99061"	"00398"	"M"	"190"	"SPT VG'S BAKERY #1929"	"7461 N. GENESEE, GENESEE MI 48437-0245 US"	"-83.618816"	"43.118613"
"8216"	"99061"	"00399"	"M"	"200"	"SPT VG'S DELI #1929"	"7461 N. GENESEE, GENESEE MI 48437-0245 US"	"-83.618816"	"43.118613"
"8217"	"99061"	"00403"	"F"	"190"	"SPT VG'S STARBUCKS #1930"	"8503 DAVISON, DAVISON MI 48423-2116 US"	"-83.537861"	"43.035591"
"8218"	"99061"	"00401"	"F"	"150"	"SPT VG'S MEAT #1930"	"8503 DAVISON, DAVISON MI 48423-2116 US"	"-83.537861"	"43.035591"
"8219"	"99061"	"00402"	"F"	"170"	"SPT VG'S DELI #1930"	"8503 DAVISON, DAVISON MI 48423-2116 US"	"-83.537861"	"43.035591"
"8220"	"99061"	"00400"	"F"	"160"	"SPT VG'S BAKERY #1930"	"8503 DAVISON, DAVISON MI 48423-2116 US"	"-83.537861"	"43.035591"
"8361"	"29715"	"00000"	"W"	"200"	"CALLARD CHIROPRACTIC"	"873 W SILVER LAKE RD, FENTON MI 48430 US"	"-83.718202"	"42.799416"
"8363"	"99061"	"00206"	"W"	"100"	"SPT QUICK STOP #774"	"18001 SILVER PARKWAY, FENTON MI 48340 US"	"-83.739148"	"42.79424"
"8596"	"99075"	"00008"	"M"	"80"	"MTA-ADMINISTRATION"	"1401 S. DORT HWY, FLINT MI 48503 US"	"-83.653164"	"43.014218"
"8615"	"129824"	"00000"	"F"	"170"	"SPENCER BP"	"2015 S. CEDAR, IMLAY CITY MI 48444 US"	"-83.070438"	"43.006541"
"9012"	"130216"	"00000"	"T"	"150"	"THE MONTROSE PUB"	"10174 W VIENNA, MONTROSE MI 48457 US"	"-83.879522"	"43.176391"
"9024"	"130227"	"00000"	"T"	"290"	"BAD RIVER BAR & GRILL"	"103 N SAGINAW ST, ST CHARLES MI 48655 US"	"-84.14102"	"43.296985"
"9628"	"130718"	"00000"	"R"	"120"	"SOGGY BOTTOM BAR"	"613 ML KING AVE, FLINT MI 48502 US"	"-83.695758"	"43.021389"
"9637"	"99082"	"00005"	"F"	"140"	"SUNRISE CONV. STORE 7"	"110 N MAIN ST, YALE MI 48097 US"	"-82.798073"	"43.131386"
"968"	"26410"	"00000"	"W"	"310"	"SONITROL                      "	"7241 FENTON ROAD, GRAND BLANC MI 48439 US"	"-83.689753"	"42.923092"
"9745"	"130812"	"00000"	"T"	"390"	"RIVALS TAPHOUSE & GRILL"	"2500 E-M21, CORUNNA MI 48817 US"	"-84.117797"	"42.997117"
"9767"	"130830"	"00000"	"T"	"110"	"KEY-LORE PET REST GARDENS"	"7185 GILLETTE RD, FLUSHING MI 48433 US"	"-83.863647"	"43.108362"
"9794"	"130852"	"00000"	"M"	"20"	"AMERICAS BEST VALUE INN"	"9235 E BIRCH RUN RD, BIRCH RUN MI 48415 US"	"-83.77089"	"43.250876"
"9898"	"130937"	"00000"	"F"	"230"	"SUNRISE SUNSET"	"2772 E SANILLAC RD, MAYVILLE MI 48744 US"	"-83.314008"	"43.40979"
"9920"	"30958"	"00000"	"W"	"190"	"BOSTON'S GOURMET PIZZA"	"3324 OWEN RD., FENTON MI 48430 US"	"-83.74008"	"42.790413"
