""	"Acct #"	"Cust #"	"Week #"	"New Rt"	"New Delivery Day"	"New Stop"	"Customer Name"	"DisplayAddressFull"	"X_Longitude"	"Y_Latitude"
"0"	"533298.0"	"0.0"	"Week1"	"12"	"F"	"1.0"	"WMSHL"	"3003 WALKENT DR NW, GRAND RAPIDS MI 49544 US"	"-85.717522"	"43.018852"
"1"	"528207.0"	"0.0"	"Week1"	"12"	"F"	"10.0"	"UBCR-GR"	"3710 ROGER B CHAFFEE, WYOMING MI 49548 US"	"-85.652176"	"42.896658"
"2"	"526302.0"	"0.0"	"Week1"	"12"	"F"	"11.0"	"SCHUPAN RECYCLING"	"3710 ROGER B CHAFFEE, WYOMING MI 49548 US"	"-85.652176"	"42.896658"
"3"	"99146.0"	"1.0"	"Week1"	"12"	"F"	"12.0"	"HOEKSTRA TRANSPORTATION"	"3741 ROGER B CHAFFEE, GRAND RAPIDS MI 49548 US"	"-85.6544268"	"42.8957715"
"4"	"99098.0"	"3.0"	"Week1"	"12"	"F"	"13.0"	"FREIGHTLINER BODY SHOP"	"4537 ROGER B CHAFFEE MEMORIAL, WYOMIING MI 49548 US"	"-85.653023"	"42.881124"
"5"	"99033.0"	"185.0"	"Week1"	"12"	"F"	"14.0"	"EUREST-STEELCASE LEARN 22108"	"601 44TH ST SE, GRAND RAPIDS MI 49508 US"	"-85.650445"	"42.884138"
"6"	"99033.0"	"184.0"	"Week1"	"12"	"F"	"15.0"	"EUREST-STEELCASE BUS CTR 22108"	"901 44TH ST SE, GRAND RAPIDS MI 49508 US"	"-85.643491"	"42.884914"
"7"	"99169.0"	"2.0"	"Week1"	"12"	"F"	"16.0"	"DEAN TRANSPORTATION"	"4155 TRADE DRIVE, GRAND RAPIDS MI 49508 US"	"-85.6366368"	"42.8882767"
"8"	"99059.0"	"4.0"	"Week1"	"12"	"F"	"17.0"	"MR BURGER #3"	"1750 44TH STREET, KENTWOOD MI 49508 US"	"-85.622129"	"42.883364"
"9"	"533429.0"	"0.0"	"Week2"	"12"	"F"	"17.0"	"GRAND INDIAN CUISINE"	"1280 28TH STREET SE, GRAND RAPIDS MI 49508 US"	"-85.635154"	"42.912314"
"10"	"525341.0"	"0.0"	"Week1"	"12"	"F"	"18.0"	"FLORENTINE'S PIZZERIA & RESTOR"	"4261 KALAMAZOO AVE. S.E., GRAND RAPIDS MI 49508 US"	"-85.626743"	"42.885558"
"11"	"529086.0"	"0.0"	"Week2"	"12"	"F"	"19.0"	"SUSHI KUNI"	"2901 BRETON RD SE, GRAND RAPIDS MI 49512 US"	"-85.609239"	"42.911475"
"12"	"530609.0"	"0.0"	"Week1"	"12"	"F"	"19.0"	"BRANDS LLC"	"2021 44TH ST SE, KENTWOOD MI 49512 US"	"-85.615941"	"42.884201"
"13"	"531450.0"	"0.0"	"Week1"	"12"	"F"	"2.0"	"ATLANTIC FISH MARKET, INC."	"900 28TH ST. S.E., GRAND RAPIDS MI 49508 US"	"-85.644754"	"42.912265"
"14"	"99161.0"	"60.0"	"Week1"	"12"	"F"	"20.0"	"D&W 1586 PRODUCE FIRST AID"	"4325 BRETON ROAD SE, GR. RAPIDS MI 49512 US"	"-85.60798"	"42.885912"
"15"	"533124.0"	"0.0"	"Week3"	"12"	"F"	"20.0"	"SHANIS SALON"	"2120 44th Street SE STE 103, GRAND RAPIDS MI 49508 US"	"-85.61357"	"42.883263"
"16"	"499014.0"	"26.0"	"Week3"	"12"	"F"	"21.0"	"RX OPTICAL- KW290"	"2350 44TH ST. S.E., KENTWOOD MI 49508 US"	"-85.607726"	"42.88342"
"17"	"532360.0"	"0.0"	"Week1"	"12"	"F"	"21.0"	"TASTY GYRO & CONEY ISLAND"	"2269 44TH STREET SE, GRAND RAPIDS MI 49021 US"	"-85.609433"	"42.884469"
"18"	"532009.0"	"0.0"	"Week1"	"12"	"F"	"22.0"	"CURRY LEAF INDIAN CUISINE"	"2222 44TH ST SE, KENTWOOD MI 49508 US"	"-85.610247"	"42.883379"
"19"	"533100.0"	"0.0"	"Week2"	"12"	"F"	"22.0"	"MITHU INDIAN CUISINE"	"4309 KALAMAZOO AVE SE, GRAND RAPIDS MI 49508 US"	"-85.626446"	"42.885153"
"20"	"523798.0"	"0.0"	"Week1"	"12"	"F"	"23.0"	"DESI SPICE"	"4445 D BRETON RD SE, KENTWOOD MI 49508 US"	"-85.608223"	"42.881437"
"21"	"99097.0"	"60.0"	"Week1"	"12"	"F"	"24.0"	"JOHNNY'S MARKET #4830"	"2363 28TH ST SE, GRAND RAPIDS MI 49508 US"	"-85.608838"	"42.913024"
"22"	"533341.0"	"0.0"	"Week1"	"12"	"F"	"25.0"	"HOLLAND HOME"	"2121 RAYBROOK, GRAND RAPIDS MI 49546 US"	"-85.588843"	"42.922687"
"23"	"524081.0"	"0.0"	"Week1"	"12"	"F"	"26.0"	"EGYPT VALLEY"	"7333 KNAPP N.E., ADA MI 49301 US"	"-85.4948072"	"43.0133273"
"24"	"99061.0"	"51.0"	"Week1"	"12"	"F"	"3.0"	"FAMILY FARE 1580 MEAT"	"2900 BURLINGAME AVE SW, WYOMING MI 49509 US"	"-85.703704"	"42.911684"
"25"	"99161.0"	"48.0"	"Week1"	"12"	"F"	"4.0"	"FAMILY FARE 1580 FIRST AID"	"2900 BURLINGAME AVE SW, WYOMING MI 49509 US"	"-85.703704"	"42.911684"
"26"	"99061.0"	"49.0"	"Week1"	"12"	"F"	"5.0"	"FAMILY FARE 1580 DELI"	"2900 BURLINGAME AVE SW, WYOMING MI 49509 US"	"-85.703704"	"42.911684"
"27"	"99061.0"	"50.0"	"Week1"	"12"	"F"	"6.0"	"FAMILY FARE 1580 BAKERY"	"2900 BURLINGAME AVE SW, WYOMING MI 49509 US"	"-85.703704"	"42.911684"
"28"	"99061.0"	"52.0"	"Week1"	"12"	"F"	"7.0"	"FAMILY FARE #1580 FRONT"	"2900 BURLINGAME AVE SW, WYOMING MI 49509 US"	"-85.703704"	"42.911684"
"29"	"99061.0"	"48.0"	"Week1"	"12"	"F"	"8.0"	"FAMILY FARE 1580 PRODUCE"	"2900 BURLINGAME AVE SW, WYOMING MI 49509 US"	"-85.703704"	"42.911684"
"30"	"99146.0"	"0.0"	"Week1"	"12"	"F"	"9.0"	"HOEKSTRA TRUCK EQUIPMENT"	"260 36TH STREET, GRAND RAPIDS MI 49548 US"	"-85.6592123"	"42.8979572"
"31"	"524082.0"	"0.0"	"Week1"	"12"	"M"	"1.0"	"EGYPT VALLEY MAINTENANCE BLDG"	"7333 KNAPP NE, ADA MI 49301 US"	"-85.4948072"	"43.0133273"
"32"	"530600.0"	"0.0"	"Week1"	"12"	"M"	"10.0"	"TROPICAL SMOOTHIE CAFE"	"5088 28TH ST SE, GRAND RAPIDS MI 49058 US"	"-85.541744"	"42.912024"
"33"	"99094.0"	"21.0"	"Week1"	"12"	"M"	"11.0"	"LMCU 6003"	"5537 GLENWOOD HILLS PKWY SE, GRAND RAPIDS MI 49512 US"	"-85.5304612"	"42.9079438"
"34"	"533082.0"	"0.0"	"Week1"	"12"	"M"	"12.0"	"IMPACT FITNESS WELLNESS"	"2845 THORNHILLS AVE SE, GRAND RAPIDS MI 49546 US"	"-85.509182"	"42.911877"
"35"	"99161.0"	"196.0"	"Week1"	"12"	"M"	"13.0"	"FAMILY FARE-D&W #713 FIRST AID"	"6799 CASCADE ROAD, CASCADE MI 49546 US"	"-85.500248"	"42.915379"
"36"	"99061.0"	"196.0"	"Week1"	"12"	"M"	"14.0"	"FAMILY FARE-D&W QUICK STOP #71"	"6799 CASCADE ROAD, CASCADE MI 49546 US"	"-85.500248"	"42.915379"
"37"	"99161.0"	"27.0"	"Week1"	"12"	"M"	"15.0"	"D&W 1573 FIRST AID"	"6425 28TH ST SE, GR. RAPIDS MI 49546 US"	"-85.509571"	"42.914045"
"38"	"99035.0"	"62.0"	"Week4"	"12"	"M"	"16.0"	"INDEPENDENT BANK 518"	"6750 CASCADE RD SE, GRAND RAPIDS MI 49546 US"	"-85.50203"	"42.915597"
"39"	"99061.0"	"28.0"	"Week1"	"12"	"M"	"16.0"	"D&W 1573 FRONT"	"6425 28TH ST SE, GR. RAPIDS MI 49546 US"	"-85.509571"	"42.914045"
"40"	"99061.0"	"27.0"	"Week1"	"12"	"M"	"17.0"	"D&W 1573 MEAT"	"6425 28TH ST SE, GR. RAPIDS MI 49546 US"	"-85.509571"	"42.914045"
"41"	"599000.0"	"9.0"	"Week1"	"12"	"M"	"18.0"	"NEW BEGINNINGS REST"	"6209 28TH ST. S.E., CASCADE MI 49546 US"	"-85.514528"	"42.913631"
"42"	"803890.0"	"0.0"	"Week1"	"12"	"M"	"19.0"	"CANCER & HEMATOLOGY CENTERS"	"2959 LUCERNE DR SE SUITE 200, GRAND RAPIDS MI 49546 US"	"-85.518921"	"42.91026"
"43"	"524080.0"	"0.0"	"Week1"	"12"	"M"	"2.0"	"EGYPT VALLEY GROUNDS"	"7333 KNAPP N.E., ADA MI 49301 US"	"-85.4948072"	"43.0133273"
"44"	"530870.0"	"0.0"	"Week1"	"12"	"M"	"20.0"	"EURO BISTRO"	"6080 28 STREET SE, GRAND RAPIDS MI 49546 US"	"-85.518174"	"42.912371"
"45"	"99094.0"	"9.0"	"Week2"	"12"	"M"	"21.0"	"LMCU 78"	"5701 28TH SE, GRAND RAPIDS MI 49546 US"	"-85.527027"	"42.913565"
"46"	"99094.0"	"20.0"	"Week1"	"12"	"M"	"21.0"	"LMCU 998"	"5519 GLENWOOD HILLS PKWY SE, GRAND RAPIDS MI 49512 US"	"-85.531432"	"42.908509"
"47"	"99094.0"	"22.0"	"Week1"	"12"	"M"	"22.0"	"LMCU 999"	"5540 GLENWOOD HILLS PKWY SE, GRAND RAPIDS MI 49512 US"	"-85.5324983"	"42.9075383"
"48"	"533298.0"	"0.0"	"Week1"	"12"	"M"	"23.0"	"WMSHL"	"3003 WALKENT DR NW, GRAND RAPIDS MI 49544 US"	"-85.717522"	"43.018852"
"49"	"99045.0"	"21.0"	"Week2"	"12"	"M"	"24.0"	"CONSUMERS CREDIT UNION"	"5575 28th ST SE, GRAND RAPIDS MI 48512 US"	"-85.530269"	"42.913556"
"50"	"524081.0"	"0.0"	"Week1"	"12"	"M"	"3.0"	"EGYPT VALLEY"	"7333 KNAPP N.E., ADA MI 49301 US"	"-85.4948072"	"43.0133273"
"51"	"524079.0"	"0.0"	"Week1"	"12"	"M"	"4.0"	"EGYPT VALLEY"	"7333 KNAPP N.E., ADA MI 49301 US"	"-85.4948072"	"43.0133273"
"52"	"533322.0"	"0.0"	"Week1"	"12"	"M"	"5.0"	"HOPE NETWORK NEURO REHAB"	"1490 E. BELTLINE SE, GRAND RAPIDS MI 49506 US"	"-85.58283"	"42.936286"
"53"	"533420.0"	"0.0"	"Week1"	"12"	"M"	"6.0"	"CLARK RETIREMENT-OXFORD"	"2499 FOREST HILL AVE SE, GRAND RAPIDS MI 49546 US"	"-85.563447"	"42.917834"
"54"	"99033.0"	"228.0"	"Week1"	"12"	"M"	"7.0"	"CLARK RETIREMENT-KELLER LAKE"	"2499 FOREST HILL SE, GRAND RAPIDS MI 49546 US"	"-85.563447"	"42.917834"
"55"	"499014.0"	"47.0"	"Week3"	"12"	"M"	"7.0"	"RX OPTICAL"	"6749 CASCADE RD., GRAND RAPIDS MI 49546 US"	"-85.501095"	"42.916111"
"56"	"533420.0"	"1.0"	"Week1"	"12"	"M"	"8.0"	"CLARK RETIREMENT-WINDSOR"	"2499 FOREST HILL AVE SE, GRAND RAPIDS MI 49546 US"	"-85.563447"	"42.917834"
"57"	"99033.0"	"301.0"	"Week1"	"12"	"M"	"9.0"	"CLARK RET-KELLER LAKE UNIDINE"	"2451 FOREST HILL AVE SE, GRAND RAPIDS MI 49546 US"	"-85.561682"	"42.918217"
"58"	"533298.0"	"0.0"	"Week1"	"12"	"R"	"1.0"	"WMSHL"	"3003 WALKENT DR NW, GRAND RAPIDS MI 49544 US"	"-85.717522"	"43.018852"
"59"	"99033.0"	"49.0"	"Week2"	"12"	"R"	"10.0"	"WYOMING HIGH SCHOOL"	"1350 PRAIRIE PARKWAY, WYOMING MI 49519 US"	"-85.699177"	"42.909713"
"60"	"533296.0"	"0.0"	"Week1"	"12"	"R"	"10.0"	"MARGE'S DONUTS"	"1751 28TH SW, WYOMING MI 49519 US"	"-85.709594"	"42.91396"
"61"	"99033.0"	"51.0"	"Week1"	"12"	"R"	"11.0"	"WYOMING JUNIOR HIGH"	"2121 RENWOOD, WYOMING MI 49519 US"	"-85.718805"	"42.916882"
"62"	"99059.0"	"1.0"	"Week1"	"12"	"R"	"12.0"	"MR BURGER #5"	"2300 28TH SW, WYOMING MI 49426 US"	"-85.722925"	"42.913482"
"63"	"499014.0"	"18.0"	"Week2"	"12"	"R"	"12.0"	"RX OPTICAL"	"1717 28TH ST. S.W., WYOMING MI 49509 US"	"-85.707875"	"42.914294"
"64"	"528473.0"	"0.0"	"Week3"	"12"	"R"	"13.0"	"DEKKER BOOKBINDING"	"2941 CLYDON SW, GRAND RAPIDS MI 49519 US"	"-85.733137"	"42.911996"
"65"	"533516.0"	"0.0"	"Week1"	"12"	"R"	"13.0"	"FISH WINDOW SERVICES, INC"	"3075 28TH ST SW, GRANDVILLE MI 49418 US"	"-85.740583"	"42.9141118"
"66"	"530296.0"	"0.0"	"Week1"	"12"	"R"	"14.0"	"BIG TRUCK SERVICE & DETAIL"	"2901 CHICAGO DRIVE, GRANDVILLE MI 49418 US"	"-85.736694"	"42.9239832"
"67"	"599000.0"	"4.0"	"Week1"	"12"	"R"	"15.0"	"NEW BEGINNINGS REST."	"3749 28TH ST. S.W., GRANDVILLE MI 49418 US"	"-85.757428"	"42.914136"
"68"	"99097.0"	"61.0"	"Week1"	"12"	"R"	"16.0"	"JOHNNY'S MARKET #4850"	"3960 28TH ST SW, GRANDVILLE MI 49418 US"	"-85.762308"	"42.913357"
"69"	"27828.0"	"6.0"	"Week1"	"12"	"R"	"17.0"	"PEPPINOS PIZZA 5"	"135 CHICAGO DRIVE, JENISON MI 49428 US"	"-85.786387"	"42.904747"
"70"	"526762.0"	"0.0"	"Week2"	"12"	"R"	"17.0"	"MEL'S PARTY STORE"	"3640 CHICAGO DR SW, GRANDVILLE MI 49418 US"	"-85.754448"	"42.911785"
"71"	"99094.0"	"34.0"	"Week1"	"12"	"R"	"18.0"	"LMCU 81"	"7409 COTTONWOOD DR, JENISON MI 49428 US"	"-85.793299"	"42.903956"
"72"	"533044.0"	"0.0"	"Week3"	"12"	"R"	"18.0"	"GYROVILLE"	"3910 CHICAGO SW DR, GRANDVILLE MI 49418 US"	"-85.761105"	"42.90996"
"73"	"532739.0"	"1.0"	"Week1"	"12"	"R"	"19.0"	"BIRD DOG'S"	"672 BALDWIN STREET, JENISON MI 49428 US"	"-85.798377"	"42.906787"
"74"	"530739.0"	"0.0"	"Week1"	"12"	"R"	"2.0"	"RELIABLE SERVICE CONTRACTORS"	"5075 CLAY AVE SW, GRAND RAPIDS MI 49548 US"	"-85.679332"	"42.871927"
"75"	"531253.0"	"0.0"	"Week1"	"12"	"R"	"20.0"	"HARTMAN FAMILY CHIROPRACTIC"	"302 BALDWIN, JENISON MI 49428 US"	"-85.788837"	"42.906705"
"76"	"532385.0"	"0.0"	"Week2"	"12"	"R"	"20.0"	"HARLO CORPORATION"	"4210 FERRY STREET SW, GRANDVILLE MI 49418 US"	"-85.768902"	"42.909872"
"77"	"532137.0"	"0.0"	"Week1"	"12"	"R"	"21.0"	"TACO LOCO TAQUERIA"	"4560 CHICAGO DR SW, GRANDVILLE MI 49418 US"	"-85.776426"	"42.904966"
"78"	"531805.0"	"0.0"	"Week1"	"12"	"R"	"22.0"	"GARIBALDI RESTAURANT"	"3375 DIVISION AVE SW, GRAND RAPIDS MI 49548 US"	"-85.768286"	"42.904065"
"79"	"526770.0"	"0.0"	"Week1"	"12"	"R"	"23.0"	"DYNAMIC CHIROPRACTIC"	"4072 CHICAGO DR., GRANDVILLE MI 49418 US"	"-85.765167"	"42.90868"
"80"	"499014.0"	"27.0"	"Week2"	"12"	"R"	"24.0"	"RX OPTICAL"	"381 BALDWIN, JENISON MI 49428 US"	"-85.791106"	"42.907542"
"81"	"526770.0"	"1.0"	"Week1"	"12"	"R"	"24.0"	"DYNAMIC PROPERTIES GRANDVILLE"	"4072 CHICAGO DRIVE, GRANDVILLE MI 49418 US"	"-85.765167"	"42.90868"
"82"	"530978.0"	"0.0"	"Week1"	"12"	"R"	"25.0"	"OSGOOD BREWING"	"4051 CHICAGO DR SW, GRANDVILLE MI 49418 US"	"-85.764707"	"42.909417"
"83"	"99098.0"	"1.0"	"Week1"	"12"	"R"	"3.0"	"FREIGHTLINER PREP SHOP"	"5285 CLAY, GRAND RAPIDS MI 49548 US"	"-85.679083"	"42.868901"
"84"	"99098.0"	"0.0"	"Week1"	"12"	"R"	"4.0"	"FREIGHTLINER OF GRAN"	"5285 CLAY, GRAND RAPIDS MI 49500 US"	"-85.679083"	"42.868901"
"85"	"99098.0"	"2.0"	"Week1"	"12"	"R"	"5.0"	"FREIGHTLINER OF GR"	"5285 CLAY SW, WYOMING MI 49548 US"	"-85.679083"	"42.868901"
"86"	"528595.0"	"0.0"	"Week1"	"12"	"R"	"6.0"	"ARISTA TRUCK SYSTEMS INC"	"5125 CLAY AVE, GRAND RAPIDS MI 49548 US"	"-85.679684"	"42.870888"
"87"	"433444.0"	"0.0"	"Week1"	"12"	"R"	"7.0"	"THE STRAY"	"4253 DIVISION AVE, WYOMING MI 49548 US"	"-85.66547"	"42.8860183"
"88"	"99094.0"	"4.0"	"Week1"	"12"	"R"	"8.0"	"LMCU 35"	"3870 SOUTH DIVISION AVE, WYOMING MI 49548 US"	"-85.664511"	"42.893847"
"89"	"99033.0"	"50.0"	"Week1"	"12"	"R"	"9.0"	"WYOMING INTERMEDIATE"	"1311 33RD STREET, WYOMING MI 49519 US"	"-85.69854941"	"42.90437"
"90"	"533298.0"	"0.0"	"Week1"	"12"	"T"	"1.0"	"WMSHL"	"3003 WALKENT DR NW, GRAND RAPIDS MI 49544 US"	"-85.717522"	"43.018852"
"91"	"528927.0"	"0.0"	"Week1"	"12"	"T"	"10.0"	"DOOGE VENEERS"	"4585 AIRWEST SE, GRAND RAPIDS MI 49512 US"	"-85.5719483"	"42.880315"
"92"	"518856.0"	"0.0"	"Week1"	"12"	"T"	"11.0"	"REPUBLIC NATIONAL DISTRIBUTING"	"4495 AIRWEST DRIVE SE, KENTWOOD MI 49512 US"	"-85.5710883"	"42.8816817"
"93"	"524057.0"	"0.0"	"Week2"	"12"	"T"	"11.0"	"DAL-TILE CORP.#247"	"3480 BROADMOOR S.E., GRAND RAPIDS MI 49512 US"	"-85.577797"	"42.900738"
"94"	"521644.0"	"0.0"	"Week1"	"12"	"T"	"12.0"	"KABAFUSION MI, LLC"	"3631 44TH STREET SE, KENTWOOD MI 49512 US"	"-85.575921"	"42.884079"
"95"	"599000.0"	"8.0"	"Week1"	"12"	"T"	"13.0"	"NEW BEGINNINGS"	"4415 BROADMOOR, KENTWOOD MI 49508 US"	"-85.566104"	"42.883031"
"96"	"99095.0"	"6.0"	"Week4"	"12"	"T"	"14.0"	"SALVATION ARMY-KENTWOOD"	"4281 28TH SE, KENTWOOD MI 49512 US"	"-85.562164"	"42.913189"
"97"	"99097.0"	"38.0"	"Week1"	"12"	"T"	"14.0"	"JOHNNY'S MARKET #4045"	"2600 BELTLINE SE, GRAND RAPIDS MI 49506 US"	"-85.583235"	"42.916123"
"98"	"499014.0"	"19.0"	"Week3"	"12"	"T"	"14.0"	"RX OPTICAL"	"3083 28TH STREET SOUTH EAST, GRAND RAPIDS MI 49512 US"	"-85.591471"	"42.912975"
"99"	"99079.0"	"16.0"	"Week1"	"12"	"T"	"15.0"	"RED ROBIN #495"	"3195 28TH ST SE, KENTWOOD MI 49512 US"	"-85.588332"	"42.916266"
"100"	"530460.0"	"0.0"	"Week1"	"12"	"T"	"16.0"	"AL-BOS EURO CAFE & BAKERY"	"2930 SCHAFFER, KENTWOOD MI 49512 US"	"-85.587662"	"42.910131"
"101"	"533384.0"	"0.0"	"Week1"	"12"	"T"	"17.0"	"BROAD LEAF LOCAL BEER"	"2885 LAKE EASTBROOK BLVD, KENTWOOD MI 49512 US"	"-85.575635"	"42.909899"
"102"	"99094.0"	"47.0"	"Week1"	"12"	"T"	"18.0"	"LMCU 40"	"3810 SPARKS DR SE, GRAND RAPIDS MI 49546 US"	"-85.573562"	"42.915583"
"103"	"99048.0"	"5.0"	"Week1"	"12"	"T"	"19.0"	"OLGA'S #122 WOODLAND"	"3169 28TH ST S.E., GRAND RAPIDS MI 49512 US"	"-85.588197"	"42.917118"
"104"	"99097.0"	"62.0"	"Week1"	"12"	"T"	"2.0"	"JOHNNY'S MARKET #4860"	"3960 28TH STREET SE, KENTWOOD MI 49512 US"	"-85.569584"	"42.912139"
"105"	"99033.0"	"186.0"	"Week1"	"12"	"T"	"3.0"	"EUREST GE AVIATION 22139"	"3290 PATTERSON AVE SE, GRAND RAPIDS MI 49512 US"	"-85.545624"	"42.903661"
"106"	"529035.0"	"0.0"	"Week1"	"12"	"T"	"4.0"	"TABLETTING INC"	"4201 DANVERS CT, KENTWOOD MI 49512 US"	"-85.552649"	"42.8868828"
"107"	"532299.0"	"0.0"	"Week1"	"12"	"T"	"5.0"	"PTS SOLUTIONS"	"4782 44TH ST SE, GRAND RAPIDS MI 49512 US"	"-85.547961"	"42.882853"
"108"	"532319.0"	"0.0"	"Week1"	"12"	"T"	"6.0"	"DELTA DISTRIBUTION"	"5633 52ND ST. SE, GRAND RAPIDS MI 49512 US"	"-85.527205"	"42.870477"
"109"	"99033.0"	"214.0"	"Week1"	"12"	"T"	"7.0"	"EUREST-FRANKLIN PARTNERS"	"5300 PATTERSON, GRAND RAPDIS MI 49512 US"	"-85.544904"	"42.868085"
"110"	"522624.0"	"0.0"	"Week2"	"12"	"T"	"7.0"	"DK SECURITY"	"5160 FALCON VIEW, KENTWOOD MI 49512 US"	"-85.5496"	"42.869422"
"111"	"99097.0"	"43.0"	"Week1"	"12"	"T"	"8.0"	"JOHNNY'S MARKET #4100"	"3870 52ND ST SE, KENTWOOD MI 49512 US"	"-85.569327"	"42.868528"
"112"	"528436.0"	"0.0"	"Week3"	"12"	"T"	"8.0"	"INTEGRITY BUSINESS SOLUTIONS"	"4740 TALON CT, GRAND RAPIDS MI 49512 US"	"-85.547311"	"42.86978"
"113"	"530662.0"	"0.0"	"Week2"	"12"	"T"	"9.0"	"TABS WALL SYSTEMS"	"4515 AIRWEST DR SE, GRAND RAPIDS MI 49512 US"	"-85.571576"	"42.8814662"
"114"	"532187.0"	"0.0"	"Week1"	"12"	"T"	"9.0"	"PROSPECTORS COLD BREW COFFEE"	"5035 W GREENBROOK DR SE, KENTWOOD MI 49512 US"	"-85.5703275"	"42.8721922"
"115"	"533298.0"	"0.0"	"Week1"	"12"	"W"	"1.0"	"WMSHL"	"3003 WALKENT DR NW, GRAND RAPIDS MI 49544 US"	"-85.717522"	"43.018852"
"116"	"531728.0"	"0.0"	"Week1"	"12"	"W"	"10.0"	"MUFFLER MAN WYOMING"	"131 28TH ST SW, WYOMING MI 49548 US"	"-85.669429"	"42.91354"
"117"	"529525.0"	"0.0"	"Week1"	"12"	"W"	"11.0"	"SALVATION ARMY-KROC CENTER"	"2500 S DIVISION, GRAND RAPIDS MI 49507 US"	"-85.664415"	"42.91863"
"118"	"512330.0"	"0.0"	"Week1"	"12"	"W"	"12.0"	"ANIMAL CLINIC"	"133 28TH S.E., GRAND RAPIDS MI 49548 US"	"-85.663693"	"42.913288"
"119"	"533328.0"	"0.0"	"Week2"	"12"	"W"	"12.0"	"SAMURAI JAPANESE EXPRESS"	"401 28TH SE, GRAND RAPIDS MI 49548 US"	"-85.65658"	"42.913221"
"120"	"519763.0"	"0.0"	"Week2"	"12"	"W"	"13.0"	"JOHNSON CONTROLS"	"3312 LOUSMA DR., GRAND RAPIDS MI 49548 US"	"-85.657653"	"42.902817"
"121"	"599000.0"	"2.0"	"Week1"	"12"	"W"	"13.0"	"NEW BEGINNINGS REST."	"217 S. 28TH ST, GRAND RAPIDS MI 49508 US"	"-85.661385"	"42.913998"
"122"	"99033.0"	"245.0"	"Week2"	"12"	"W"	"14.0"	"GODWIN WEST ELEMENTARY"	"3546 CLYDE PARK SW, WYOMING MI 49509 US"	"-85.683763"	"42.899881"
"123"	"511070.0"	"0.0"	"Week3"	"12"	"W"	"14.0"	"GRAND RAPIDS CONSTRUCTION"	"550 32ND STREET SE, GRAND RAPIDS MI 49584 US"	"-85.6523617"	"42.9054943"
"124"	"531390.0"	"0.0"	"Week1"	"12"	"W"	"14.0"	"EL GANADERO MEXICAN GRILLE"	"4208 S. DIVISION, KENTWOOD MI 49548 US"	"-85.664353"	"42.88734"
"125"	"527395.0"	"0.0"	"Week2"	"12"	"W"	"15.0"	"DRUG SCREEN PLUS"	"3625 CLYDE PARK, GRAND RAPIDS MI 49509 US"	"-85.68551"	"42.897965"
"126"	"531877.0"	"0.0"	"Week1"	"12"	"W"	"15.0"	"FAT MAN'S FISH FRY"	"4161 S. DIVISION, WYOMING MI 49548 US"	"-85.664469"	"42.88769"
"127"	"99033.0"	"77.0"	"Week1"	"12"	"W"	"16.0"	"GODWIN HEIGHTS MIDDLE"	"111 36TH ST. SE., WYOMING MI 49548 US"	"-85.663721"	"42.899025"
"128"	"533345.0"	"0.0"	"Week2"	"12"	"W"	"16.0"	"PALERMO'S PIZZA"	"735 36TH STREET, WYOMING MI 49509 US"	"-85.684025"	"42.899021"
"129"	"99033.0"	"78.0"	"Week1"	"12"	"W"	"17.0"	"GODWIN HEIGHTS HIGH SCHOOL"	"50 35TH ST. SW., GRAND RAPIDS MI 49548 US"	"-85.666986"	"42.900144"
"130"	"526653.0"	"2.0"	"Week2"	"12"	"W"	"17.0"	"SOUTH GODWIN HEAD START"	"28 BELLEVUE SW, WYOMING MI 49548 US"	"-85.6636183"	"42.8881223"
"131"	"99033.0"	"211.0"	"Week1"	"12"	"W"	"18.0"	"NORTH GODWIN ELEMENTARY"	"161 34TH STREET SW, GRAND RAPIDS MI 49548 US"	"-85.66982"	"42.902875"
"132"	"533394.0"	"0.0"	"Week1"	"12"	"W"	"19.0"	"LE CREACIONES"	"3375 S. DIVISION AVE, WYOMING MI 49548 US"	"-85.667019"	"42.902635"
"133"	"524081.0"	"0.0"	"Week1"	"12"	"W"	"2.0"	"EGYPT VALLEY"	"7333 KNAPP N.E., ADA MI 49301 US"	"-85.4948072"	"43.0133273"
"134"	"532062.0"	"0.0"	"Week1"	"12"	"W"	"20.0"	"LOS COMALES LLC"	"2907 DIVISION AVE SW, GRAND RAPIDS MI 49548 US"	"-85.66629"	"42.91092"
"135"	"533132.0"	"0.0"	"Week1"	"12"	"W"	"21.0"	"PUPUSERIA LAS COMADRES"	"2747 CLYDE PARK SW, WYOMING MI 49519 US"	"-85.686027"	"42.913971"
"136"	"531798.0"	"0.0"	"Week3"	"12"	"W"	"22.0"	"RODAS CELLULAR LLC"	"2850 DIVISION AVE, GRAND RAPIDS MI 49548 US"	"-85.66502"	"42.911628"
"137"	"532591.0"	"0.0"	"Week3"	"12"	"W"	"23.0"	"PLAZA DE KAZA"	"2850 S DIVISION, GRAND RAPIDS MI 49548 US"	"-85.66502"	"42.911628"
"138"	"99161.0"	"339.0"	"Week1"	"12"	"W"	"3.0"	"SPT FAMILY FARE #107 FIRST AID"	"1148 28TH ST. SW, WYOMING MI 49509 US"	"-85.693592"	"42.912005"
"139"	"526653.0"	"1.0"	"Week2"	"12"	"W"	"3.0"	"ROGERS LANE HEAD START"	"2929 ROGERS LANE SW, WYOMING MI 49509 US"	"-85.691461"	"42.910812"
"140"	"99161.0"	"197.0"	"Week1"	"12"	"W"	"4.0"	"SPARTAN #760 FIRST"	"1600 28TH STREET SW, WYOMING MI 49509 US"	"-85.706041"	"42.912647"
"141"	"99061.0"	"197.0"	"Week1"	"12"	"W"	"5.0"	"SPARTAN QUICK STOP #760"	"1600 28TH STREET SW, WYOMING MI 49509 US"	"-85.706041"	"42.912647"
"142"	"528998.0"	"0.0"	"Week1"	"12"	"W"	"6.0"	"LINDO MEXICO"	"1742 28th STREET SW, WYOMING MI 49509 US"	"-85.709234"	"42.913095"
"143"	"524609.0"	"0.0"	"Week1"	"12"	"W"	"7.0"	"FRANKIE V'S RESTAURANT"	"1420 28TH ST SW, WYOMING MI 49509 US"	"-85.700847"	"42.913032"
"144"	"532325.0"	"0.0"	"Week1"	"12"	"W"	"8.0"	"MEINEKE CAR CARE"	"609 29TH STREET SW, WYOMING MI 49509 US"	"-85.681084"	"42.914086"
"145"	"527989.0"	"0.0"	"Week2"	"12"	"W"	"9.0"	"H.A. CAMPBELL SUPPLY CO"	"2671 DIVISION AVE, GRAND RAPIDS MI 49507 US"	"-85.6670072"	"42.9152732"
"146"	"532510.0"	"0.0"	"Week1"	"12"	"W"	"9.0"	"LA CASA DEL POLLO LOCO"	"244 28TH STREET SW, GRAND RAPIDS MI 49548 US"	"-85.672238"	"42.912763"
