""	"Acct #"	"Cust #"	"New Delivery Day"	"Allaint Sequence"	"Customer Name"	"Address"	"X_Longitude"	"Y_Latitude"
"1145"	"33652"	"0"	"F"	""	"BIONDE'S SUPER SUB & PIZZA"	"7544 GREENFIELD ROAD, DEARBORN MI 48126 US"	"-83.19598"	"42.346968"
"1146"	"32846"	"0"	"F"	""	"DEARBORN SWEETS"	"6456 GREENFIELD ROAD, DEARBORN MI 48126 US"	"-83.195565"	"42.337562"
"1147"	"30230"	"0"	"F"	""	"GREENFIELD SUNOCO"	"5074 GREENFIELD, DEARBORN MI 48120 US"	"-83.195041"	"42.324284"
"1148"	"25225"	"0"	"F"	""	"DONUTVILLE U.S.A.             "	"14829 FORD ROAD, DEARBORN MI 48126 US"	"-83.188736"	"42.328945"
"1149"	"28755"	"0"	"F"	""	"YASMEEN BAKERY                "	"6530 CHASE RD, DEARBORN MI 48126 US"	"-83.185647"	"42.338914"
"1150"	"29501"	"0"	"F"	""	"GIFT WAREHOUSE                "	"14411 W WARREN, DEARBORN MI 48126 US"	"-83.184432"	"42.343631"
"1151"	"27460"	"0"	"F"	""	"BLUE SKY INVESTMENTS GROUP    "	"13201 WARREN STE 1, DEARBORN MI 48126 US"	"-83.173434"	"42.343887"
"1152"	"31141"	"0"	"F"	""	"AZHAAR BAKERY"	"7737 SCHAEFER, DEARBORN MI 48126 US"	"-83.1774492"	"42.3490855"
"1153"	"30459"	"0"	"F"	""	"SAJOUNA CAFE "	"13112 FORD RD, DEARBORN MI 48126 US"	"-83.171804"	"42.330015"
"1154"	"26502"	"0"	"F"	""	"AL-GHADEER MEAT MARKET        "	"6550 SCHAEFER, DEARBORN MI 48126 US"	"-83.176146"	"42.339313"
"1155"	"32212"	"0"	"F"	""	"BLOSSOMS FRUIT ARRANGEMENTS"	"6914 Schaefer Rd, DEARBORN MI 48126 US"	"-83.176384"	"42.341488"
"1156"	"28720"	"0"	"F"	""	"LE ROI"	"7038 SCHAEFER ROAD, DEARBORN MI 48126 US"	"-83.176406"	"42.342878"
"1157"	"32637"	"0"	"F"	""	"DEARBORN HALAL MEAT"	"13750 W. WARREN AVENUE, DEARBORN MI 48126 US"	"-83.179071"	"42.344245"
"1158"	"28943"	"0"	"F"	""	"NEW YASMEEN BAKERY            "	"13900 W WARREN, DEARBORN MI 48126 US"	"-83.180819"	"42.344215"
"1159"	"32482"	"1"	"F"	""	"AL TAYEB DEARBORN"	"15010 W. WARREN AVENUE, DEARBORN MI 48126 US"	"-83.191284"	"42.343964"
"1160"	"24330"	"0"	"F"	""	"SHATILA BAKERY                "	"14300 W WARREN, DEARBORN MI 48126 US"	"-83.183207"	"42.344156"
"1161"	"29000"	"0"	"F"	""	"PAPAYA FRUIT MKT-MEAT DEPT    "	"14615 W WARREN, DEARBORN MI 48126 US"	"-83.187142"	"42.343199"
"1162"	"20857"	"0"	"F"	""	"AMANA MEAT MARKET             "	"15242 WARREN, DEARBORN MI 48126 US"	"-83.193903"	"42.343928"
"1163"	"31240"	"0"	"F"	""	"PAPAYA FRUIT MARKET"	"16322 W WARREN, DETROIT MI 48228 US"	"-83.205181"	"42.343785"
"1164"	"8053"	"0"	"F"	""	"FAIRLINE FOOD-MEAT            "	"16520 WEST WARREN, DETROIT MI 48228 US"	"-83.207706"	"42.343768"
"1165"	"99062"	"166"	"M"	""	"GLORY SUPERMARKET #555"	"14100 WOODWARD AVENUE, HIGHLAND PARK MI 48203 US"	"-83.096682"	"42.408336"
"1166"	"30429"	"3"	"M"	""	"DETROIT JOB CORP"	"11801 WOODROW WILSON ST, DETROIT MI 48206 US"	"-83.1054077"	"42.3877057"
"1167"	"99161"	"166"	"M"	""	"GLORY SUPERMKT #555 F.A. "	"14100 WOODWARD AVENUE, HIGHLAND PARK MI 48203 US"	"-83.096682"	"42.408336"
"1168"	"32924"	"0"	"M"	""	"SEMCA"	"144 E MANCHESTER STREET, HIGHLAND PARK MI 48203 US"	"-83.092669"	"42.408466"
"1169"	"31407"	"0"	"M"	""	"LA CONEY ISLAND"	"1700 E MCNICHOLS RD., DETROIT MI 48203 US"	"-83.085734"	"42.417643"
"1170"	"32682"	"0"	"M"	""	"FABIANO BROTHERS INC."	"1600 MODERN STREET, DETROIT MI 48203 US"	"-83.08343"	"42.411694"
"1171"	"25390"	"0"	"M"	""	"PLEASANT GROVE BAPTIST        "	"13651 DEQUINDRE ST, DETROIT MI 48212 US"	"-83.080146"	"42.412586"
"1172"	"26442"	"1"	"M"	""	"7 MILE DEQUINDRE MINI MART"	"1901 E. 7 MILE ROAD, DETROIT MI 48234 US"	"-83.082547"	"42.433153"
"1173"	"26939"	"0"	"M"	""	"NEVADA CONEY ISLAND           "	"18000 RYAN ROAD, DETROIT MI 48234 US"	"-83.062492"	"42.426024"
"1174"	"23671"	"0"	"M"	""	"SECOND EBENEZER CHURCH        "	"14601 Dequindre Rd, DETROIT MI 48212 US"	"-83.083971"	"42.41655"
"1175"	"32500"	"0"	"M"	""	"REMAS RESTAURANT"	"11444 JOSEPH CAMPAU, HAMTRAMCK MI 48212 US"	"-83.060567"	"42.401441"
"1176"	"28798"	"0"	"M"	""	"POLONIA                       "	"2934 YEMANS ST, HAMTRAMCK MI 48212 US"	"-83.057695"	"42.397782"
"1177"	"99051"	"18"	"M"	""	"JET'S PIZZA MI-020"	"10035 JOSEPH CAMPAU ST, HAMTRAMICK MI 48212 US"	"-83.059073"	"42.398199"
"1178"	"31996"	"0"	"M"	""	"SRODEK'S QUALITY SAUSAGE"	"9601 JOSEPH CAMPAU, HAMTRAMCK MI 48212 US"	"-83.057528"	"42.395856"
"1179"	"29624"	"0"	"M"	""	"MOTOR CITY SPORTS BAR"	"9122 JOSEPH CAMPAU ST., HAMTRAMCK MI 48212 US"	"-83.054795"	"42.392681"
"1180"	"29955"	"0"	"M"	""	"BUTTER NUT BAKERY"	"24906 VAN DYKE AVE, CENTERLINE MI 48015 US"	"-83.026802"	"42.47684"
"1181"	"32575"	"0"	"M"	""	"FANTASTIC SUBS"	"9335 CONANT, HAMTRAMCK MI 48212 US"	"-83.049098"	"42.396726"
"1182"	"24876"	"0"	"M"	""	"MORNING STAR RESTAURANT       "	"12000 TEN MILE RD, WARREN MI 48089 US"	"-83.001887"	"42.477586"
"1183"	"27600"	"0"	"M"	""	"BOZEK MARKET                  "	"3317 CANNIFF ST., HAMTRAMCK MI 48212 US"	"-83.055994"	"42.40149"
"1184"	"33641"	"0"	"M"	""	"FAMILY DONUT SHOP"	"11300 CONANT ST., HAMTRAMCK MI 48212 US"	"-83.052568"	"42.402814"
"1185"	"32959"	"0"	"M"	""	"MODHUBON SWEETS"	"3611 CARPENTER ST, DETROIT MI 48212 US"	"-83.058072"	"42.409073"
"1186"	"24299"	"0"	"M"	""	"HAM PALACE                    "	"4700 DAVISON ST E, HAMTRAMCK MI 48212 US"	"-83.054811"	"42.417752"
"1187"	"32697"	"0"	"M"	""	"VANDYKE AUTOMOTIVE"	"13832 VAN DYKE, DETROIT MI 48234 US"	"-83.023252"	"42.419151"
"1188"	"33466"	"0"	"M"	""	"DETROIT GRILL & SMOOTHIE BAR"	"20216 VAN DYKE AVENUE, DETROIT MI 48234 US"	"-83.024256"	"42.445385"
"1189"	"99062"	"116"	"M"	""	"7 MILE FOODS #4636"	"8139 E 7 MILE, DETROIT MI 48234 US"	"-83.021544"	"42.434228"
"1190"	"99161"	"116"	"M"	""	"7 MILE FOODS 4636 FIRST AID"	"8139 E 7 MILE, DETROIT MI 48234 US"	"-83.021544"	"42.434228"
"1191"	"29972"	"0"	"M"	""	"MOTOR CITY SPORTS BAR"	"21231 MOUND RD., WARREN MI 48091 US"	"-83.044893"	"42.45223"
"1192"	"33086"	"0"	"M"	""	"ADVANCED TREATMENT CENTER"	"4777 E. OUTER DRIVE, DETROIT MI 48234 US"	"-83.019579"	"42.442263"
"1193"	"32279"	"0"	"M"	""	"LITTLE JOE'S CONEY ISLAND"	"13564 E. NINE MILE ROAD, WARREN MI 48089 US"	"-82.986614"	"42.463567"
"1194"	"99112"	"2"	"M"	""	"INTIMATE IDEAS-HAZEL PARK"	"20731 DEQUINDRE, HAZEL PARK MI 48030 US"	"-83.08377"	"42.447683"
"1195"	"33695"	"0"	"M"	""	"GROESBECK AUTO SERVICE"	"22755 GROESBECK HWY, WARREN MI 48086 US"	"-82.9925575"	"42.463401"
"1196"	"30577"	"0"	"M"	""	"DAN'S DINER"	"24920 HOOVER RD, WARREN MI 48089 US"	"-83.005512"	"42.47715"
"1197"	"99159"	"1"	"M"	""	"KJT MARATHON"	"3951 E 10 MILE ROAD, WARREN MI 48091 US"	"-83.065887"	"42.477029"
"1198"	"33292"	"0"	"M"	""	"ROLEX TOWING"	"7207 E. 8 MILE ROAD, WARREN MI 48091 US"	"-83.029356"	"42.44865"
"1199"	"33242"	"0"	"M"	""	"MOTOWN CONEY ISLAND"	"1936 8 MILE ROAD, DETROIT MI 48234 US"	"-83.082248"	"42.446149"
"1200"	"31782"	"0"	"M"	""	"LA CONEY ISLAND"	"25044 DEQUINDRE, WARREN MI 48091 US"	"-83.084203"	"42.476929"
"1201"	"33104"	"2"	"M"	""	"ANITA'S KITCHEN FERNDALE"	"22651 WOODWARD AVENUE, FERNDALE MI 48220 US"	"-83.134435"	"42.45956"
"1202"	"27425"	"0"	"M"	""	"DANNYS IRISH PUB              "	"22824 WOODWARD, FERNDALE MI 48220 US"	"-83.134286"	"42.460956"
"1203"	"31283"	"0"	"M"	""	"RED HOOK"	"220 W 9 MILE RD, FERNDALE MI 48220 US"	"-83.13661"	"42.460741"
"1204"	"32910"	"0"	"R"	""	"CLUB CELEBRITY"	"14421 PLYMOUTH ROAD, DETROIT MI 48227 US"	"-83.185898"	"42.372679"
"1205"	"50513"	"0"	"R"	""	"THIRD NEW HOPE BAPTIST        "	"12850 PLYMOUTH RD, DETROIT MI 48227 US"	"-83.170203"	"42.373513"
"1206"	"28950"	"0"	"R"	""	"SALAM FOOD CENTER             "	"12922 W WARREN AVE, DEARBORN MI 48126 US"	"-83.17024"	"42.3444"
"1207"	"31862"	"0"	"R"	""	"AL-BASHA"	"10626 W. WARREN AVE, DEARBORN MI 48126 US"	"-83.165367"	"42.344567"
"1208"	"32418"	"0"	"R"	""	"THE PRINCE'S BAKERY"	"10622 W. WARREN AVENUE, DEARBORN MI 48126 US"	"-83.165198"	"42.344539"
"1209"	"31135"	"0"	"R"	""	"MANDARIN SUPER MART"	"10394 W WARREN, DEARBORN MI 48126 US"	"-83.162276"	"42.3447184"
"1210"	"32701"	"4"	"R"	""	"DEARBORN-HOUSING TT"	"7000 FREDA ST, DEARBORN MI 48216 US"	"-83.159154"	"42.343092"
"1211"	"32563"	"0"	"R"	""	"UNITED 2 LIQUOR"	"7551 WYOMING, DEARBORN MI 48126 US"	"-83.157777"	"42.347935"
"1212"	"30606"	"0"	"R"	""	"MIKE'S AUTO TECH"	"10001 TIREMAN, DEARBORN MI 48126 US"	"-83.157683"	"42.35141"
"1213"	"32615"	"0"	"R"	""	"GRAND VALUE PHARMACY"	"10920 GRAND RIVER AVENUE, DETROIT MI 48204 US"	"-83.151127"	"42.373904"
"1214"	"31785"	"0"	"R"	""	"ROYAL GRILL"	"9850 LIVERNOIS, DETROIT MI 48238 US"	"-83.138443"	"42.369822"
"1215"	"32097"	"0"	"R"	""	"APOLLO CONEY ISLAND"	"7635 GRAND RIVER, DETROIT MI 48204 US"	"-83.114348"	"42.358393"
"1216"	"99033"	"284"	"R"	""	"AOD-SHMS #57203"	"2701 W. CHICAGO BLVD, DETROIT MI 48206 US"	"-83.1114842"	"42.3750695"
"1217"	"30429"	"1"	"R"	""	"DETROIT JOB CORP WELLNESS"	"11801 WOODROW WILSON ST, DETROIT MI 48206 US"	"-83.1054077"	"42.3877057"
"1218"	"30429"	"0"	"R"	""	"DETROIT JOB CORP RESIDENTIAL"	"11801 WOODROW WILSON ST, DETROIT MI 48206 US"	"-83.1054077"	"42.3877057"
"1219"	"32199"	"0"	"R"	""	"CLARK GAS STATION"	"13330 DEXTER AVENUE, DETROIT MI 48238 US"	"-83.130326"	"42.389676"
"1220"	"30429"	"2"	"R"	""	"DETROIT JOB CORP-KITCHEN"	"11801 WOODROW WILSON ST, DETROIT MI 48206 US"	"-83.1054077"	"42.3877057"
"1221"	"31779"	"0"	"R"	""	"NICKY D'S CONEY ISLAND"	"3357 W. DAVISON STREET, DETROIT MI 48238 US"	"-83.130129"	"42.389758"
"1222"	"30613"	"0"	"R"	""	"UPTOWN BAR-B-Q"	"15700 LIVERNOIS, DETROIT MI 48238 US"	"-83.140027"	"42.406663"
"1223"	"31742"	"0"	"R"	""	"MARK'S A-EAGLES 4 CONEY ISLAND"	"12701 PURITAN, DETROIT MI 48227 US"	"-83.170135"	"42.409257"
"1224"	"33070"	"0"	"R"	""	"SLOPPY CHOPS"	"13226 W MCNICHOLS, DETROIT MI 48235 US"	"-83.176099"	"42.416855"
"1225"	"25784"	"0"	"R"	""	"SUPER CONEY ISLAND            "	"14508 WYOMING, DETROIT MI 48238 US"	"-83.158912"	"42.395567"
"1226"	"32220"	"0"	"R"	""	"BIG STAR FISH"	"15540 GRAND RIVER, DETROIT MI 48227 US"	"-83.199097"	"42.394216"
"1227"	"31604"	"0"	"R"	""	"UNIVERSAL CONEY"	"15951 GRAND RIVER, DETROIT MI 48227 US"	"-83.203389"	"42.394423"
"1228"	"32807"	"0"	"T"	""	"MAJESTIC MARKET"	"25877 LAHSER ROAD, SOUTHFIELD MI 48034 US"	"-83.26154"	"42.478466"
"1229"	"33109"	"0"	"T"	""	"DREAM SALON STUDIOS"	"21701 W. 11 MILE ROAD, SOUTHFIELD MI 48076 US"	"-83.258598"	"42.486646"
"1230"	"50512"	"0"	"T"	""	"SOCIETY OF MANUFACTURING      "	"1000 TOWN CENTER, SOUTHFIELD MI 48033 US"	"-83.245155"	"42.477801"
"1231"	"29195"	"0"	"T"	""	"CITY OF SOUTHFIELD            "	"26000 EVERGREEN, SOUTHFIELD MI 48076 US"	"-83.238137"	"42.481131"
"1232"	"28071"	"4"	"T"	""	"STARTER'S SOUTHFIELD"	"25242 EVERGREEN RD, SOUTHFIELD MI 48075 US"	"-83.240021"	"42.475121"
"1233"	"31704"	"0"	"T"	""	"BERKLEY COUNTRY OVEN"	"4075 W. 12 MILE RD, BERKLEY MI 48072 US"	"-83.201531"	"42.502588"
"1234"	"29705"	"0"	"T"	""	"BERNSTEIN & BERNSTEIN"	"18831 W 12 MILE RD, LATHRUP VILLAGE MI 48078 US"	"-83.2299853"	"42.5020055"
"1235"	"24355"	"0"	"T"	""	"BERKLEY CONEY ISLAND          "	"4162 W 12 MILE, BERKLEY MI 48072 US"	"-83.202639"	"42.503058"
"1236"	"28657"	"0"	"T"	""	"CITY OF LATHRUP VILLAGE       "	"27400 SOUTHFIELD RD, SOUTHFIELD MI 48076 US"	"-83.221537"	"42.491452"
"1237"	"99048"	"10"	"T"	""	"OLGA'S #137 LATHRUP"	"17651 12 MILE ROAD, LATHRUP VILLAGE MI 48076 US"	"-83.221965"	"42.501971"
"1238"	"32879"	"1"	"T"	""	"MR. KABOB XPRESS-KITCHEN"	"30870 SOUTHFIELD ROAD, SOUTHFIELD MI 48076 US"	"-83.2223092"	"42.5156951"
"1239"	"19351"	"0"	"T"	""	"SOUTHFIELD FUNERAL HOME       "	"18338 W. 12 MILE, SOUTHFIELD MI 48076 US"	"-83.225483"	"42.502658"
"1240"	"99062"	"42"	"T"	""	"MARKET FRESH #972 "	"31201 SOUTHFIELD ROAD, BEVERLY HILLS MI 48025 US"	"-83.224116"	"42.5182598"
"1241"	"99161"	"42"	"T"	""	"MARKET FRESH #972 FIRST AID"	"31201 SOUTHFIELD ROAD, BEVERLY HILLS MI 48025 US"	"-83.224116"	"42.5182598"
"1242"	"24217"	"0"	"T"	""	"BEVERLY HILLS BP              "	"31015 SOUTHFIELD RD, BEVERLY HILLS MI 48025 US"	"-83.223657"	"42.517403"
"1243"	"99062"	"40"	"T"	""	"MARKET SQUARE #971"	"1964 SOUTHFIELD ROAD, BIRMINGHAM MI 48009 US"	"-83.224551"	"42.531784"
"1244"	"99161"	"40"	"T"	""	"MARKET SQUARE #971 FIRST AID"	"1964 SOUTHFIELD ROAD, BIRMINGHAM MI 48009 US"	"-83.224551"	"42.531784"
"1245"	"30056"	"0"	"T"	""	"SEAHOLM ATHLETIC DEPT"	"2436 LINCOLN, BIRMINGHAM MI 48009 US"	"-83.244503"	"42.537842"
"1246"	"99179"	"0"	"T"	""	"ROAD COMMISSION OAKLAND COUNTY"	"31001 LAHSER ROAD, BEVERLY HILLS MI 48025 US"	"-83.263016"	"42.516606"
"1247"	"33308"	"0"	"T"	""	"ASCEND IMAGING "	"29201 TELEGRAPH ROAD L1, SOUTHFIELD MI 48034 US"	"-83.286685"	"42.50368"
"1248"	"28234"	"0"	"T"	""	"SEVEN BAR & GRILL             "	"24528 W 12 MILE ROAD, SOUTHFIELD MI 48034 US"	"-83.286168"	"42.50157"
"1249"	"33102"	"0"	"T"	""	"MR. KABOB XPRESS"	"24532 W. 12 MILE ROAD, SOUTHFIELD MI 48034 US"	"-83.286334"	"42.501527"
"1250"	"99033"	"308"	"T"	""	"BASF-SOUTHFIELD"	"26701 TELEGRAPH RD, SOUTHFIELD MI 48033 US"	"-83.286291"	"42.485659"
"1251"	"33529"	"0"	"W"	""	"BOB'S PIZZA PALACE"	"20151 W. 7 MILE ROAD, DETROIT MI 48219 US"	"-83.2405602559565"	"42.4294925027377"
"1252"	"33069"	"0"	"W"	""	"GRANDY'S CONEY ISLAND"	"19833 W 7 MILE ROAD, DETROIT MI 48219 US"	"-83.238413"	"42.429316"
"1253"	"29160"	"0"	"W"	""	"ACE OF SPADES"	"19245 M-102, DETROIT MI 48219 US"	"-83.233087"	"42.443655"
"1254"	"33626"	"0"	"W"	""	"ROSELAND BAR & GRILL"	"18401 W. 8 MILE ROAD, DETROIT MI 48219 US"	"-83.223837"	"42.44386"
"1255"	"31573"	"0"	"W"	""	"EMPOWERMENT CHURCH SILVER GAR"	"24350 SOUTHFIELD ROAD, SOUTHFIELD MI 48075 US"	"-83.21927"	"42.468463"
"1256"	"27748"	"0"	"W"	""	"LATHRUP PRIMARY CARE"	"26411 SOUTHFIELD RD, LATHRUP VILLAGE MI 48076 US"	"-83.2223325"	"42.4840363"
"1257"	"27685"	"0"	"W"	""	"CAFE KABOB                    "	"25148 EVERGREEN, SOUTHFIELD MI 48075 US"	"-83.240051"	"42.474144"
"1258"	"31512"	"0"	"W"	""	"MDOT"	"18101 W. 9 MILE RD, SOUTHFIELD MI 48075 US"	"-83.222131"	"42.4576922"
"1259"	"99033"	"106"	"W"	""	"ST JOHN PROVIDENCE #25927"	"16001 W. NINE MILE ROAD, SOUTHFIELD MI 48075 US"	"-83.205259"	"42.457983"
"1260"	"33445"	"0"	"W"	""	"NU WAVE FISH & CHICKEN"	"15607 W. 9 MILE RD, SOUTHFIELD MI 48075 US"	"-83.202118"	"42.458335"
"1261"	"24212"	"0"	"W"	""	"STREET CORNER MUSIC           "	"26020 GREENFIELD RD, OAK PARK MI 48237 US"	"-83.201092"	"42.481959"
"1262"	"33270"	"4"	"W"	""	"NOORJAHAN-BERKLEY"	"2033 COOLIDGE HWY, BERKLEY MI 48072 US"	"-83.183777"	"42.491314"
"1263"	"25727"	"0"	"W"	""	"ONEILL,GREENBURGER,WU & DUNN  "	"26657 WOODWARD, HUNTINGTON WOODS MI 48070 US"	"-83.156951"	"42.486817"
"1264"	"30922"	"0"	"W"	""	"PAIRS FOOD STORE"	"9000 W 9 MILE RD, OAK PARK MI 48237 US"	"-83.161942"	"42.460596"
"1265"	"27616"	"0"	"W"	""	"HILTON RD CAFE                "	"3150 HILTON, FERNDALE MI 48220 US"	"-83.123322"	"42.472718"
"1266"	"27441"	"0"	"W"	""	"WESTERN MARKET                "	"447 W NINE MILE, FERNDALE MI 48220 US"	"-83.140903"	"42.460138"
"1267"	"99128"	"2"	"W"	""	"THE CUPCAKE STATION FERNDALE"	"301 W. NINE MILE ROAD, FERNDALE MI 48220 US"	"-83.138161"	"42.460325"
"1268"	"99033"	"302"	"W"	""	"CHARTWELLS UNIVERSITY H.S."	"2521 BERMUDA ST, FERNDALE MI 48220 US"	"-83.134847"	"42.467477"
"1269"	"32269"	"0"	"W"	""	"HOOK FISH & CHICKEN"	"10600 W. 7 MILE ROAD, DETROIT MI 48221 US"	"-83.167971"	"42.431601"
"1270"	"32884"	"0"	"W"	""	"DRIFTER COFFEE"	"770 WOODWARD HEIGHTS, FERNDALE MI 48220 US"	"-83.128686"	"42.468388"
"1271"	"33499"	"4"	"W"	""	"M 05 FUELS LLC-SHELL"	"3351 HILTON, FERNDALE MI 48220 US"	"-83.124045"	"42.475185"
"1272"	"30025"	"0"	"W"	""	"THE BLUE NILE"	"545 W. NINE MILE RD., FERNDALE MI 48220 US"	"-83.141951"	"42.46017"
"1273"	"99033"	"115"	"W"	""	"FERNDALE PUBLIC SCHOOLS #8840"	"881 PINECREST, FERNDALE MI 48220 US"	"-83.148023"	"42.452947"
"1274"	"27497"	"0"	"W"	""	"NU WAVE FISH & CHICKEN        "	"14541 McNICHOLS, DETROIT MI 48235 US"	"-83.189287"	"42.416166"
"1275"	"24680"	"0"	"W"	""	"HOT TAMALES                   "	"13109 W. 8 MILE, DETROIT MI 48235 US"	"-83.175779"	"42.445043"
"1276"	"32406"	"0"	"W"	""	"BROOKLYN FISH & CHICKEN"	"18354 FENKELL STREET, DETROIT MI 48223 US"	"-83.2214707"	"42.4011618"
"1277"	"31871"	"0"	"W"	""	"THE ORIGINAL T&J CONEY ISLAND"	"13600 W. 7 MILE ROAD, DETROIT MI 48235 US"	"-83.180921"	"42.431342"
"1278"	"22859"	"1"	"W"	""	"DMC MEDICAL GROUP"	"19460 GRAND RIVER, DETROIT MI 48223 US"	"-83.233437"	"42.40711"
"1279"	"33306"	"0"	"W"	""	"DAVIS BROTHERS"	"14801 W. 7 MILE ROAD, DETROIT MI 48235 US"	"-83.192839"	"42.430374"
"1280"	"29505"	"0"	"W"	""	"LON'S 2 CONEY ISLAND         "	"10741 W MCNICHOLS, DETROIT MI 48721 US"	"-83.168836"	"42.416447"
