cu_id	Account	Customer	New Delivery Day	Alliant Sequence	Customer Name	Address	X_Longitude	Y_Latitude	Route
10363	31343	0	M	160	GREAT LAKES CULINARY CENTER	"24101 W 9 MILE ROAOD, SOUTHFIELD MI 48033 US"	-83.279979	42.456863	77
10428	31389	0	M	210	NU WAVE FISH & CHICKEN	"21729 W. EIGHT MILE RD., DETROIT MI 48219 US"	-83.258167	42.442711	77
10445	31389	1	M	230	NU WAVE FISH & CHICKEN	"19125 TELEGRAPH RD., DETROIT MI 48219 US"	-83.278486	42.429607	77
10612	31524	0	T	80	P.A.D.	"2331 MONROE STREET, DEARBORN MI 48124 US"	-83.247036	42.295824	77
10703	31596	0	R	90	JONNA'S MARKET	"8631 N. NEWBURG RD., WESTLAND MI 48185 US"	-83.410868	42.351374	77
10851	31661	0	R	220	CENTER MASS	"33825 PLYMOUTH ROAD, LIVONIA MI 48150 US"	-83.3763	42.367623	77
1094	27183	0	R	70	LAKE POINTE YACHT CLUB        	"37604 ANN ARBOR RD, LIVONIA MI 48150 US"	-83.41332	42.364084	77
10997	99111	3	W	50	BEAUMONT HOSPITAL - WAYNE	"33155 ANNAPOLIS, WAYNE MI 48184 US"	-83.36493	42.272947	77
11006	99033	108	W	20	WALTER REUTHER PSYCH 16167	"30901 PALMER, WESTLAND MI 48186 US"	-83.345623	42.294138	77
11073	99067	4	F	290	FARMINGTON HILLS-ICE ARENA	"35500 EIGHT MILE RAD, FARMINGTON HILLS MI 48335 US"	-83.395802	42.441458	77
11204	31839	0	M	30	ENVIRONMENTAL GLASS INC.	"12675 MARLIN DRIVE, REDFORD MI 48239 US"	-83.302037	42.378896	77
11241	31862	1	W	180	AL-BASHA SUBS	"26517 FORD ROAD, DEARBORN HEIGHTS MI 48127 US"	-83.300777	42.325809	77
1125	27357	0	T	90	MASON MANAGEMENT & CONSULTING	"1213 MASON STREET, DEARBORN MI 48124 US"	-83.24458	42.303673	77
11407	31980	0	R	50	THOMAS'S FAMILY DINER	"33971 PLYMOUTH ROAD, LIVONIA MI 48150 US"	-83.379227	42.367712	77
11518	32065	0	W	140	BEIROCK WRAPS	"5926 MIDDLEBELT ROAD, GARDEN CITY MI 48135 US"	-83.330452	42.328635	77
11564	32096	0	F	90	SHELL STATION	"31401 8 MILE ROAD, LIVONIA MI 48152 US"	-83.356322	42.440665	77
11628	99033	153	M	120	BEAUMONT COMMONS 38814	"21450 ARCHWOOD CIRCLE, FARMINGTON HILLS MI 48336 U"	-83.348826	42.448252	77
1180	99051	21	T	200	JET'S PIZZA MI-028	"3945 S TELEGRAPH, DEARBORN HGTS MI 48125 US"	-83.270079	42.281085	77
1193	27582	0	W	1	GARDEN CITY FAMILY PHYSICIANS 	"30900 FORD ROAD, GARDEN CITY MI 48135 US"	-83.34594	42.325516	77
11973	32298	0	R	170	EL MARIACHI WESTLAND	"35851 FORD ROAD, WESTLAND MI 48185 US"	-83.394819	42.323967	77
12093	32368	0	F	120	SORELLA'S	"31236 5 MILE ROAD, LIVONIA MI 48154 US"	-83.352972	42.39888	77
12095	32370	0	T	70	KAREN CHAPEL MD	"2814 MONROE STREET, DEARBORN MI 48124 US"	-83.250687	42.292212	77
12105	32378	0	F	30	TRILOGIQ USA	"31805 GLENDALE STREET, LIVONIA MI 48150 US"	-83.357297	42.376264	77
12223	32437	0	F	310	SAPPORO HIBACHI STEAKHOUSE	"32030 PLYMOUTH, LIVONIA MI 48150 US"	-83.359244	42.36892	77
12278	32469	0	W	100	BABA AUTO REPAIR	"1251 S. WAYNE ROAD, WESTLAND MI 48186 US"	-83.38781	42.299861	77
12283	32472	0	F	110	STEVE'S FAMILY DINING	"15800 MIDDLE BELT ROAD, LIVONIA MI 48154 US"	-83.334096	42.402906	77
12306	32482	0	W	160	ALTAYEB ENTERPRISES	"873 INKSTER ROAD, GARDEN CITY MI 48135 US"	-83.311505	42.316844	77
12345	32501	0	W	220	AL-MALEK BANQUET	"28937 WARREN ROAD, GARDEN CITY MI 48135 US"	-83.327543	42.339747	77
12511	73335	7	F	260	COMMUNITY FINANCIAL-LIVONIA	"34000 WEST SEVEN MILE RD, LIVONIA MI 48152 US"	-83.380233	42.42648	77
12536F	32607	0	F	20	MOTOWN CPL	"31847 GLENDALE, LIVONIA MI 48150 US"	-83.358168	42.376221	77
12536T	32607	0	T	20	MOTOWN CPL	"31847 GLENDALE, LIVONIA MI 48150 US"	-83.358168	42.376221	77
12634	33173	0	W	120	VILLAGE OF WESTLAND 40235	"32001 CHERRY HILL ROAD, WESTLAND MI 48186 US"	-83.3544007	42.3095082	77
12666	32701	2	T	100	DEARBORN-HOUSING HMW	"22077 BEECH, DEARBORN MI 48216 US"	-83.243581	42.301887	77
12715	32721	0	M	10	MARKO'S COZY DINER	"27140 PLYMOUTH ROAD, REDFORD MI 48239 US"	-83.310936	42.370394	77
12955	32833	0	T	110	L.A. BISTRO	"21928 MICHIGAN AVENUE, DEARBORN MI 48124 US"	-83.243377	42.306657	77
12975	32843	0	W	150	BIG BOY	"28340 FORD ROAD, GARDEN CITY MI 48135 US"	-83.320909	42.326252	77
1312	28071	0	T	280	STARTER'S BAR & GRILL         	"18440 PLYMOUTH RD, DETROIT MI 48228 US"	-83.221167	42.372452	77
1322	99051	55	T	250	JET'S PIZZA MI-107 (RED)	"24335 PLYMOUTH RD, REDFORD MI 48239 US"	-83.278583	42.370932	77
13344	32914	0	M	110	DMC OB/GYN	"20276 MIDDLEBELT ROAD SUITE #2, LIVONIA MI 48152 U"	-83.33439	42.437351	77
13768	99104	15	T	60	PERFECTION DIST-DEARBORN	"24734 VAN BORN ROAD, DEARBORN MI 48125 US"	-83.278533	42.269162	77
138	18325	0	W	130	MIDWEST CARDIOLOGY ASSOCIATES 	"30626 FORD RD, GARDEN CITY MI 48135 US"	-83.3435368	42.3255825	77
13956	99051	63	M	170	JETS PIZZA 87	"23941 W. 9 MILE, SOUTHFIELD MI 48034 US"	-83.277462	42.457069	77
14008	33016	0	T	230	BURGER SHACK	"8606 N. TELEGRAPH ROAD, DEARBORN HEIGHTS MI 48127 "	-83.273847	42.355298	77
14075	99112	3	R	140	INTIMATE IDEAS-WESTLAND	"36443 WARREN RD, WESTLAND MI 48185 US"	-83.399152	42.338216	77
14133	33085	0	R	200	IDN HARDWARE SALES	"35950 INDUSTRIAL ROAD, LIVONIA MI 48150 US"	-83.397883	42.378908	77
1421	28460	0	M	180	STACKERZ DELI INC             	"23145 LAHSER INC, SOUTHFIELD MI 48033 US"	-83.260926	42.458836	77
14238	33113	0	R	180	THE TAKE OUT BOX	"39958 FORD ROAD, CANTON MI 48187 US"	-83.434612	42.323956	77
14314	33154	0	T	130	MALEK AL KABOB-DEARBORN	"22065 MICHIGAN AVENUE, DEARBORN MI 48124 US"	-83.245262	42.305725	77
14348	99062	66	M	50	VALUE CENTER MARKET #1218	"27428 SIX MILE ROAD, LIVONIA MI 48152 US"	-83.316774	42.414318	77
14355	99161	66	M	60	VALUE CENTER MARKET #1218 F.A.	"27428 SIX MILE ROAD, LIVONIA MI 48152 US"	-83.316774	42.414318	77
14592	33269	0	W	190	HASHEMS OF DEARBORN HEIGHTS	"26509 FORD ROAD, DEARBORN HEIGHTS MI 48127 US"	-83.300546	42.325844	77
14660	99144	0	W	30	SMART WAYNE TERMINAL	"3000 N. INDUSTRIAL DRIVE, INKSTER MI 48141 US"	-83.3373089	42.28464016	77
14766	33344	0	T	170	BULLDOGS CHEESESTEAKS	"22749 MICHIGAN AVE, DEARBORN MI 48124 US"	-83.256227	42.303199	77
14899	33398	0	W	90	BROOKIES CAFE	"35234 MICHIGAN AVENUE, WAYNE MI 48184 US"	-83.42691358	42.27919978	77
14940	33412	0	F	190	CLOVER SELF STORAGE	"28900 SCHOOLCRAFT, LIVONIA MI 48150 US"	-83.327315	42.384545	77
14963	99153	0	F	180	BINSON'S MEDICAL	"13450 FARMINGTON RD, LIVONIA MI 48150 US"	-83.371827	42.381117	77
14967	33426	0	T	160	HOUSE OF CHIMNEY CAKES	"22737 MICHIGAN AVENUE, DEARBORN MI 48124 US"	-83.24472819	42.30601141	77
1508	28748	0	R	230	ANNIE'S FAMILY RESTAURANT	"33427 PLYMOUTH RD, LIVONIA MI 48150 US"	-83.373492	42.367715	77
1518	99184	3	R	130	FAMOUS DAVES	"36601 WARREN RD, WESTLAND MI 48185 US"	-83.402074	42.337179	77
15712	33477	0	W	110	SHAWARMA CO.	"32594 CHERRY HILL ROAD, GARDEN CITY MI 48135 US"	-83.362148	42.310802	77
15714	33479	0	R	80	COFFEE & CREAM	"38340 JOY ROAD, LIVONIA MI 48150 US"	-83.41996	42.353137	77
15835	33526	0	R	60	WELDCRAFT	"11881 BELDEN CT, LIVONIA MI 48150 US"	-83.389917	42.3723103	77
15878	33578	0	R	190	MR. MIGUEL'S	"39305 PLYMOUTH RD, LIVONIA MI 48150 US"	-83.430024	42.371199	77
15915	99054	50	F	160	CHARTER COMMUNICATIONS        	"14525 FARMINGTON ROAD, LIVONIA MI 48150 US"	-83.374269	42.390636	77
15929	33599	0	T	180	THE BUTCHER'S GRILLE	"22713 MICHIGAN AVE, DEARBORN MI 48124 US"	-83.255635	42.303332	77
15976	99171	1	F	80	SAM'S PLACE LIVONIA	"33251 FIVE MILE ROAD, LIVONIA MI 48154 US"	-83.37267	42.396753	77
15977	99169	20	T	50	DEAN TRANSPORTATION-DEARBORN	"25081 TROWBRIDGE STREET, DEARBORN MI 48124 US"	-83.282601	42.295871	77
15994	99169	27	R	30	DEAN TRANSPORTATION-LIVONIA	"13420 WAYNE ROAD, LIVONIA MI 48150 US"	-83.387994	42.379747	77
16001	33622	0	M	80	DR. TERRI TODARO DDS	"31395 7 MILE RD #B, LIVONIA MI 48152 US"	-83.354821	42.42618	77
16008	33625	0	M	40	BEIRUT BAKERY	"25706 SCHOOLCRAFT, REDFORD MI 48239 US"	-83.294406	42.385588	77
16202	33709	0	R	150	THE WESTLAND HOUSE	"36000 CAMPUS DRIVE, WESTLAND MI 48185 US"	-83.393854	42.317622	77
16260	33733	0	T	120	MINT 29	"22000 MICHIGAN AVENUE, DEARBORN MI 48124 US"	-83.244491	42.306262	77
16288	33744	0	R	10	DMAC INDUSTRIES	"13600 OTTERSON COURT, LIVONIA MI 48150 US"	-83.355037	42.377133	77
16290	73335	14	F	220	COMMUNITY FINANCIAL-LIVONIA	"15251 MIDDLEBELT, LIVONIA MI 48154 US"	-83.334432	42.397506	77
1633	29135	0	F	140	AEG MICHIGAN LLC	"C/O SUBURBAN EYE CARE - 1421 32415 FIVE MILE, LIVO"	-83.364225	42.397078	77
16360	99232	1	F	60	M SIX	"36375 5 MILE RD, LIVONIA MI 48154 US"	-83.402453	42.39617	77
16384	229255	1	W	70	STOOPS TRAILERS	"5055 HANAAN RD, WAYNE MI 48184 US"	-83.4258517	42.2676137	77
1640	29142	0	M	20	FRANKS DINER                  	"25700 PLYMOUTH RD, REDFORD TWP MI 48239 US"	-83.293899	42.371055	77
1642	29144	0	F	230	ADVANCED PERIODONTICS	"31636 SCHOOLCRAFT, LIVONIA MI 48150 US"	-83.357767	42.383828	77
16420	33799	0	F	50	MOBIL GAS STATION	"33430 SCHOOLCRAFT RD, LIVONIA MI 48150 US"	-83.373693	42.383156	77
16422	33085	1	R	210	IDN HARDWARE SALES	"35850 INDUSTRIAL RD, LIVONIA MI 48150 US"	-83.397018	42.378924	77
1646	29148	0	M	190	EVERGREEN SUPPLY COMPANY      	"20736 LASHER, SOUTHFIELD MI 48034 US"	-83.258636	42.444237	77
16520	33860	0	W	200	SHAWARMAJE	"25830 FORD ROAD, DEARBORN MI 48124 US"	-83.292474	42.326865	77
1653	29157	0	T	240	CROWN DRUGS                   	"24401 PLYMOUTH, REDFORD MI 48239 US"	-83.279538	42.370721	77
16536	99199	2	T	140	DAVE'S HOT CHICKEN	"22208 MICHIGAN AVENUE, DEARBORN MI 48124 US"	-83.248285	42.305544	77
16555	33871	0	M	70	LIVONIA BREAKFAST CLUB	"17162 FARMINGTON ROAD, LIVONIA MI 48152 US"	-83.373077	42.412564	77
16642	33912	0	M		GOLDEN BUFFET LIVONIA	"29583 FIVE MILE ROAD, LIVONIA MI 48154 US"	-83.336469	42.39754	77
16664	33926	0	W		KICK'N CHICKEN	"26717 MICHIGAN AVE, INKSTER MI 48141 US"	-83.301862	42.294961	77
16667	33344	1	F		BULLDOGS CHEESESTEAKS 36	"33171 GRAND RIVER AVE, FARMINGTON MI 48336 US"	-83.374635	42.463417	77
16713	33950	0	R		THAI HOUSE CUISINE	"8601 NORTH WAYNE ROAD, WESTLAND MI 48185 US"	-83.386267	42.350139	77
16740	33965	0	W		PASTALONI-GARDEN CITY	"30094 FORD RD, GARDEN CITY MI 48135 US"	-83.338679	42.325733	77
16818	33983	0	M		STANFORD DENTAL PLLC	"34441 EIGHT MILE ROAD SUITE 114, LIVONIA MI 48152 "	-83.386046	42.439709	77
16867	34014	0	M		CHRIS LIVONIA MASSAGE	"29671 SIX MILE ROAD #110C, LIVONIA MI 48152 US"	-83.3381	42.411539	77
1688	29194	0	M	260	MOTOR CITY EAGLES             	"24401 W 5 MILE, REDFORD MI 48239 US"	-83.2802812	42.3995842	77
16896	34026	0	F		TONY'S BRUNCH	"31116 FIVE MILE ROAD, LIVONIA MI 48154 US"	-83.351581	42.398781	77
16914	34034	0	W		ALSAHA MEAT & BAKERY	"24678 FORD ROAD, DEARBORN HEIGHTS MI 48127 US"	-83.27936617	42.32690117	77
16937	34042	0	M		FATIMAS GRILL	"27430 FIVE MILE ROAD, LIVONIA MI 48154 US"	-83.315358	42.398951	77
1696	29202	0	F	300	EL NIBBLE NOOK                	"27725 8 MILE RD, LIVONIA MI 48150 US"	-83.321572	42.441571	77
17068	34100	0	M		CITY OF LIVONIA-MCNAMARA TOWER	"19300 PURLINGBROOK STREET, LIVONIA MI 48152 US"	-83.345184	42.430007	77
17080	34108	0	F		SHAWARMA CO. LIVONIA	"16368 MIDDLEBELT ROAD, LIVONIA MI 48127 US"	-83.334424	42.407763	77
17089	34113	0	W		THE GARDEN BANQUET	"5651 MIDDLEBELT ROAD, GARDEN CITY MI 48135 US"	-83.33145	42.326437	77
1711	99051	14	F	240	JET'S PIZZA MI-008 (BLK)	"32630 7 MILE, LIVONIA MI 48152 US"	-83.370129	42.426742	77
17173	99186	13	R		LA MARSA-LIVONIA	"34708 PLYMOUTH ROAD, LIVONIA MI 48150 US"	-83.384055	42.368681	77
17174	34147	0	W		TASTY KABOB	"8207 NORTH MIDDLEBELT ROAD, WESTLAND MI 48185 US"	-83.332518	42.349681	77
17268	34185	0	T		KARAM BRUNCH HOUSE	"940 MONROE STREET, DEARBORN MI 48124 US"	-83.244406	42.306697	77
1758	29442	0	R	10	EPI                           	"13305 WAYNE ROAD, LIVONIA MI 48150 US"	-83.389292	42.379437	77
1788	50170	0	T	260	PARKWAY PARTY STORE           	"22443 PLYMOUTH, REDFORD MI 48239 US"	-83.261792	42.371322	77
1823	50664	0	F	100	"SITEONE LANDSCAPE SUPPLY, LLC"	"29820 W. EIGHT MILE, FARMINGTON HILLS MI 48333 US"	-83.340247	42.442245	77
1827	50701	0	F	280	ELITE SWEETS                  	"33471 W. EIGHT MILE, LIVONIA MI 48152 US"	-83.377151	42.439946	77
20	5176	0	W	170	JON'S GOODTIME                	"27553 CHERRYHILL, INKSTER MI 48141 US"	-83.312865	42.311402	77
214	20328	0	M	140	TRUTH VENUE	"26750 W. EIGHT MILE, SOUTHFIELD MI 48034 US"	-83.3092259	42.4426294	77
22	5395	0	F	250	HELLENIC BAKERY               	"33306 W. SEVEN MILE, LIVONIA MI 48152 US"	-83.3740782	42.4263982	77
530	23876	0	T	40	DEARBORN OBGYN ASSOCIATES     	"25080 MICHIGAN AVE., DEARBORN MI 48124 US"	-83.282446	42.298366	77
556	99079	1	R	120	RED ROBIN 377                	"36350 W. WARREN RD., WESTLAND MI 48185 US"	-83.39884	42.339115	77
597	24235	0	F	130	MIAMI BAKERY                  	"31120 5 MILE ROAD, LIVONIA MI 48154 US"	-83.351829	42.398903	77
654	24564	0	F	210	WINE PALACE                   	"13971 MIDDLEBELT, LIVONIA MI 48150 US"	-83.334533	42.384916	77
680	24703	0	M	200	OMEGA CONEY ISLAND            	"22501 M-102, DETROIT MI 48219 US"	-83.265558	42.442857	77
683	24722	0	F		DELUCA'S RESTAURANT           	"27424 WEST WARREN, WESTLAND MI 48185 US"	-83.312791	42.340947	77
707	24784	0	T	270	SCOTTY SIMPSONS FISH & CHIPS  	"22200 FENKELL, DETROIT MI 48223 US"	-83.259502	42.40045	77
785	25149	0	F	170	MASONS BAR & GRILLE           	"13490 FARMINGTON RD, LIVONIA MI 48150 US"	-83.372317	42.381427	77
791	25160	0	W	60	STEVE'S CONEY ISLAND         	"5727 WAYNE RD, WAYNE MI 48184 US"	-83.388187	42.267275	77
8159	29536	0	R	40	IMPERIAL BEVERAGE	"34462 GLENDALE, LIVONIA MI 48150 US"	-83.383185	42.377692	77
8711	99108	0	M	220	TRUMP'S	"21413 M-102, DETROIT MI 48219 US"	-83.254447	42.443131	77
8721	29914	0	T	30	"SAJOUNA, LLC"	"25859 FORD RD., DEARBORN HEIGHTS MI 48127 US"	-83.2929643	42.3259473	77
8759	29948	0	R	160	WESTLAND FAMILY DINING	"35560 FORD RD, WESTLAND MI 48185 US"	-83.391437	42.324637	77
8838	29991	0	W	80	NICK'S CONEY ISLAND	"35425 W. MICH. AVE SUIT 3709, WAYNE MI 48184 US"	-83.388061	42.281506	77
8859	499014	29	F	90	RX OPTICAL                    	"29474 7 MILE RD., LIVONIA MI 48152 US"	-83.339748	42.427463	77
9217	30381	0	F	270	KATHERINE DREW SALON	"33625 7 MILE RD, LIVONIA MI 48152 US"	-83.380238	42.425466	77
9293	30450	0	T	210	TOARMINAS PIZZA	"23922 CHERRY HILL, DEARBORN MI 48124 US"	-83.271185	42.312801	77
9828	30877	0	F	40	PRIME GRILL	"13840 MERRIMAN, LIVONIA MI 48150 US"	-83.352479	42.382256	77
9983	31013	0	T	150	MAHARAJA RESTAURANT	"22443 MICHIGAN AVE, DEARBORN MI 48124 US"	-83.251682	42.303976	77
