"cu_id"	"Account"	"Customer"	"New Delivery Day"	"Alliant Sequence"	"Customer Name"	"Address"	"X_Longitude"	"Y_Latitude"
"1004"	"26592"	"00000"	"T"	"250"	"SHELL- MARKET STREET          "	"12 MARKET ST, MT CLEMENS MI 48043 US"	"-82.875051"	"42.598415"
"1010"	"26611"	"00000"	"T"	"270"	"AMERICAN LEGION HALL          "	"401 N GROESBECK, MT CLEMENS MI 48043 US"	"-82.8902217"	"42.613995"
"1013"	"26626"	"00000"	"W"	"20"	"MEDRIDGE PROPERTY MANAGEMENT  "	"25631 LITTLE MACK SUITE 202, ST CLAIR SHORES MI 48"	"-82.907675"	"42.483367"
"10384"	"31358"	"00000"	"M"	"190"	"CARDIOVASCULAR INSTITUTE OF MI"	"18303 TEN MILE RD ST - 100, ROSEVILLE MI 48066 US"	"-82.933819"	"42.482548"
"10485"	"31431"	"00000"	"F"	"90"	"TURRIS"	"40585 PRODUCTION DR, HARRISON TOWNSHIP MI 48045 US"	"-82.854488"	"42.59469"
"10519"	"31460"	"00000"	"F"	"210"	"ZORBAS FAMILY DINING"	"37116 GROESBECK, CLINTON TOWNSHIP MI 48036 US"	"-82.910308"	"42.57091"
"10558"	"31486"	"00000"	"F"	"200"	"JEFFERSON STREET PUB"	"36611 JEFFERSON AVENUE, HARRISON TOWNSHIP MI 48045"	"-82.840587"	"42.568433"
"10564"	"31290"	"00000"	"T"	"190"	"OFF THE HOOK SPORTS GRILL"	"8094 DIXIE HIGHWAY, FAIR HAVEN MI 48023 US"	"-82.631321"	"42.675625"
"1057"	"99110"	"00001"	"R"	"200"	"SAV-A-LOT                     "	"657 24TH STREET, PORT HURON MI 48064 US"	"-82.455419"	"42.975802"
"10609"	"31521"	"00000"	"W"	"70"	"SIGNATURE ENDODONTICS"	"24911 LITTLE MACK, ST. CLAIR SHORES MI 48080 US"	"-82.907742"	"42.479259"
"10696"	"31590"	"00000"	"W"	"300"	"BEACHES PET RESORT"	"29335 HARPER, ST. CLAIR SHORES MI 48081 US"	"-82.898691"	"42.509802"
"10700"	"26626"	"00001"	"W"	"30"	"HEALTH CARE CENTER LOWER LEVEL"	"25631 LITTLE MACK, ST CLAIR SHORES MI 48081 US"	"-82.907675"	"42.483367"
"10939"	"33172"	"00000"	"T"	"80"	"PHUKET THAI"	"50645 GRATIOT AVENUE, CHESTERFIELD MI 48051 US"	"-82.836694"	"42.672309"
"11046"	"31691"	"00001"	"R"	"300"	"TROPICAL SMOOTHIE CAFE-RICHMON"	"67213 S. MAIN STREET, RICHMOND MI 48026 US"	"-82.736434"	"42.796647"
"1107"	"99055"	"00006"	"M"	"150"	"JET'S PIZZA MI-002 (RED)"	"13450 15 MILE, STERLING HEIGHTS MI 48312 US"	"-82.991027"	"42.551519"
"1128"	"99055"	"00007"	"W"	"270"	"JET'S PIZZA MI-013 (RED)"	"30114 HARPER RD. SUITE 2, ST CLAIR SHORES MI 48082"	"-82.897899"	"42.514985"
"1131"	"99055"	"00008"	"M"	"120"	"JET'S PIZZA MI-004 "	"31085 HAYES RD, WARREN MI 48093 US"	"-82.969892"	"42.524952"
"11392"	"31972"	"00000"	"W"	"240"	"EOS COFFEE"	"30619 JEFFERSON AVE, ST CLAIR SHORES MI 48082 US"	"-82.878186"	"42.518908"
"1165"	"27490"	"00000"	"W"	"280"	"PAISANOS PIZZA                "	"30019 HARPER, ST CLAIR SHORES MI 48082 US"	"-82.898789"	"42.514569"
"1167"	"27492"	"00000"	"W"	"310"	"PLAZA MEXICO                  "	"18322 9 MILE ROAD, EAST POINT MI 48021 US"	"-82.931123"	"42.465055"
"11698"	"32168"	"00000"	"T"	"160"	"ZEF'S LIGHTHOUSE TAVERN"	"8851 DIXIE HIGHWAY, FAIRHAVEN MI 48023 US"	"-82.658604"	"42.68026"
"11748"	"99082"	"00000"	"R"	"280"	"SUNRISE 11"	"80660 MAIN ST, MEMPHIS MI 48041 US"	"-82.768492"	"42.895481"
"11751"	"99082"	"00003"	"R"	"270"	"SUNRISE 29"	"2700 KINNEY RD, EMMIT MI 48022 US"	"-82.763117"	"42.976691"
"11781"	"99055"	"00015"	"T"	"120"	"JET'S PIZZA MI-025 (BLK)"	"51058 D.W. SEATON DRIVE, NEW BALTIMORE MI 48047 US"	"-82.77379"	"42.676039"
"11853"	"99197"	"00005"	"R"	"230"	"SPERRY MOVIEHOUSE"	"301 HURON AVE, PORT HURON MI 48060 US"	"-82.424844"	"42.97757"
"11870"	"31691"	"00004"	"W"	"260"	"TROPICAL SMOOTHIE CAFE"	"30114 HARPER AVE #1, ST CLAIR SHORES MI 48082 US"	"-82.897899"	"42.514985"
"11916"	"31691"	"00005"	"M"	"130"	"TROPICAL SMOOTHIE CAFE 34"	"34521 UTICA RD, FRASER MI 48026 US"	"-82.959919"	"42.5498"
"11952"	"99033"	"00176"	"T"	"20"	"MARTHA T BERRY MED 41091 MORRI"	"43533 ELIZABETH STREET, MT CLEMENS MI 48043 US"	"-82.889885"	"42.615311"
"12050"	"31691"	"00006"	"F"	"80"	"TROPICAL SMOOTHIE CAFE 45"	"26130 CROCKER BLVD, HARRISON TOWNSHIP MI 48045 US"	"-82.852134"	"42.570766"
"12066"	"32347"	"00000"	"T"	"130"	"BAYSIDE DIMITRIE'S"	"35256 23 MILE ROAD, NEW BALTIMORE MI 48047 US"	"-82.751349"	"42.674956"
"12167"	"32409"	"00000"	"F"	"40"	"GRATIOT GAS & FOOD MART"	"32961 GRATIOT AVENUE, ROSEVILLE MI 48066 US"	"-82.909844"	"42.53945"
"12185"	"32414"	"00000"	"W"	"250"	"XO SPORTS BAR & GRILL"	"31033 JEFFERSON, ST CLAIR SHORES MI 48082 US"	"-82.877566"	"42.520965"
"1222"	"27687"	"00000"	"M"	"200"	"LEGENDS EXPRESS               "	"17821 E 9 MILE, EAST POINT MI 48021 US"	"-82.937514"	"42.465433"
"12228"	"32440"	"00000"	"F"	"70"	"LAKE BREEZE RESTAURANT"	"35450 JEFFERSON AVENUE, HARRISON TWP MI 48045 US"	"-82.85276"	"42.554858"
"12258"	"31691"	"00008"	"W"	"140"	"TROPICAL SMOOTHIE CAFE 050"	"22600 GREATER MACK, ST CLAIR SHORES MI 48080 US"	"-82.900037"	"42.460334"
"12262"	"99048"	"00038"	"T"	"100"	"OLGA'S 204 CHESTERFIELD"	"50912 GRATIOT AVE, CHESTERFIELD TWP MI 58678-2763 "	"-82.833068"	"42.673907"
"12294"	"32459"	"00000"	"T"	"40"	"TROPICAL SMOOTHIE CAFE 86"	"27805 23 MILE ROAD, CHESTERFIELD MI 48051 US"	"-82.830688"	"42.675145"
"12412"	"32538"	"00000"	"M"	"110"	"ANTONIO'S CONEY ISLAND"	"31075 HAYES, WARREN MI 48088 US"	"-82.969448"	"42.524932"
"1242"	"27769"	"00000"	"R"	"170"	"DALIANOS                  "	"3150 GRATIOT, MARYSVILLE MI 48040 US"	"-82.496786"	"42.912369"
"1251R"	"27818"	"00000"	"R"	"10"	"TURRIS 3                     "	"50903 EAST RUSSEL SCHMIDT, CHESTERFIELD MI 48051 U"	"-82.844667"	"42.673015"
"1251T"	"27818"	"00000"	"T"	"30"	"TURRIS 3                     "	"50903 EAST RUSSEL SCHMIDT, CHESTERFIELD MI 48051 U"	"-82.84462"	"42.673029"
"12696"	"32712"	"00000"	"F"	"30"	"ROSE ANN'S KITCHEN"	"21400 15 MILE ROAD, CLINTON TOWNSHIP MI 48035 US"	"-82.90194"	"42.55438"
"12752"	"99197"	"00004"	"R"	"220"	"CITY FLATS HOTEL-PORT HURON"	"405 WATER STREET, PORT HURON MI 48060 US"	"-82.424178"	"42.975087"
"12777"	"32761"	"00000"	"W"	"60"	"EASTLAKE CARDIOVASCULAR"	"24211 LITTLE MACK AVENUE, ST. CLAIR SHORES MI 4808"	"-82.907908"	"42.474575"
"1278"	"27916"	"00000"	"M"	"30"	"SPENCER OIL COMPANY           "	"16410 COMMON RD, ROSEVILLE MI 48066 US"	"-82.954974"	"42.515975"
"1285"	"27942"	"00000"	"W"	"100"	"MARIO'S MEATS                 "	"19172 E 10 MILE RD, EAST POINT MI 48021 US"	"-82.919882"	"42.479809"
"13062"	"99161"	"00411"	"R"	"30"	"VG'S #1934 FIRST AID"	"6764 S. RIVER, MARINE CITY MI 48039 US"	"-82.509603"	"42.696745"
"13575"	"32950"	"00000"	"T"	"170"	"SCHNEIDER'S MOTORSPORTS"	"8779 DIXIE HIGHWAY, FAIR HAVEN MI 48023 US"	"-82.655808"	"42.679341"
"13735"	"32978"	"00000"	"R"	"260"	"HIGH GRADE MATERIALS-PT HURON"	"5288 LAPEER RD, KIMBALL MI 48074 US"	"-82.535522"	"42.987183"
"13772"	"99104"	"00020"	"F"	"220"	"PERFECTION DIST-MT CLEMENS"	"38283 S. GROESBECK HWY, CLINTON TWP MI 48036 US"	"-82.902705"	"42.58331"
"1390"	"28371"	"00000"	"T"	"180"	"BOBBY MACS                    "	"8287 DIXIE HWY, FAIR HAVEN MI 48023 US"	"-82.637703"	"42.675964"
"14076"	"99112"	"00004"	"T"	"210"	"INTIMATE IDEAS-CHESTERFIELD"	"46484 GRATIOT AVE, CHESTERFIELD MI 48051 US"	"-82.854253"	"42.641532"
"14077"	"99112"	"00005"	"M"	"100"	"INTIMATE IDEAS-ROSEVILLE"	"32239 LITTLE MACK, ROSEVILLE MI 48066 US"	"-82.910072"	"42.534329"
"14236"	"33111"	"00000"	"R"	"190"	"THE RIVER GARAGE"	"3125 Ravenswood Road, PORT HURON MI 48060 US"	"-82.443751"	"42.983422"
"14250"	"99119"	"00000"	"T"	"140"	"SEEBURGERS CHEESEBURGERS"	"35351 23 MILE ROAD, NEW BALTIMORE MI 48047 US"	"-82.749538"	"42.676494"
"14263"	"33128"	"00000"	"F"	"20"	"TURRI'S MAINTENANCE"	"16695 COMMON RD, ROSEVILLE MI 48066 US"	"-82.949375"	"42.517461"
"1438"	"28520"	"00000"	"T"	"60"	"AJ MANAGEMENT (MOBILE STATION)"	"22977 23 MILE RD, MACOMB MI 48042 US"	"-82.878456"	"42.674005"
"14385"	"99062"	"00068"	"F"	"120"	"VALUE CENTER MARKET #1228"	"37155 HARPER AVENUE, CLINTON TWP MI 48036 US"	"-82.873912"	"42.570597"
"14386"	"99161"	"00068"	"F"	"110"	"VALUE CENTER MARKET #1228 F.A."	"37155 HARPER AVENUE, CLINTON TWP MI 48036 US"	"-82.873912"	"42.570597"
"14421"	"99112"	"00007"	"M"	"160"	"INTIMATE IDEAS-GRATIOT"	"27144 GRATIOT, ROSEVILLE MI 48066 US"	"-82.93682"	"42.496216"
"14450"	"33224"	"00000"	"T"	"90"	"LOV-A BURGER"	"49660 GRATIOT AVENUE, CHESTERFIELD MI 48051 US"	"-82.840105"	"42.665154"
"1448"	"99061"	"00418"	"R"	"40"	"VG'S FRONT # 1934 "	"6764 S. RIVER, MARINE CITY MI 48039-2252 US"	"-82.509603"	"42.696745"
"14661"	"99144"	"00001"	"F"	"50"	"SMART MACOMB TERMINAL"	"22900 E. 15 MILE ROAD, CLINTON TWP MI 48035 US"	"-82.884501"	"42.554158"
"14665"	"99144"	"00004"	"F"	"60"	"SMART HEIN BUILDING"	"22700 E. 15 MILE ROAD, CLINTON TWP MI 48035 US"	"-82.8859973"	"42.5541502"
"14791"	"33356"	"00000"	"F"	"20"	"HOMETOWN GRILL"	"20544 15 MILE ROAD, CLINTON TOWNSHIP MI 48035 US"	"-82.911381"	"42.553894"
"14835"	"25469"	"00001"	"R"	"310"	"LITTLE CAMILLES GREEN"	"4575 COUNTY LINE RD, CASCO MI 48064 US"	"-82.7309202"	"42.763551"
"1488"	"99184"	"00002"	"M"	"70"	"FAMOUS DAVES                  "	"20300 EAST 13 MILE RD, ROSEVILLE MI 48066 US"	"-82.914183"	"42.524334"
"14929"	"33408"	"00000"	"M"	"50"	"FLUIDYNE"	"31915 GROESBECK HWY, FRASER MI 48026 US"	"-82.942492"	"42.530949"
"1540"	"28888"	"00000"	"W"	"320"	"PRIMPED & POLISHED            "	"21537 KELLY RD, EASTPOINTE MI 48021 US"	"-82.935123"	"42.457096"
"15564"	"33431"	"00000"	"T"	"260"	"SQUARE ONE PIZZA"	"395 N GROESBECK, MOUNT CLEMENS MI 48043 US"	"-82.891679"	"42.612358"
"15675"	"33461"	"00000"	"M"	"90"	"CALI TACO'S LLC"	"31339 HARPER AVE, ST. CLAIR SHORES MI 48082 US"	"-82.895395"	"42.526973"
"1574"	"29002"	"00000"	"W"	"80"	"EASTSIDE CARDIOVASCULAR       "	"25195 KELLY RD SUITE A, ROSEVILLE MI 48066-4909 US"	"-82.927707"	"42.481773"
"15763"	"33494"	"00000"	"W"	"200"	"SPICE BOWL"	"24060 HARPER AVE, ST. CLAIR SHORES MI 48080 US"	"-82.904743"	"42.471893"
"15784"	"99159"	"00000"	"M"	"40"	"TJK GAS"	"30991 GROESBECK HWY, ROSEVILLE MI 48066 US"	"-82.947491"	"42.523647"
"15831"	"33525"	"00000"	"R"	"210"	"JOWETT FUNERAL HOME"	"1634 LAPEER AVE, PORT HURON MI 48060 US"	"-82.444045"	"42.9768837"
"15884"	"99112"	"00008"	"F"	"130"	"INTIMATE IDEAS-CLINTON TWP"	"36649 S. GRATIOT AVE, CLINTON TOWNSHIP MI 48035 US"	"-82.8935745"	"42.5669925"
"15935"	"99033"	"00312"	"F"	"240"	"FREEDOM HILL AMPHITHEATER-LEVY"	"14900 METROPOLITAN PKWY, STERLING HEIGHTS MI 48312"	"-82.97618"	"42.564092"
"15968"	"99169"	"00015"	"M"	"180"	"DEAN TRANSPORTATION-EASTPOINTE"	"17116 E. TEN MILE ROAD, EASTPOINTE MI 48021 US"	"-82.9450583"	"42.4792212"
"15969"	"99169"	"00016"	"R"	"180"	"DEAN TRANSPORTATION-MARYSVILLE"	"1520 BUSHA HWY, MARYSVILLE MI 48040 US"	"-82.4774604"	"42.9071172"
"15970"	"99169"	"00017"	"R"	"20"	"DEAN TRANSPORTATION-ALGONC"	"5202 TAFT ROAD, ALGONAC MI 48001 US"	"-82.5844353"	"42.6284517"
"16074"	"99062"	"00172"	"R"	"100"	"NEIMANS GROCERY 186"	"1167 S CARNEY DR, ST CLAIR MI 48079 US"	"-82.503314"	"42.81959"
"16075"	"99062"	"00173"	"R"	"160"	"NEIMANS MEAT 186"	"1167 S CARNEY DR, ST CLAIR MI 48079 US"	"-82.503314"	"42.81959"
"16076"	"99062"	"00174"	"R"	"150"	"NEIMANS PRODUCE 186"	"1167 S CARNEY DR, ST CLAIR MI 48079 US"	"-82.503314"	"42.81959"
"16078"	"99062"	"00175"	"R"	"140"	"NEIMANS BAKERY 186"	"1167 S CARNEY DR, ST CLAIR MI 48079 US"	"-82.503314"	"42.81959"
"16079"	"99062"	"00176"	"R"	"130"	"NEIMANS CORNER CAFE 186"	"1167 S CARNEY DR, ST CLAIR MI 48079 US"	"-82.503314"	"42.81959"
"16080"	"99062"	"00177"	"R"	"120"	"NEIMANS DELI 186"	"1167 S CARNEY DR, ST CLAIR MI 48079 US"	"-82.503314"	"42.81959"
"16105"	"99161"	"00172"	"R"	"110"	"NEIMANS 186 FIRST AID"	"1167 S CARNEY DR, ST CLAIR MI 48079 US"	"-82.503314"	"42.81959"
"16120"	"33657"	"00000"	"W"	"130"	"COOPER HOP BREWING COMPANY"	"23401 GREATER MACK AVE, ST CLAIR SHORES MI 48080 U"	"-82.898459"	"42.465683"
"16181"	"33270"	"00005"	"T"	"220"	"NOORJAHAN INDIAN CUISINE"	"46650 GRATIOT AVENUE, NEW BALTIMORE MI 48051 US"	"-82.853401"	"42.642727"
"16195"	"33706"	"00000"	"T"	"110"	"COMMONWEALTH SENIOR LIVING"	"33503 23 MILE ROAD, NEW BALTIMORE MI 48047 US"	"-82.772095"	"42.676527"
"16376"	"99033"	"00322"	"W"	"220"	"MORRISON LIVING"	"26101 JEFFERSON AVE, SAINT CLAIR SHORES MI 48081 U"	"-82.8919443"	"42.4844778"
"16385"	"99191"	"00000"	"W"	"50"	"NEW YORK DELI"	"25008 LITTLE MACK AVENUE, ST. CLAIR SHORES MI 4808"	"-82.906762"	"42.480099"
"16398"	"33784"	"00000"	"T"	"10"	"BEAR INDUSTRIAL GROUP"	"155 MADISON AVENUE, MOUNT CLEMENS MI 48043 US"	"-82.884369"	"42.607707"
"16410"	"33790"	"00000"	"T"	"50"	"CHESTERFIELD ENGINES"	"52420 GRATIOT AVENUE, NEW BALTIMORE MI 48051 US"	"-82.8246537"	"42.6849216"
"16477"	"32761"	"00005"	"W"	"40"	"EASTLAKE CARDIOVASCULAR"	"25990 KELLY RD SUITE 3, ROSEVILLE MI 48066 US"	"-82.92707"	"42.487357"
"16484"	"33841"	"00000"	"W"	"90"	"AMG ASCENSION HEART RYTHM INST"	"25195 KELLY ROAD SUITE B, ROSEVILLE MI 48066 US"	"-82.927698"	"42.481707"
"16559"	"33873"	"00000"	"W"	"230"	"BLUE GOOSE INN"	"28911 JEFFERSON AVENUE, ST. CLAIR SHORES MI 48081 "	"-82.882531"	"42.504792"
"16599"	"33892"	"00000"	"W"	"330"	"ASHCARE SALON"	"21555 KELLY ROAD, EASTPOINTE MI 48021 US"	"-82.9348765"	"42.4574487"
"16650"	"33919"	"00000"	"F"	"230"	"TOWER AUTOMOTIVE"	"44850 GROESBECK HWY, CLINTON TOWNSHIP MI 48036 US"	"-82.873496"	"42.628581"
"168"	"19344"	"00000"	"R"	"240"	"MDHHS - ST CLAIR COUNTY"	"220 FORT STREET, PORT HURON MI 48060 US"	"-82.421905"	"42.976653"
"1806"	"50441"	"00000"	"W"	"190"	"FRANK'S JEFFERSON ME          "	"25300 E. JEFFERSON, ST. CLAIR SHORES MI 48080 US"	"-82.888736"	"42.478805"
"1836"	"50796"	"00000"	"M"	"140"	"AAA MICHIGAN                  "	"38121 UTICA RD., STERLING HEIGHTS MI 48312 US"	"-82.985768"	"42.575082"
"375"	"22102"	"00000"	"F"	"150"	"LITTLEMACK MARKET AND FUEL"	"20717 15 MILE RD, CLINTON TWP MI 48035 US"	"-82.909851"	"42.554899"
"509"	"23728"	"00000"	"R"	"90"	"DOWN RIVER LAWN & LANDSCAPE   "	"6211 KING RD., MARINE CITY MI 48039 US"	"-82.5089567"	"42.7233993"
"562"	"99079"	"00006"	"M"	"60"	"RED ROBIN 380                "	"32051 GRATIOT, ROSEVILLE MI 48228 US"	"-82.914282"	"42.533005"
"579"	"24162"	"00000"	"W"	"120"	"THE CHEESECAKE SHOPPE         "	"23409 MACK AVENUE, ST. CLAIR SHORES MI 48080 US"	"-82.898415"	"42.465752"
"645"	"99124"	"00000"	"M"	"170"	"BANGKOK CUISINE               "	"25223 GRATIOT, ROSEVILLE MI 48066 US"	"-82.947515"	"42.481473"
"725"	"24857"	"00000"	"W"	"170"	"MARCHIORI CATERING            "	"21800 MARTER ASSUMPTION CHURCH, ST. CLAIR SHORES M"	"-82.888491"	"42.450922"
"730F"	"24873"	"00000"	"F"	"10"	"TURRIS ITALIAN FOOD           "	"16695 COMMON RD, ROSEVILLE MI 48066 US"	"-82.949375"	"42.517461"
"730M"	"24873"	"00000"	"M"	"10"	"TURRIS ITALIAN FOOD           "	"16695 COMMON RD, ROSEVILLE MI 48066 US"	"-82.949375"	"42.517461"
"730W"	"24873"	"00000"	"W"	"10"	"TURRIS ITALIAN FOOD           "	"16695 COMMON RD, ROSEVILLE MI 48066 US"	"-82.949375"	"42.517461"
"736"	"24883"	"00000"	"T"	"230"	"CHEF RAYMONE                  "	"370 N. GRATIOT, CLINTON TOWNSHIP MI 48036 US"	"-82.870541"	"42.610025"
"744"	"24897"	"00000"	"W"	"210"	"WONGS GARDEN                  "	"24851 HARPER, SAINT CLAIR SHORES MI 48080 US"	"-82.902613"	"42.478587"
"745"	"24898"	"00000"	"W"	"160"	"SY THAI SHORES CAFE           "	"23519 NINE MACK DR, SAINT CLAIR SHORES MI 48080 US"	"-82.896751"	"42.466218"
"8242"	"99061"	"00436"	"R"	"70"	"SPT VG'S BAKERY #1934"	"6764 S. RIVER, MARINE CITY MI 48039-2252 US"	"-82.509603"	"42.696745"
"8243"	"99061"	"00437"	"R"	"50"	"SPT VG'S DELI #1934"	"6764 S. RIVER, MARINE CITY MI 48039-2252 US"	"-82.509603"	"42.696745"
"8244"	"99061"	"00435"	"R"	"60"	"SPT VG'S MEAT #1934"	"6764 S. RIVER, MARINE CITY MI 48039-2252 US"	"-82.509603"	"42.696745"
"8397"	"99055"	"00003"	"T"	"70"	"JET'S PIZZA MI-132 (RED)"	"21956 23 MILE RD., MACOMB MI 48044 US"	"-82.894666"	"42.672104"
"867"	"25469"	"00000"	"T"	"150"	"LITTLE CAMILLES"	"51083 WASHINGTON ST, NEW BALTIMORE MI 48047 US"	"-82.735919"	"42.68014"
"8743"	"29934"	"00000"	"T"	"240"	"YOUR MOTHER'S FOOD & SPIRITS"	"61 N. WALNUT, MT. CLEMENS MI 48043 US"	"-82.877892"	"42.598441"
"8954"	"30161"	"00000"	"W"	"110"	"CHARLIES RESTAURANT"	"22315 HARPER AVE, ST. CLAIR SHORES MI 48080 US"	"-82.910669"	"42.460247"
"9277"	"99115"	"00004"	"R"	"250"	"LAKE HURON WOODS"	"5221 LAKE SHORE RD, FORT GRATIOT MI 48059 US"	"-82.463265"	"43.059848"
"9391"	"30536"	"00000"	"M"	"80"	"PARAMOUNT BAKING CO"	"29790 LITTLE MACK, ROSEVILLE MI 48066 US"	"-82.908024"	"42.515495"
"9528"	"99051"	"00017"	"F"	"100"	"JET'S PIZZA MI-019 (RED)"	"37525 HARPER AVE, CLINTON TWP MI 48063 US"	"-82.872114"	"42.572621"
"9550"	"99051"	"00028"	"T"	"200"	"JET'S PIZZA MI-077 (RED)"	"47115 GRATIOT, CHESTERFIELD MI 48051 US"	"-82.854404"	"42.646174"
"9626"	"30715"	"00000"	"F"	"140"	"CLINTON MACOMB PUBLIC LIBRARY"	"35679 S GRATIOT AVE, CLINTON TWP MI 48035 US"	"-82.897893"	"42.559541"
"9630"	"99082"	"00033"	"R"	"80"	"SUNRISE CONV. STORE 18"	"536 S PARKER ST, MARINE CITY MI 48039 US"	"-82.500956"	"42.714"
"9636"	"99082"	"00034"	"R"	"290"	"SUNRISE CONV. STORE 32"	"69050 MAIN ST, RICHMOND MI 48062 US"	"-82.756306"	"42.809936"
"975"	"26469"	"00000"	"W"	"180"	"7-11                          "	"23019 JEFFERSON, ST CLAIR SHORES MI 48080 US"	"-82.882397"	"42.460346"
"9902"	"30941"	"00000"	"W"	"150"	"TRAVIS COFFEE SHOP"	"23500 GREATER MACK, SAINT CLAIR SHORES MI 48080 US"	"-82.897509"	"42.466121"
