""	"Acct #"	"Cust #"	"Week #"	"New Rt"	"New Delivery Day"	"New Stop"	"Customer Name"	"DisplayAddressFull"	"X_Longitude"	"Y_Latitude"
"850"	"531714.0"	"0.0"	"Week1"	"6"	"M"	"1.0"	"THE SOUTHERNER"	"880 HOLLAND ST, SAUGATUCK MI 49453 US"	"-86.201064"	"42.663031"
"851"	"533409.0"	"0.0"	"Week1"	"6"	"M"	"2.0"	"SAUGATUCK FISH CAMP"	"149 GRIFFITH ST, SAUGATUCK MI 49453 US"	"-86.202601"	"42.655591"
"852"	"533378.0"	"0.0"	"Week1"	"6"	"M"	"3.0"	"TAVERNA ROSSA"	"129 GRIFFITH STREET, SAUGATUCK MI 49543 US"	"-86.20259"	"42.655176"
"853"	"532734.0"	"0.0"	"Week1"	"6"	"M"	"4.0"	"TREE OF LIFE JUICES"	"201 CULVER, SAUGATUCK MI 49453 US"	"-86.203867"	"42.654644"
"854"	"532017.0"	"0.0"	"Week1"	"6"	"M"	"5.0"	"GROW"	"302 CULVER ST, SAUGATUCK MI 48453 US"	"-86.202715"	"42.654958"
"855"	"532665.0"	"1.0"	"Week1"	"6"	"M"	"6.0"	"EL JARIPEO"	"106 W. MAIN STREET, FENNVILLE MI 49408 US"	"-86.104138"	"42.59405"
"856"	"514008.0"	"0.0"	"Week1"	"6"	"M"	"7.0"	"BLUE GOOSE CAFE"	"210 E. MAIN, FENNVILLE MI 49408 US"	"-86.103423"	"42.594085"
"857"	"531448.0"	"0.0"	"Week1"	"6"	"M"	"8.0"	"LAS BRAZAS LLC"	"204 E. MAIN ST., FENNVILLE MI 49408 US"	"-86.1035306"	"42.5940169"
"858"	"413698.0"	"2.0"	"Week2"	"6"	"M"	"8.0"	"ALLEGAN CREDIT UNION"	"432 W. MAIN ST, FENNVILLE MI 49408 US"	"-86.1086397"	"42.5945208"
"859"	"524205.0"	"0.0"	"Week1"	"6"	"M"	"9.0"	"FENN VALLEY VINEYARD"	"6130 122ND AVE., FENNVILLE MI 49408 US"	"-86.144032"	"42.577712"
"860"	"531734.0"	"0.0"	"Week1"	"6"	"M"	"10.0"	"SAUGATUCK ANTIQUE PAVILION"	"2948 BLUE STAR HIGHWAY, DOUGLAS MI 49408 US"	"-86.21261"	"42.632182"
"861"	"528759.0"	"0.0"	"Week1"	"6"	"M"	"11.0"	"SAUGATUCK BREWERY"	"2948 BLUESTAR HIGHWAY, DOUGLAS MI 49406 US"	"-86.21261"	"42.632182"
"862"	"532684.0"	"0.0"	"Week1"	"6"	"M"	"12.0"	"CHRISTOS ROADHOUSE"	"2035 BLUE STAR, DOUGLAS MI 49406 US"	"-86.21073695"	"42.63883862"
"863"	"522854.0"	"0.0"	"Week2"	"6"	"M"	"12.0"	"BACK ALLEY PIZZA JOINT"	"22 MAIN ST., DOUGLAS MI 49406 US"	"-86.200673"	"42.644139"
"864"	""	""	"Week1"	"6"	"M"	"13.0"	"WAYPOINT RESTAURANT"	"155 BLUE STAR HWY, DOUGLAS MI 49406 US"	"-86.208705"	"42.640512"
"865"	"514197.0"	"0.0"	"Week1"	"6"	"M"	"14.0"	"LAKESHORE CONVENIENC"	"155 BLUE STAR HIGHWAY, DOUGLAS MI 49406 US"	"-86.208705"	"42.640512"
"866"	"522456.0"	"4.0"	"Week2"	"6"	"M"	"14.0"	"NEW HOLLAND TASTING-SAUGATUCK"	"201 CULVER STREET, SAUGATUCK MI 49453 US"	"-86.203867"	"42.654644"
"867"	"528013.0"	"0.0"	"Week1"	"6"	"M"	"15.0"	"BLUE STAR CAFE"	"141 BLUE STAR HIGHWAY, DOUGLAS MI 49406 US"	"-86.208861"	"42.640759"
"868"	"530519.0"	"0.0"	"Week1"	"6"	"M"	"16.0"	"THE FARMHOUSE DELI"	"100 BLUE STAR HIGHWAY, DOUGLAS MI 49406 US"	"-86.208665"	"42.64205"
"869"	"530404.0"	"0.0"	"Week1"	"6"	"M"	"17.0"	"VICKI'S FAMILY DINER"	"110 BLUE STAR HIGHWAY, DOUGLAS MI 49406 US"	"-86.209807"	"42.641649"
"870"	"531234.0"	"1.0"	"Week2"	"6"	"M"	"17.0"	"COPPERCRAFT TASTING ROOM"	"340 WATER STREET, SAUGATUCK MI 49453 US"	"-86.205674"	"42.657142"
"871"	"530590.0"	"0.0"	"Week1"	"6"	"M"	"18.0"	"PIZZA MAMBO"	"10 1/2 BLUE STARR HIGHWAY, DOUGLAS MI 49406 US"	"-86.207811"	"42.643312"
"872"	"533327.0"	"0.0"	"Week4"	"6"	"M"	"19.0"	"THIRD COAST COMMUNITY CHURCH"	"6069 BLUE STAR HWY, SAUGATUCK MI 49453 US"	"-86.1416773"	"42.6927365"
"873"	"521782.0"	"0.0"	"Week4"	"6"	"M"	"20.0"	"BELVEDERE INN"	"3656 63RD ST, SAUGATUCK MI 49453 US"	"-86.165327"	"42.68562"
"874"	"27828.0"	"9.0"	"Week1"	"6"	"T"	"1.0"	"PEPPINOS PIZZA EXPRESS"	"4647 LAKE MICHIGAN DR, ALLENDALE MI 49401 US"	"-85.900771"	"42.972596"
"875"	"532903.0"	"0.0"	"Week1"	"6"	"T"	"2.0"	"MAIN ST PUB-ALLENDALE"	"11240 UNIVERSITY PKWY, ALLENDALE MI 49401 US"	"-85.906374"	"42.973184"
"876"	"99094.0"	"0.0"	"Week1"	"6"	"T"	"3.0"	"LMCU 75"	"5023 LAKE MICHIGAN DRIVE, ALLENDALE MI 49401 US"	"-85.909743"	"42.972875"
"877"	"27828.0"	"4.0"	"Week1"	"6"	"T"	"4.0"	"PEPPINOS RESTORANTE"	"5065 LAKE MICHIGAN DRIVE, ALLENDALE MI 49401 US"	"-85.911126"	"42.972908"
"878"	"801043.0"	"0.0"	"Week1"	"6"	"T"	"5.0"	"DOMINOES #1043"	"5164 LAKE MICHIGAN DRIVE, ALLENDALE MI 49401 US"	"-85.913197"	"42.971983"
"879"	"99051.0"	"47.0"	"Week1"	"6"	"T"	"6.0"	"JET'S PIZZA MI-156"	"5135 LAKE MICHIGAN DRIVE, ALLENDALE MI 49401 US"	"-85.912909"	"42.973071"
"880"	"99061.0"	"193.0"	"Week1"	"6"	"T"	"7.0"	"SPT FAM FARE GAS STATION #852"	"6380 LK MICHIGAN DR., ALLENDALE MI 49401 US"	"-85.94359"	"42.97181"
"881"	"99161.0"	"193.0"	"Week1"	"6"	"T"	"8.0"	"SPT FAM FARE #852 FIRST AID"	"6380 LK MICHIGAN DR., ALLENDALE MI 49401 US"	"-85.94359"	"42.97181"
"882"	"99061.0"	"315.0"	"Week1"	"6"	"T"	"9.0"	"SPT F. FARE #137 FRONT"	"6370 LAKE MI DR., ALLENDALE MI 49401 US"	"-85.942465"	"42.97099"
"883"	"99161.0"	"315.0"	"Week1"	"6"	"T"	"10.0"	"SPT F. FARE #137 FIRST AID"	"6370 LAKE MI DR., ALLENDALE MI 49401 US"	"-85.942465"	"42.97099"
"884"	"529638.0"	"0.0"	"Week1"	"6"	"T"	"11.0"	"SHELDON MEATS"	"7405 PORT SHELDON RD, HUDSONVILLE MI 49426 US"	"-85.966146"	"42.885721"
"885"	"512008.0"	"0.0"	"Week1"	"6"	"T"	"12.0"	"GEORGETOWN ANIMAL CLINIC"	"2887 PORT SHELDON RD., HUDSONVILLE MI 49426 US"	"-85.853738"	"42.888394"
"886"	"531428.0"	"0.0"	"Week4"	"6"	"T"	"12.0"	"INTERCARE WIC"	"3723 BALDWIN SUITE F, HUDSONVILLE MI 49401 US"	"-85.8756007"	"42.9079845"
"887"	"99059.0"	"2.0"	"Week1"	"6"	"T"	"13.0"	"MR BURGER #6"	"5835 BALSAM DR, HUDSONVILLE MI 49426 US"	"-85.859149"	"42.875533"
"888"	"526639.0"	"0.0"	"Week1"	"6"	"T"	"14.0"	"CATER TO YOU"	"2371 RILEY, HUDSONVILLE MI 49424 US"	"-85.8415762"	"42.825984"
"889"	"532222.0"	"0.0"	"Week1"	"6"	"T"	"15.0"	"SARA'S PIZZA LLC"	"3114 CHICAGO DRIVE, HUDSONVILLE MI 49426 US"	"-85.859244"	"42.871243"
"890"	"528200.0"	"0.0"	"Week2"	"6"	"T"	"15.0"	"HAGER PARK CHURCH"	"2635 BAUER ROAD, JENISON MI 49428 US"	"-85.848235"	"42.922732"
"891"	"528348.0"	"0.0"	"Week1"	"6"	"T"	"16.0"	"GREAT LAKES CHINESE REST"	"6450 28TH AVE, HUDSONVILLE MI 49426 US"	"-85.850381"	"42.886537"
"892"	"99061.0"	"322.0"	"Week1"	"6"	"T"	"17.0"	"SPT F. FARE #239 FRONT"	"6480 28TH AVE., HUDSONVILLE MI 49426 US"	"-85.850303"	"42.886961"
"893"	"99061.0"	"323.0"	"Week1"	"6"	"T"	"18.0"	"SPT F. FARE #239 MEAT"	"6480 28TH AVE., HUDSONVILLE MI 49426 US"	"-85.850303"	"42.886961"
"894"	"99061.0"	"324.0"	"Week1"	"6"	"T"	"19.0"	"SPT F. FARE #239 BAKERY"	"6480 28TH AVE., HUDSONVILLE MI 49426 US"	"-85.850303"	"42.886961"
"895"	"99061.0"	"325.0"	"Week1"	"6"	"T"	"20.0"	"SPT F. FARE #239 DELI"	"6480 28TH AVE., HUDSONVILLE MI 49426 US"	"-85.850303"	"42.886961"
"896"	"99061.0"	"326.0"	"Week1"	"6"	"T"	"21.0"	"SPT F. FARE #239 PRODUCE"	"6480 28TH AVE., HUDSONVILLE MI 49426 US"	"-85.850303"	"42.886961"
"897"	"99161.0"	"322.0"	"Week1"	"6"	"T"	"22.0"	"SPT FFARE #239 FIRST AID"	"6480 28TH AVE., HUDSONVILLE MI 49426 US"	"-85.850303"	"42.886961"
"898"	"99061.0"	"198.0"	"Week1"	"6"	"T"	"23.0"	"SPT F. FARE QUICK STOP #854"	"2760 PORT SHELDON, JENISON MI 49428 US"	"-85.8495572"	"42.8870958"
"899"	"99161.0"	"198.0"	"Week1"	"6"	"T"	"24.0"	"SPT FFARE #854 FIRST AID"	"2760 PORT SHELDON, JENISON MI 49428 US"	"-85.8495572"	"42.8870958"
"900"	"599000.0"	"3.0"	"Week1"	"6"	"T"	"25.0"	"NEW BEGINNINGS REST."	"2722 PORT SHELDON, JENISON MI 49426 US"	"-85.848699"	"42.88719"
"901"	"530650.0"	"0.0"	"Week1"	"6"	"T"	"26.0"	"GREAT LAKES SYSTEMS"	"2286 PORT SHELDON COURT, JENISON MI 49428 US"	"-85.841195"	"42.8832792"
"902"	"529793.0"	"0.0"	"Week1"	"6"	"T"	"27.0"	"OIL PRO"	"2656 PORT SHELDON ST., JENISON MI 49428 US"	"-85.848036"	"42.887223"
"903"	"99117.0"	"64.0"	"Week1"	"6"	"T"	"28.0"	"WESCO #66"	"7661 36TH AVENUE, HUDSONVILLE MI 49426 US"	"-85.873253"	"42.90834"
"904"	"530405.0"	"1.0"	"Week1"	"6"	"T"	"29.0"	"LICARI'S SICILIAN KITCHEN-WEST"	"3627 BALDWIN STREET, HUDSONVILLE MI 49426 US"	"-85.873269"	"42.907793"
"905"	"99051.0"	"42.0"	"Week1"	"6"	"T"	"30.0"	"JET'S PIZZA MI-140"	"3735 BALDWIN STREET, HUDSONVILLE MI 49426 US"	"-85.875853"	"42.908088"
"906"	"99061.0"	"53.0"	"Week1"	"6"	"T"	"31.0"	"FAMILY FARE #1589 MEAT"	"1965 BALDWIN ST., JENISON MI 49428 US"	"-85.831389"	"42.90852"
"907"	"99061.0"	"54.0"	"Week1"	"6"	"T"	"32.0"	"FAMILY FARE 1589 CUSTOMER SVC"	"1965 BALDWIN ST., JENISON MI 49428 US"	"-85.831389"	"42.90852"
"908"	"99161.0"	"53.0"	"Week1"	"6"	"T"	"33.0"	"FAM FARE #1589 MEAT FIRST AID"	"1965 BALDWIN ST., JENISON MI 49428 US"	"-85.831389"	"42.90852"
"909"	"532224.0"	"1.0"	"Week1"	"6"	"T"	"34.0"	"WESTERN MICHIGAN PEDIATRICS"	"1865 GEORGETOWN CENTER SUITE A, JENISON MI 49428 US"	"-85.828461"	"42.910448"
"910"	"532739.0"	"0.0"	"Week1"	"6"	"T"	"35.0"	"THE WIN"	"7628 GEORGETOWN CENTER DR, JENISON MI 49428 US"	"-85.82822"	"42.908121"
"911"	"532665.0"	"3.0"	"Week1"	"6"	"T"	"36.0"	"LOS RANCHOS"	"1814 BALWIN STREET, JENISON MI 49428 US"	"-85.827551"	"42.906588"
"912"	"99094.0"	"15.0"	"Week2"	"6"	"T"	"36.0"	"LMCU 85"	"4100 32ND AVE, HUDSONVILLE MI 49426 US"	"-85.860888"	"42.842549"
"913"	"532739.0"	"1.0"	"Week1"	"6"	"T"	"37.0"	"BIRD DOG'S"	"672 BALDWIN STREET, JENISON MI 49428 US"	"-85.798377"	"42.906787"
"914"	"99094.0"	"34.0"	"Week1"	"6"	"T"	"38.0"	"LMCU 81"	"7409 COTTONWOOD DR, JENISON MI 49428 US"	"-85.793299"	"42.903956"
"915"	"531599.0"	"0.0"	"Week2"	"6"	"T"	"38.0"	"DOGGONE SPOILED"	"6837 11TH AVE, JENISON MI 49428 US"	"-85.81044"	"42.893265"
"916"	"99094.0"	"52.0"	"Week1"	"6"	"W"	"1.0"	"LMCU 369"	"8630 BYRON ROAD, ZEELAND MI 49464 US"	"-85.993902"	"42.812045"
"917"	"533002.0"	"0.0"	"Week2"	"6"	"W"	"1.0"	"STROMBOLIS"	"6210 96TH AVE, ZEELAND MI 49464 US"	"-86.020603"	"42.881547"
"918"	"529567.0"	"0.0"	"Week3"	"6"	"W"	"1.0"	"BORCULO EXPRESS"	"6210 96TH STREET, ZEELAND MI 49464 US"	"-86.020603"	"42.881547"
"919"	"99054.0"	"25.0"	"Week4"	"6"	"W"	"1.0"	"CHARTER COMMUNICATION"	"12956 68TH AVE., ALLENDALE MI 49401 US"	"-85.953565"	"43.00412"
"920"	"99100.0"	"1.0"	"Week1"	"6"	"W"	"2.0"	"AAC CU-ZEELAND"	"612 E. MAIN, ZEELAND MI 49464 US"	"-86.004284"	"42.812105"
"921"	"533428.0"	"0.0"	"Week1"	"6"	"W"	"3.0"	"STREATS TACO KITCHEN"	"14 S. ELM STREET, ZEELAND MI 49464 US"	"-86.016851"	"42.811762"
"922"	"533083.0"	"0.0"	"Week1"	"6"	"W"	"4.0"	"VITALES ZEELAND"	"59 W. WASHINGTON, ZEELAND MI 49464 US"	"-86.020937"	"42.814349"
"923"	"528081.0"	"0.0"	"Week2"	"6"	"W"	"4.0"	"FRANKS RESTAURANT"	"134 E MAIN AVE, ZEELAND MI 49464 US"	"-86.015082"	"42.812125"
"924"	"530448.0"	"0.0"	"Week1"	"6"	"W"	"5.0"	"THE WOODEN SHOE"	"441 US HIGHWAY 31, HOLLAND MI 49423 US"	"-86.079659"	"42.781195"
"925"	"521551.0"	"0.0"	"Week2"	"6"	"W"	"5.0"	"ZEELAND PRINT SHOP"	"145 E MAIN ST, ZEELAND MI 49464 US"	"-86.0148249"	"42.8125793"
"926"	"521028.0"	"0.0"	"Week1"	"6"	"W"	"6.0"	"HAWORTH"	"1 HAWORTH CENTER, HOLLAND MI 49423 US"	"-86.084669"	"42.750824"
"927"	"99033.0"	"198.0"	"Week1"	"6"	"W"	"7.0"	"EUREST-HAWORTH 22148"	"1 HAWORTH CENTER DR, HOLLAND MI 49423 US"	"-86.084669"	"42.750824"
"928"	"99088.0"	"8.0"	"Week1"	"6"	"W"	"8.0"	"CONSUMERS CONCRETE-HOLLAND"	"4312 M-40, HOLLAND MI 49423 US"	"-86.0648622"	"42.7334543"
"929"	"523800.0"	"1.0"	"Week1"	"6"	"W"	"9.0"	"JOEZANO'S PIZZA"	"3606 LINCOLN RD, HAMILTON MI 49419 US"	"-85.999457"	"42.67152799"
"930"	"428373.0"	"1.0"	"Week1"	"6"	"W"	"10.0"	"ADVANCED ARCHITECTURAL PRODUCT"	"3393 LINCOLN ROAD, HAMILTON MI 49419 US"	"-85.9911515"	"42.6650591"
"931"	"532354.0"	"0.0"	"Week4"	"6"	"W"	"10.0"	"HAMILTON FIRE DEPARTMENT"	"3440 M-40, HAMILTON MI 49419 US"	"-85.9978755"	"42.6694523"
"932"	"518364.0"	"0.0"	"Week1"	"6"	"W"	"11.0"	"TRESTLE STOP"	"3366 M-40, HAMILTON MI 49419 US"	"-85.9924248"	"42.6640568"
"933"	"529386.0"	"0.0"	"Week1"	"6"	"W"	"12.0"	"STAR TRUCK HOLLAND"	"719 96TH ST, HOLLAND MI 49424 US"	"-86.0191608"	"42.7815645"
"934"	"521637.0"	"0.0"	"Week1"	"6"	"R"	"1.0"	"HOLLAND ELKS LODGE #1315"	"569 E 24TH ST, HOLLAND MI 49423 US"	"-86.082481"	"42.776517"
"935"	""	""	"Week2"	"6"	"R"	"1.0"	"CBRE"	"915 E. 32ND DOCK #20, HOLLAND MI 49423 US"	"-86.0743533"	"42.7709017"
"936"	"99100.0"	"4.0"	"Week1"	"6"	"R"	"2.0"	"AAC CU-SOUTH HOLLAND"	"215 E 25TH, HOLLAND MI 49423 US"	"-86.097457"	"42.775166"
"937"	"533410.0"	"0.0"	"Week2"	"6"	"R"	"2.0"	"OVERISEL LUMBER"	"573 E. 32ND ST, HOLLAND MI 49423 US"	"-86.080941"	"42.769068"
"938"	"531114.0"	"0.0"	"Week4"	"6"	"R"	"2.0"	"MARLENA'S BISTRO & PIZZERIA"	"909 LINCOLN AVE, HOLLAND MI 49423 US"	"-86.096772"	"42.764328"
"939"	"99061.0"	"304.0"	"Week1"	"6"	"R"	"3.0"	"SPT F. FARE #123 FRONT"	"1185 S. WASHINGTON, HOLLAND MI 49423 US"	"-86.114245"	"42.756334"
"940"	"99061.0"	"305.0"	"Week1"	"6"	"R"	"4.0"	"SPT F. FARE #123 PRODUCE"	"1185 S. WASHINGTON, HOLLAND MI 49423 US"	"-86.114245"	"42.756334"
"941"	"99061.0"	"306.0"	"Week1"	"6"	"R"	"5.0"	"SPT F. FARE #123 MEAT"	"1185 S. WASHINGTON, HOLLAND MI 49423 US"	"-86.114245"	"42.756334"
"942"	"99061.0"	"307.0"	"Week1"	"6"	"R"	"6.0"	"SPT F. FARE #123 BAKERY"	"1185 S. WASHINGTON, HOLLAND MI 49423 US"	"-86.114245"	"42.756334"
"943"	"99061.0"	"308.0"	"Week1"	"6"	"R"	"7.0"	"SPT F. FARE #123 DELI"	"1185 S. WASHINGTON, HOLLAND MI 49423 US"	"-86.114245"	"42.756334"
"944"	"99161.0"	"304.0"	"Week1"	"6"	"R"	"8.0"	"SPT F. FARE #123 FIRST AID"	"1185 S. WASHINGTON, HOLLAND MI 49423 US"	"-86.114245"	"42.756334"
"945"	"99161.0"	"187.0"	"Week1"	"6"	"R"	"9.0"	"SPT FAM FARE #835 FIRST AID"	"1149 S. Washington, HOLLAND MI 49423 US"	"-86.115659"	"42.757435"
"946"	"499014.0"	"17.0"	"Week3"	"6"	"R"	"9.0"	"RX OPTICAL"	"1148 SOUTH WASHINGTO, HOLLAND MI 49423 US"	"-86.117162"	"42.756955"
"947"	"99061.0"	"187.0"	"Week1"	"6"	"R"	"10.0"	"SPT FAM FARE GAS STAT 835"	"1149 S. WASHINGTON, HOLLAND MI 49423 US"	"-86.115659"	"42.757435"
"948"	"886085.0"	"6088.0"	"Week1"	"6"	"R"	"11.0"	"GOODWILL HOLLAND #238"	"1180 S. WASHINGTON AVE., HOLLAND MI 49423 US"	"-86.117439"	"42.755837"
"949"	"99051.0"	"40.0"	"Week1"	"6"	"R"	"12.0"	"JET'S PIZZA MI-134"	"1013 S WASHINGTON, HOLLAND MI 49423 US"	"-86.1159"	"42.760831"
"950"	"533101.0"	"4.0"	"Week1"	"6"	"R"	"13.0"	"BIGGBY #409"	"1000 WASHINGTON AVE, HOLLAND MI 49423 US"	"-86.117158"	"42.76119"
"951"	"99045.0"	"14.0"	"Week3"	"6"	"R"	"13.0"	"CONSUMERS CREDIT UNION"	"1037 S WASHINGTON AVE, HOLLAND MI 49423 US"	"-86.115882"	"42.76021"
"952"	"518364.0"	"1.0"	"Week1"	"6"	"R"	"14.0"	"SOUTHSIDE INN"	"192 W. 35TH ST., HOLLAND MI 49068 US"	"-86.115554"	"42.765015"
"953"	"529712.0"	"0.0"	"Week2"	"6"	"R"	"14.0"	"DONUTVILLE"	"676 MICHIGAN AVE., HOLLAND MI 49423 US"	"-86.11505"	"42.771881"
"954"	"99113.0"	"2.0"	"Week4"	"6"	"R"	"14.0"	"532@SOUTH SHORE MACATAWA"	"532 16TH STREET, HOLLAND MI 49423 US"	"-86.131447"	"42.782684"
"955"	"531708.0"	"0.0"	"Week1"	"6"	"R"	"15.0"	"THE PAISLEY PIG"	"1642 S. SHORE DR, HOLLAND MI 49423 US"	"-86.176295"	"42.774177"
"956"	"99143.0"	"0.0"	"Week2"	"6"	"R"	"15.0"	"OB/GYN ASSOCIATES OF HOLLAND"	"664 MICHIGAN, HOLLAND MI 49423 US"	"-86.114779"	"42.772416"
"957"	"525346.0"	"0.0"	"Week1"	"6"	"R"	"16.0"	"VELO-CITY"	"326 RIVER AVE., HOLLAND MI 49423 US"	"-86.109268"	"42.785213"
"958"	"529751.0"	"0.0"	"Week4"	"6"	"R"	"16.0"	"LA CONSENTIDA SUPERMARKET"	"676 MICHIGAN AVE., HOLLAND MI 49423 US"	"-86.11505"	"42.771881"
"959"	"523291.0"	"0.0"	"Week1"	"6"	"R"	"17.0"	"WINDMILL RESTAURANT"	"28 W. 8TH STREET, HOLLAND MI 48116 US"	"-86.108501"	"42.79"
"960"	"533181.0"	"0.0"	"Week1"	"6"	"R"	"18.0"	"SPERRY MOVIEHOUSE-HOLLAND"	"102 W EIGHT STREET, HOLLAND MI 49423 US"	"-86.1118528"	"42.7899407"
"961"	"533101.0"	"5.0"	"Week1"	"6"	"R"	"19.0"	"BIGGBY-COLLEGE AVE"	"225 COLLEGE AVE, HOLLAND MI 49423 US"	"-86.103107"	"42.788976"
"962"	"99145.0"	"5.0"	"Week4"	"6"	"R"	"19.0"	"FIRST NATIONAL BANK-HOLLAND"	"1 W 8TH, HOLLAND MI 49423 US"	"-86.1074783"	"42.7905685"
"963"	"522456.0"	"0.0"	"Week1"	"6"	"R"	"20.0"	"NEW HOLLAND BREWING CO."	"66 E. 8TH, HOLLAND MI 49423 US"	"-86.10413"	"42.790101"
"964"	"522456.0"	"1.0"	"Week1"	"6"	"R"	"21.0"	"NEW HOLLAND BREW SIDE CAR"	"66 E. 8TH, HOLLAND MI 49423 US"	"-86.10413"	"42.790101"
"965"	"530605.0"	"0.0"	"Week1"	"6"	"R"	"22.0"	"OUR BREWING COMPANY"	"76 E 8TH STREET, HOLLAND MI 49423 US"	"-86.103753"	"42.790121"
"966"	"531315.0"	"0.0"	"Week1"	"6"	"R"	"23.0"	"6PM HOSPITALITY PARTNERS"	"61 EAST 7TH STREET, HOLLAND MI 49423 US"	"-86.104742"	"42.79143"
"967"	"531315.0"	"0.0"	"Week1"	"6"	"R"	"24.0"	"6PM HOSPITALITY PARTNERS"	"61 EAST 7TH STREET, HOLLAND MI 49423 US"	"-86.104742"	"42.79143"
"968"	"532481.0"	"0.0"	"Week1"	"6"	"R"	"25.0"	"BIG LAKE BREWING"	"13 WEST 7TH ST, HOLLAND MI 49423 US"	"-86.107919"	"42.791485"
"969"	"532891.0"	"0.0"	"Week1"	"6"	"R"	"26.0"	"WAVERLY STONE PUB"	"20 W 8TH, HOLLAND MI 49423 US"	"-86.108258"	"42.790049"
"970"	"530608.0"	"0.0"	"Week1"	"6"	"R"	"27.0"	"SCRAP YARD LOFTS"	"148 S RIVER SUITE 200, HOLLAND MI 49423 US"	"-86.1091217"	"42.79187"
"971"	"530728.0"	"0.0"	"Week1"	"6"	"R"	"28.0"	"SUPERMERCADO LE EXCELENCIA"	"305 N RIVER AVE, HOLLAND MI 49424 US"	"-86.115533"	"42.806916"
"972"	"518392.0"	"0.0"	"Week1"	"6"	"R"	"29.0"	"JAMES ST INN"	"255 JAMES, HOLLAND MI 49423 US"	"-86.119292"	"42.812515"
"973"	"521059.0"	"0.0"	"Week1"	"6"	"R"	"30.0"	"INTERCARE COMM DENTAL"	"285 JAMES ST, HOLLAND MI 49424 US"	"-86.120119"	"42.812629"
"974"	"27828.0"	"1.0"	"Week1"	"6"	"R"	"31.0"	"PEPPINOS PIZZA 6"	"977 BUTTERNUT DRIVE, HOLLAND MI 49424 US"	"-86.135118"	"42.828129"
"975"	"532647.0"	"0.0"	"Week1"	"6"	"R"	"32.0"	"LEMON GRASS"	"977 BUTTERNUT, HOLLAND MI 49424 US"	"-86.135118"	"42.828129"
"976"	"99061.0"	"297.0"	"Week1"	"6"	"R"	"33.0"	"SPT. F. FARE #122 MEAT"	"993 BUTTERNUT DR., HOLLAND MI 49424 US"	"-86.136685"	"42.828971"
"977"	"99061.0"	"298.0"	"Week1"	"6"	"R"	"34.0"	"SPT F. FARE #122 DELI"	"993 BUTTERNUT DR., HOLLAND MI 49424 US"	"-86.136685"	"42.828971"
"978"	"99061.0"	"186.0"	"Week1"	"6"	"R"	"35.0"	"SPT FAMILY FARE GAS STAT 122"	"993 BUTTERNUT DR., HOLLAND MI 49424 US"	"-86.136685"	"42.828971"
"979"	"99161.0"	"186.0"	"Week1"	"6"	"R"	"36.0"	"SPT F. FARE GAS #22 FIRST AID"	"993 BUTTERNUT DR., HOLLAND MI 49424 US"	"-86.136685"	"42.828971"
"980"	"99161.0"	"298.0"	"Week1"	"6"	"R"	"37.0"	"SPT F. FARE 122 FIRST AID"	"993 BUTTERNUT DR, HOLLAND MI 49424 US"	"-86.136685"	"42.828971"
"981"	"99031.0"	"36.0"	"Week1"	"6"	"R"	"38.0"	"BLARNEY CASTLE 752"	"945 BUTTERNUT DR., HOLLAND MI 49424 US"	"-86.133272"	"42.826414"
"982"	"532137.0"	"2.0"	"Week1"	"6"	"R"	"39.0"	"TAQUERIA ARANDAS"	"98 DOUGLAS, HOLLAND MI 49424 US"	"-86.111668"	"42.802059"
"983"	"99135.0"	"3.0"	"Week1"	"6"	"R"	"40.0"	"FIREHOUSE SUBS-DOUGLAS"	"90 DOUGLAS AVE, HOLLAND MI 49422 US"	"-86.111364"	"42.802288"
"984"	"99061.0"	"24.0"	"Week1"	"6"	"R"	"41.0"	"D&W 1574 PRODUCE"	"50 DOUGLAS AVE., HOLLAND MI 49424 US"	"-86.108418"	"42.803021"
"985"	"99061.0"	"25.0"	"Week1"	"6"	"R"	"42.0"	"D&W 1574 BAKERY"	"50 DOUGLAS AVE., HOLLAND MI 49424 US"	"-86.108418"	"42.803021"
"986"	"99061.0"	"26.0"	"Week1"	"6"	"R"	"43.0"	"D&W 1574 MEAT"	"50 DOUGLAS AVE., HOLLAND MI 49424 US"	"-86.108418"	"42.803021"
"987"	"99061.0"	"79.0"	"Week1"	"6"	"R"	"44.0"	"D&W 1574 DELI"	"50 DOUGLAS AVE., HOLLAND MI 49424 US"	"-86.108418"	"42.803021"
"988"	"99061.0"	"80.0"	"Week1"	"6"	"R"	"45.0"	"D&W 1574 FRONT"	"50 DOUGLAS AVE., HOLLAND MI 49424 US"	"-86.108418"	"42.803021"
"989"	"99161.0"	"24.0"	"Week1"	"6"	"R"	"46.0"	"D&W 1574 FIRST AID"	"50 DOUGLAS AVE., HOLLAND MI 49424 US"	"-86.108418"	"42.803021"
"990"	"533101.0"	"1.0"	"Week1"	"6"	"R"	"47.0"	"BIGGBY #340"	"65 DOUGLAS AVE, HOLLAND MI 49424 US"	"-86.110183"	"42.804234"
"991"	"99117.0"	"6.0"	"Week1"	"6"	"R"	"48.0"	"WESCO #4"	"14 W. LAKEWOOD, HOLLAND MI 49424 US"	"-86.107771"	"42.805032"
"992"	"530483.0"	"0.0"	"Week2"	"6"	"R"	"48.0"	"MI FAVORITA GROCERY"	"408 COLUMBIA AVE, HOLLAND MI 49423 US"	"-86.100544"	"42.782348"
"993"	"530254.0"	"0.0"	"Week1"	"6"	"R"	"49.0"	"THE DOGHOUSE RESORT & SPA"	"32 E LAKEWOOD AVE, HOLLAND MI 49424 US"	"-86.106493"	"42.804953"
"994"	"499014.0"	"63.0"	"Week2"	"6"	"R"	"49.0"	"RX OPTICAL"	"590 E. 16TH STREET SUITE #20, HOLLAND MI 49423 US"	"-86.08173"	"42.782867"
"995"	""	""	"Week1"	"6"	"R"	""	"Grand Rapids Depot"	"3440 3 Mile Rd NW, Grand Rapids, MI 49534,  49534 US"	"-85.754724"	"43.015275"
"996"	"531014.0"	"2.0"	"Week1"	"6"	"F"	"1.0"	"ELECTRIC HERO-HOLLAND"	"683 CHICAGO DRIVE, HOLLAND MI 49423 US"	"-86.078293"	"42.797897"
"997"	"532665.0"	"0.0"	"Week1"	"6"	"F"	"2.0"	"TAQUERIA VALLARTA"	"275 E 8TH, HOLLAND MI 49423 US"	"-86.095214"	"42.790672"
"998"	"518352.0"	"0.0"	"Week1"	"6"	"F"	"3.0"	"SKILES TAVERN"	"154 E. 8TH ST., HOLLAND MI 49842 US"	"-86.100551"	"42.790161"
"999"	"99094.0"	"27.0"	"Week1"	"6"	"F"	"4.0"	"LMCU 86"	"677 E. 8TH ST SW, HOLLAND MI 49423 US"	"-86.078335"	"42.790932"
"1000"	"533101.0"	"3.0"	"Week1"	"6"	"F"	"5.0"	"BIGGBY #335"	"660 CHICAGO DR, HOLLAND MI 49423 US"	"-86.078256"	"42.796419"
"1001"	"882688.0"	"2690.0"	"Week1"	"6"	"F"	"6.0"	"CUISINE ARTS HOLLAND STORE"	"660 CHICAGO DRIVE, HOLLAND MI 49423 US"	"-86.078256"	"42.796419"
"1002"	"99143.0"	"1.0"	"Week2"	"6"	"F"	"6.0"	"OB/GYN ASSOCIATES OF HOLLAND"	"3290 N. WELLNESS DRIVE, HOLLAND MI 49424 US"	"-86.085984"	"42.828401"
"1003"	"531234.0"	"0.0"	"Week1"	"6"	"F"	"7.0"	"COPPERCRAFT DISTILLERY"	"184 120TH AVE, HOLLAND MI 49424 US"	"-86.078762"	"42.803006"
"1004"	"521344.0"	"0.0"	"Week1"	"6"	"F"	"8.0"	"MED-1"	"383 GARDEN AVE, HOLLAND MI 49424-9602 US"	"-86.076325"	"42.809263"
"1005"	"99094.0"	"14.0"	"Week2"	"6"	"F"	"8.0"	"LMCU 388"	"3493 WEST SHORE DRIVE, HOLLAND MI 49424 US"	"-86.094527"	"42.831722"
"1006"	"99100.0"	"5.0"	"Week1"	"6"	"F"	"9.0"	"AAC CU-HOLLAND NORTH"	"12390 RILEY, HOLLAND MI 49424 US"	"-86.087823"	"42.826065"
"1007"	"99079.0"	"17.0"	"Week1"	"6"	"F"	"10.0"	"RED ROBIN #496"	"3379 WEST SHORE DRIVE, HOLLAND MI 49424 US"	"-86.094147"	"42.829775"
"1008"	"99133.0"	"3.0"	"Week1"	"6"	"F"	"11.0"	"LOGAN'S ROAD HOUSE"	"3299 W SHORE DR, HOLLAND MI 49424 US"	"-86.093585"	"42.828256"
"1009"	"532736.0"	"0.0"	"Week1"	"6"	"F"	"12.0"	"TROPICAL SMOOTHIE-HOLLAND"	"3155 W SHORE DRIVE, HOLLAND MI 49424 US"	"-86.092769"	"42.825412"
"1010"	"99054.0"	"35.0"	"Week2"	"6"	"F"	"12.0"	"CHARTER COMMUNICATIONS"	"12719 RILEY ST, HOLLAND MI 49424 US"	"-86.09656"	"42.827558"
"1011"	"499014.0"	"45.0"	"Week1"	"6"	"F"	"13.0"	"RX OPTICAL"	"12659 RILEY ST., HOLLAND MI 49423 US"	"-86.095288"	"42.82806"
"1012"	"99045.0"	"1.0"	"Week2"	"6"	"F"	"13.0"	"CONSUMERS CREDIT UNION"	"12705 RILEY ST, HOLLAND MI 49424 US"	"-86.095856"	"42.826937"
"1013"	"533101.0"	"7.0"	"Week1"	"6"	"F"	"14.0"	"BIGGBY #830"	"12719 RILEY ST SUITE 10, HOLLAND MI 49424 US"	"-86.09656"	"42.827558"
"1014"	"532386.0"	"0.0"	"Week2"	"6"	"F"	"14.0"	"DON MIGUEL"	"1011 136TH STREET, HOLLAND MI 49424 US"	"-86.116844"	"42.828055"
"1015"	"99031.0"	"35.0"	"Week1"	"6"	"F"	"15.0"	"BLARNEY CASTLE 576"	"12481 JAMES ST., HOLLAND MI 49424 US"	"-86.090107"	"42.812543"
"1016"	"99054.0"	"23.0"	"Week2"	"6"	"F"	"15.0"	"CHARTER COMMUNICATION"	"110 JAMES ST., HOLLAND MI 49424 US"	"-86.11217"	"42.81148"
"1017"	"886085.0"	"6081.0"	"Week1"	"6"	"F"	"16.0"	"GOODWILL HOLLAND #231"	"393 E.LAKEWOOD BLVD., HOLLAND MI 49424 US"	"-86.091211"	"42.805274"
"1018"	"99095.0"	"7.0"	"Week4"	"6"	"F"	"16.0"	"SALVATION ARMY-HOLLAND"	"12579 FELCH, HOLLAND MI 49424 US"	"-86.092552"	"42.819741"
"1019"	"531844.0"	"0.0"	"Week1"	"6"	"F"	"17.0"	"RAMIREZ BAKERY"	"361 E. LAKEWOOD, HOLLDAN MI 49424 US"	"-86.093065"	"42.8049767"
"1020"	"529884.0"	"0.0"	"Week3"	"6"	"F"	"17.0"	"TACO FIESTA"	"11972 LAKEWOOD BLVD., HOLLAND MI 49424 US"	"-86.077248"	"42.804579"
"1021"	"533167.0"	"0.0"	"Week1"	"6"	"F"	"18.0"	"SALT & PEPPER"	"11539 E LAKEWOOD BLVD SUITE 50, HOLLAND MI 49424 US"	"-86.06636"	"42.805576"
"1022"	"99051.0"	"44.0"	"Week1"	"6"	"F"	"19.0"	"JET'S PIZZA MI-147"	"11190 CHICAGO DR, ZEELAND MI 49464 US"	"-86.057237"	"42.80435"
"1023"	"533101.0"	"2.0"	"Week1"	"6"	"F"	"20.0"	"BIGGBY #470"	"501 W. MAIN, ZEELAND MI 49464 US"	"-86.034021"	"42.812786"
"1024"	"530825.0"	"0.0"	"Week1"	"6"	"F"	"21.0"	"THE FARMHOUSE"	"430 W WASHINGTON AVE, ZEELAND MI 49464 US"	"-86.031124"	"42.812889"
"1025"	"99061.0"	"184.0"	"Week1"	"6"	"F"	"22.0"	"SPT. FAMILY FARE GAS STAT 832"	"3260 96TH AVENUE, ZEELAND MI 49464 US"	"-86.018755"	"42.8280267"
"1026"	"528745.0"	"0.0"	"Week1"	"6"	"F"	"23.0"	"CHINATOWN"	"9479 RILEY ST, ZEELAND MI 49464 US"	"-86.016491"	"42.827686"
"1027"	"99061.0"	"335.0"	"Week1"	"6"	"F"	"24.0"	"SPT. FF #108 MEAT"	"9479 RILEY ST., ZEELAND MI 49464 US"	"-86.016491"	"42.827686"
"1028"	"99061.0"	"336.0"	"Week1"	"6"	"F"	"25.0"	"SPT FF #108 BAKERY"	"9479 RILEY ST., ZEELAND MI 49464 US"	"-86.016491"	"42.827686"
"1029"	"99061.0"	"337.0"	"Week1"	"6"	"F"	"26.0"	"SPT. FF #108 PRODUCE"	"9479 RILEY ST., ZEELAND MI 49464 US"	"-86.016491"	"42.827686"
"1030"	"99061.0"	"338.0"	"Week1"	"6"	"F"	"27.0"	"SPT. FF #108 DELI"	"9479 RILEY ST., ZEELAND MI 49464 US"	"-86.016491"	"42.827686"
"1031"	"99161.0"	"335.0"	"Week1"	"6"	"F"	"28.0"	"SPT. FF #108 FIRST AID"	"9479 RILEY ST., ZEELAND MI 49464 US"	"-86.016491"	"42.827686"
"1032"	""	""	"Week1"	"6"	"F"	""	"Grand Rapids Depot"	"3440 3 Mile Rd NW, Grand Rapids, MI 49534,  49534 US"	"-85.754724"	"43.015275"
