"cu_id"	"Account"	"Customer"	"New Delivery Day"	"Alliant Sequence"	"Customer Name"	"Address"	"X_Longitude"	"Y_Latitude"
"10060"	"231079"	"00000"	"M"	"210"	"NMCAA MANTON HS"	"110 5TH STREET, MANTON MI 49663 US"	"-85.3968603"	"44.4054588"
"10062"	"231079"	"00003"	"T"	"280"	"NMCAA MISSAUKEE HS"	"1751 S MOREY RD, LAKE CITY MI 49651 US"	"-85.2144533"	"44.3129283"
"10128"	"231139"	"00000"	"M"	"150"	"TORCH LAKE TOWNSHIP"	"2355 N US 31, KEWADIN MI 49648 US"	"-85.35925"	"45.068013"
"10188"	"231191"	"00000"	"R"	"180"	"HABITAT RESTORE"	"7545 E 34 RD, CADILLAC MI 49601 US"	"-85.426494"	"44.281678"
"10232"	"231231"	"00000"	"M"	"160"	"ANDERSON FAMILY ENT. INC."	"13703 CAMPBELL RD, KEWADIN MI 49648 US"	"-85.368762"	"44.958963"
"10420"	"231382"	"00000"	"M"	"140"	"MAHNKE MACHINE"	"661 R.W. HARRIS DRIVE, MANTON MI 49663 US"	"-85.3914"	"44.4207167"
"10505"	"231446"	"00000"	"W"	"230"	"BC PIZZA ROSCOMMON"	"800 LAKE ST., ROSCOMMON MI 48653 US"	"-84.591886"	"44.498439"
"10687"	"99031"	"00111"	"F"	"70"	"BLARNEY CASTLE EZ MART 530"	"701 N 1ST STREET, HARRISON MI 48625-8429 US"	"-84.804067"	"44.026139"
"10816"	"231651"	"00000"	"R"	"480"	"CURRY HOUSE"	"5858 S. 47 RD, CADILLAC MI 49601 US"	"-85.356699"	"44.255232"
"11140"	"231791"	"00000"	"W"	"210"	"W&W USED AUTO PARTS"	"1756 E. MICHIGAN HIGHWAY, ROSCOMMON MI 48653 US"	"-84.5750153"	"44.5108418"
"11152"	"231801"	"00000"	"T"	"140"	"AUTUMN VISTA DAIRY"	"1150 W. STONEY CORNERS, MCBAIN MI 49657 US"	"-85.1161265"	"44.1940483"
"11246"	"131866"	"00000"	"F"	"80"	"COMMUNITY MENTAL HEALTH"	"789 CLARE AVE, HARRISON MI 48625 US"	"-84.76772016"	"43.97715247"
"11255"	"99058"	"00038"	"W"	"260"	"FORWARDS UNIT 15"	"10040 N. ROSCOMMON, ROSCOMMON MI 48653 US"	"-84.596387"	"44.480397"
"11267"	"231874"	"00000"	"T"	"100"	"NORTHERN TRUCK SERVICE"	"6170 W GERWOUDE DR, MCBAIN MI 49657 US"	"-85.2165443"	"44.2024523"
"11281"	"99031"	"00136"	"M"	"80"	"BLARNEY CASTLE EZ MART 260"	"611 E. CAYUGA, BELLAIRE MI 49615 US"	"-85.199575"	"44.975774"
"11371"	"231953"	"00000"	"F"	"330"	"JD'S OLD TOWN TAVERN"	"1741 HEIGHTSVIEW, HOUGHTON LAKE HEIGHT MI 48630 US"	"-84.7800561998505"	"44.3295504395463"
"11387"	"231967"	"00000"	"T"	"150"	"ELLENS EQUIPMENT"	"5297 W. STONEY CORNERS, MCBAIN MI 49675 US"	"-85.19818"	"44.192764"
"11560"	"232092"	"00000"	"T"	"430"	"LAKE CITY PRIMARY CARE"	"1866 S. MOREY, LAKE CITY MI 49651 US"	"-85.215644"	"44.311771"
"11561"	"232093"	"00000"	"W"	"210"	"RANDY'S FAMILY RESTAURANT"	"677 E. HOUGHTON LAKE RD, PRUDENVILLE MI 48651 US"	"-84.631495"	"44.313162"
"11675"	"232158"	"00000"	"R"	"10"	"13TH STREET MARKET"	"3075 W. 13TH STREET, CADILLAC MI 49601 US"	"-85.46863"	"44.268295"
"11685"	"232165"	"00000"	"F"	"350"	"H.L. LAKESIDE RESORT"	"100 CLEARVIEW DR., HOUGHTON LAKE MI 48629 US"	"-84.792767"	"44.343721"
"11797"	"232218"	"00000"	"R"	"370"	"WEXFORD CIVIC ARENA"	"1320 N MITCHELL, CADILLAC MI 49601 US"	"-85.40446"	"44.269064"
"11827"	"233496"	"00001"	"R"	""	"CADILLAC AUTO & TRUCK SERVICE"	"211 ROBERTS ST, CADILLAC MI 49601 US"	"-85.399875"	"44.275736"
"11881"	"99058"	"00040"	"W"	"200"	"SUBWAY/FORWARDS"	"110 NORTH FIFTH STREET, ROSCOMMON MI 48653 US"	"-84.593165"	"44.499277"
"11883"	"232257"	"00000"	"T"	"410"	"PANCHO VILLA"	"106 S. MAIN ST, LAKE CITY MI 49659 US"	"-85.215036"	"44.33415"
"11965"	"233605"	"00000"	"F"	"60"	"HOUGHTON LAKE SUPER 8"	"9580 W. LAKE CITY RD, HOUGHTON LAKE MI 48629 US"	"-84.8039905"	"44.335958"
"12108"	"232381"	"00000"	"M"	"130"	"FREEMANS CUSTOM BODY"	"9470 E 14 1/4 RD, MANTON MI 49663 US"	"-85.389155"	"44.4209883"
"12168"	"232410"	"00000"	"W"	"250"	"MATT'S GRILL"	"312 LAKE ST., ROSCOMMON MI 48653 US"	"-84.59585"	"44.495258"
"12200"	"232422"	"00000"	"W"	"240"	"GARRETT'S PRESSURE CRACK"	"928 W. HOUGHTON LAKE DRIVE, PRUDENVILLE MI 48651 U"	"-84.655386"	"44.298745"
"12277"	"232468"	"00000"	"W"	"290"	"PIONEER HILLS MARINE"	"10914 N. CUT RD., ROSCOMMON MI 48653 US"	"-84.662835"	"44.492228"
"12352"	"232508"	"00000"	"F"	"170"	"4 CORNERS GRILL"	"15086 M-115, MARION MI 49665 US"	"-85.147166"	"44.031669"
"12461"	"232564"	"00000"	"R"	"220"	"MERRILL'S/BOOLMAN INC."	"817 BELL AVE, CADILLAC MI 49601 US"	"-85.397503"	"44.274577"
"12590"	"232642"	"00000"	"T"	"370"	"LAKE CITY BC"	"45 N MORLEY ROAD, LAKE CITY MI 49651 US"	"-85.2156"	"44.339613"
"12594"	"99170"	"00000"	"T"	"420"	"PETERSON MCGREGOR OF LAKE CITY"	"218 S MAIN ST, LAKE CITY MI 49651 US"	"-85.214662"	"44.331819"
"12651"	"232691"	"00000"	"T"	"400"	"HAMMER'S PUB AND GRUB"	"118 MAIN ST, LAKE CITY MI 49651 US"	"-85.214993"	"44.333595"
"12726"	"232727"	"00000"	"F"	"260"	"LAKE TRANSMISSION & TOWING"	"3232 W. HOUGHTON LAKE DR, HOUGHTON LAKE MI 48629 U"	"-84.703233"	"44.298877"
"12782"	"232763"	"00000"	"W"	"130"	"NESTER AUTO GROUP"	"424 E FEDERAL HWY, ROSCOMMON MI 48653 US"	"-84.602702"	"44.503927"
"12783"	"232763"	"00001"	"F"	"340"	"NESTER AUTO GROUP"	"7566 W HOUGHTON LAKE DR, HOUGHTON LAKE MI 48629 US"	"-84.776325"	"44.324003"
"12793"	"99033"	"00224"	"T"	"290"	"LAKE CITY ELEMENTARY"	"5534 W DAVIS RD PO BOX 900, LAKE CITY MI 49651 US"	"-85.211181"	"44.337478"
"12813"	"231967"	"00001"	"T"	"160"	"ELLENS EQUIPMENT-SERVICE DEPT"	"5297 W. STONEY CORNERS, MCBAIN MI 49675 US"	"-85.19818"	"44.192764"
"12814"	"232763"	"00002"	"W"	"120"	"NESTER AUTO GROUP-BODY SHOP"	"424 E FEDERAL HWY, ROSCOMMON MI 48653 US"	"-84.602702"	"44.503927"
"12912"	"232811"	"00000"	"R"	"90"	"DEAN'S BODY SHOP"	"6931 E 34 RD, CADILLAC MI 49601 US"	"-85.438912"	"44.281608"
"12976"	"99130"	"00000"	"T"	"390"	"FOREST AREA FEDERAL CU"	"101 MAIN ST, LAKE CITY MI 49651 US"	"-85.215106"	"44.334519"
"13006"	"99161"	"00090"	"F"	"120"	"SPT FAMILY FARE 1501 FIRST AID"	"3561 W HGHTN LK DR POB 699, HOUGHTON LK MI 48629 U"	"-84.7121233"	"44.2991883"
"13075"	"99161"	"00177"	"F"	"50"	"SPARTAN #543 FIRST AID"	"1713 N. CLARE AVE., HARRISON MI 48625 US"	"-84.790754"	"44.0116652"
"13080"	"99161"	"00097"	"F"	"20"	"FAMILY FARE #1523 FIRST AID"	"1570 N. CLARE AVE., HARRISON MI 48625 US"	"-84.792256"	"44.01091"
"13083"	"99161"	"00087"	"M"	"40"	"SPT. FAMILY FARE #645 FIRST AI"	"211 S. DIVISION, BELLAIRE MI 49615 US"	"-85.196536"	"44.971848"
"13106"	"99161"	"00103"	"W"	"160"	"FAMILY FARE #1516 FIRST AID"	"409 N. FIFTH ST POB 220, ROSCOMMON MI 48653 US"	"-84.597279"	"44.500604"
"13107"	"99161"	"00102"	"W"	"70"	"SPT. FAMILY FARE #1511 FIRST A"	"2470 S. I-75 BUS. LOOP, GRAYLING MI 49738 US"	"-84.709838"	"44.650577"
"13145"	"226912"	"00000"	"R"	"230"	"WOLVERINE POWER COOPERATIVE   "	"10125 W. WATERGATE RD, CADILLAC MI 49601 US"	"-85.2995332"	"44.2593158"
"13352"	"232920"	"00000"	"T"	"250"	"FURZ A FLY'N"	"7999 W. FALMOUTH RD., MCBAIN MI 49657 US"	"-85.254608"	"44.236148"
"13423"	"232934"	"00000"	"R"	"200"	"LUCKY 7 DAIRY"	"10550 STREIF RD, MCBAIN MI 49657 US"	"-85.3027085"	"44.1872922"
"13714"	"99104"	"00007"	"R"	"80"	"AUNT MILLIE'S CADILLAC OUTLET"	"7701 E. 34 ROAD, CADILLAC MI 49601 US"	"-85.423289"	"44.281721"
"13943"	"232989"	"00000"	"F"	"50"	"BRINKS FAMILY CREAMERY"	"3560 E. MULDER RD, MCBAIN MI 49657 US"	"-85.021703"	"44.227937"
"14050"	"233042"	"00000"	"T"	"190"	"NMC SCHOOL"	"128 S MARTIN, MCBAIN MI 49657 US"	"-85.218122"	"44.189992"
"14082"	"233055"	"00000"	"F"	"100"	"SPICER'S BOAT CITY"	"4165 W HOUGHTON LAKE DRIVE, HOUGHTON LAKE MI 48629"	"-84.722191"	"44.298101"
"14109"	"233071"	"00000"	"T"	"330"	"MISSAUKEE COUNTY ROAD COMMISSI"	"1199 N. MOREY, LAKE CITY MI 49651 US"	"-85.2178008"	"44.3558025"
"14119"	"99161"	"00063"	"F"	"120"	"MARION VILLAGE MKT 4407 F.A. "	"401 S. MILL RD, MARION MI 49665 US"	"-85.146249"	"44.099099"
"14286"	"233138"	"00000"	"R"	"130"	"LAKE CADILLAC RESORT"	"PO BOX 329, CADILLAC MI 49601 US"	"-85.449688"	"44.233633"
"14337"	"233165"	"00000"	"R"	"120"	"LAKE CADILLAC PARTY STORE"	"PO BOX 329, CADILLAC MI 49601 US"	"-85.449688"	"44.233633"
"14341"	"233169"	"00000"	"T"	"70"	"MAPLE RIDGE LIVING CENTER"	"2575 W. HOUGHTON LAKE ROAD, LAKE CITY MI 49651 US"	"-85.1471748"	"44.3383777"
"14449"	"233223"	"00000"	"R"	"60"	"BC PIZZA OF CADILLAC"	"6184 E M-55, CADILLAC MI 49601 US"	"-85.45422"	"44.235959"
"14469"	"99130"	"00004"	"M"	"160"	"FOREST AREA FEDERAL CU"	"314 W MAIN ST, MANTON MI 49633 US"	"-85.400982"	"44.411047"
"14471"	"99062"	"00070"	"T"	"310"	"ROGERS FAMILY FOOD 4992"	"5760 W. HOUGHTON LAKE DR, LAKE CITY MI 49651 US"	"-85.210542"	"44.340126"
"14472"	"99161"	"00070"	"T"	"320"	"ROGERS FAMILY FOODS FIRST AID"	"5760 W. HOUGHTON LAKE DR, LAKE CITY MI 49651 US"	"-85.210542"	"44.340126"
"14576"	"233260"	"00000"	"F"	"310"	"LIMBERLOST"	"4168 W. HOUGHTON LAKE DR, HOUGHTON LAKE MI 48629 U"	"-84.722339"	"44.298981"
"14618"	"99140"	"00006"	"R"	"170"	"ARBY'S CADILLAC"	"1714 N MITCHELL ST, CADILLAC MI 49601 US"	"-85.406169"	"44.275717"
"14621"	"99140"	"00005"	"F"	"280"	"ARBY'S HOUGHTON LAKE"	"3574 W. HOUGHTON LAKE DR, HOUGHTON LAKE MI 48629 U"	"-84.712047"	"44.298987"
"14622"	"99140"	"00004"	"W"	"110"	"ARBY'S GRAYLING"	"5800 NELSON A MILES PKWY, GRAYLING MI 49738 US"	"-84.712846"	"44.598748"
"14639"	"233293"	"00000"	"M"	"190"	"BOSTICK'S DRUG STORE"	"117 W. MAIN STREET, MANTON MI 49663 US"	"-85.399109"	"44.410611"
"14669"	"233485"	"00000"	"M"	"190"	"VILLAGE MARKET ELK RAPIDS 639"	"250 AMES ST, ELK RAPIDS MI 49629 US"	"-85.401577"	"44.899065"
"14676"	"99062"	"00083"	"M"	"120"	"VILLAGE MKT-CENTRAL LAKE 624"	"7993 STATE STREET, CENTRAL LAKE MI 49622 US"	"-85.263895"	"45.069893"
"14678"	"99161"	"00083"	"M"	"110"	"VILLAGE MARKET-CENTRAL LAKE FA"	"7993 STATE STREET, CENTRAL LAKE MI 49622 US"	"-85.263895"	"45.069893"
"14718"	"226912"	"00002"	"R"	"450"	"SPARTAN RENEWABLE ENERGY"	"10125 W. WATERGATE RD, CADILLAC MI 49601 US"	"-85.2995332"	"44.2593158"
"14758"	"233338"	"00000"	"T"	"30"	"2 THE MOON BAKERY"	"100 N MAIN ST, LAKE CITY MI 49651 US"	"-85.214423"	"44.334431"
"14829"	"233367"	"00000"	"R"	"70"	"MICHIGAN COFFEE CO"	"6184 E M-115, CADILLAC MI 49601 US"	"-85.454213"	"44.235835"
"14834"	"233369"	"00000"	"R"	"60"	"CADILLAC CULVERT"	"5305 M-115, CADILLAC MI 49601 US"	"-85.4712853"	"44.2745613"
"14846"	"99031"	"00163"	"R"	"140"	"BLARNEY CASTLE EZ MART 631"	"6183 E. M-115, CADILLAC MI 49601 US"	"-85.452606"	"44.23603"
"14854"	"70911"	"00001"	"W"	"100"	"BIGBY COFFEE-KIRTLAND"	"4800 W 4 MILE ROAD, GRAYLING MI 49738 US"	"-84.706287"	"44.601776"
"14860"	"231079"	"00010"	"F"	"150"	"NMCAA-EARLY LEARNING CTR"	"3225 W. HOUGHTON LAKE DR, HOUGHTON LAKE MI 49651 U"	"-84.7025146"	"44.2982788"
"14882"	"233387"	"00000"	"T"	"350"	"MARTY'S PIZZA & GRILL"	"615 N FRONT ST, LAKE CITY MI 49651 US"	"-85.216158"	"44.341073"
"15623"	"233448"	"00000"	"W"	"390"	"MOTOR MART ENGINE REBUILDING"	"1750 W. HOUGHTON LAKE DR, PRUDENVILLE MI 48651 US"	"-84.672349"	"44.298932"
"15643"	"232410"	"00001"	"W"	"310"	"POLAR PARLOR"	"303 W. HIGGINS LAKE DR., ROSCOMMON MI 48653 US"	"-84.690461"	"44.420982"
"15765"	"233496"	"00000"	"T"	"90"	"MCBAIN AUTO AND TRUCK SERVICE"	"9438 S MOREY RD, MCBAIN MI 49657 US"	"-85.214641"	"44.202228"
"15771"	"233424"	"00001"	"M"	"150"	"CAST IRON KITCHEN OF MANTON"	"110 W MAIN ST, MANTON MI 49663 US"	"-85.39884"	"44.4111"
"15810"	"233512"	"00000"	"R"	"160"	"THE TIMBERS RESTAURANT"	"5535 M-115, CADILLAC MI 49601 US"	"-85.466531"	"44.264248"
"15813"	"233485"	"00001"	"M"	"180"	"VILLAGE MARKET ELK RAPIDS FA"	"250 AMES ST, ELK RAPIDS MI 49629 US"	"-85.401577"	"44.899065"
"15861"	"233570"	"00000"	"W"	"170"	"R&R AUTO CARE"	"875 W. HOUGHTON LAKE DR, PRUDENVILLE MI 48651 US"	"-84.654193"	"44.298212"
"15871"	"233574"	"00000"	"M"	"90"	"M88 MORNING GRIND"	"614 EAST CAYUGA, BELLAIRE MI 49615 US"	"-85.1988367"	"44.9751383"
"15923"	"99167"	"00000"	"R"	"50"	"ASPEN DENTAL"	"9075 34 RD, CADILLAC MI 49601 US"	"-85.395285"	"44.282333"
"15925"	"99167"	"00001"	"R"	"40"	"WELL NOW"	"9065 E 34TH RD, CADILLAC MI 49601 US"	"-85.395886"	"44.282296"
"15956"	"233059"	"00001"	"W"	"240"	"BIRD AND THE BEAR BAKERY"	"205 N. 5TH ST. STE. #2510, ROSCOMMON MI 48653 US"	"-84.593903"	"44.499158"
"15982"	"99169"	"00022"	"T"	"300"	"DEAN TRANSPORTATION-LAKE CITY"	"710 E. MITCHELL STREET, LAKE CITY MI 49651 US"	"-85.2077433"	"44.3350167"
"16055"	"99183"	"00000"	"F"	"370"	"GREAT LAKES FAMILY RESTAURANT"	"9435 W. LAKE CITY DRIVE, HOUGHTON LAKE MI 48629 US"	"-84.802108"	"44.335225"
"16063"	"232763"	"00003"	"W"	"140"	"NESTER AUTO QUICK LUBE"	"424 E FEDERAL HWY, ROSCOMMON MI 48653 US"	"-84.602702"	"44.503927"
"16111"	"233654"	"00000"	"M"	"110"	"TRACTOR HAVEN"	"8290 W. CUTCHEON, MANTON MI 49633 US"	"-85.2636127"	"44.4119567"
"16132"	"99180"	"00000"	"T"	"360"	"LAKE CITY PHARMACY"	"57 N MOREY RD, LAKE CITY MI 49651 US"	"-85.215661"	"44.340355"
"16133"	"99180"	"00001"	"T"	"180"	"MCBAIN PHARMACY"	"119 N. ROLAND ST., MCBAIN MI 49651 US"	"-85.2108127"	"44.193167"
"16184"	"233697"	"00000"	"R"	"220"	"LONGSTREET FORESTRY"	"8237 EAST 16 1/2 RD, MANTON MI 49663 US"	"-85.414038"	"44.404304"
"16187"	"99031"	"00173"	"T"	"50"	"BLARNEY CASTLE EZ MART 633"	"200 NORTH MAIN ST, LAKE CITY MI 49651 US"	"-85.2157352"	"44.341868"
"16245"	"216466"	"00001"	"T"	"100"	"POLLINGTON MACHINE            "	"645 MORTON DR, MARION MI 49665 US"	"-85.15103325"	"44.10981835"
"16411"	"233791"	"00000"	"W"	"190"	"MID MICHIGAN TRANSMISSION"	"301 NORTH 5TH STREET, ROSCOMMON MI 48653 US"	"-84.595119"	"44.499817"
"16439"	"233813"	"00000"	"T"	"40"	"RUSTIC HOG BARBECUE LLC"	"113 S. MAIN ST, LAKE CITY MI 49651 US"	"-85.214542"	"44.333705"
"16453"	"233820"	"00000"	"R"	""	"LITTLE MEXICO II"	"6080 MICHIGAN 115, CADILLAC MI 49601 US"	"-85.456741"	"44.241681"
"16460"	"233827"	"00000"	"M"	""	"DOUG'S REPAIR"	"11340 MIKE AND TONY ROAD, MANTON MI 49663 US"	"-85.323771"	"44.404491"
"16471"	"233831"	"00000"	"R"	""	"STEVE'S TIRE SERVICE"	"9190 WEST COUNTY LINE ROAD, MARION MI 49665 US"	"-85.314282"	"44.164856"
"16548"	"99062"	"00021"	"F"	""	"STEVE'S COUNTRY MARKET 723714"	"3170 NORTH CLARE AVENUE, HARRISON MI 48625 US"	"-84.806964"	"44.033435"
"16549"	"99161"	"00021"	"F"	""	"STEVE'S COUNTRY MKT 3714 F.A."	"3170 NORTH CLARE AVENUE, HARRISON MI 48625 US"	"-84.806964"	"44.033435"
"16588"	"233886"	"00000"	"F"	""	"TIPPY CANOE BAR"	"501 EAST DAVIS STREET, HARRISON MI 48625 US"	"-85.025738"	"44.031383"
"16681"	"233936"	"00000"	"T"	""	"BC PIZZA-LAKE CITY"	"45 N. MOREY RD, LAKE CITY MI 49651 US"	"-85.2156"	"44.339613"
"16685"	"233937"	"00000"	"F"	""	"MAXI MUFFLER"	"233 NORTH 1ST STREET, HARRISON MI 48625 US"	"-84.79951193"	"44.01990648"
"16709"	"233948"	"00000"	"R"	""	"LA BAMBA"	"1574 NORTH MITCHELL STREET, CADILLAC MI 49601 US"	"-85.404654"	"44.27353"
"16727"	"233960"	"00000"	"M"	""	"MAPLE RIDGE LIVING CENTER"	"5191 NORTH 41 1/2 ROAD, MANTON MI 49663 US"	"-85.41846771"	"44.4159999"
"16739"	"231967"	"00002"	"T"	""	"ELLENS EQUIPMENT"	"5297 W. STONEY CORNERS, MCBAIN MI 49675 US"	"-85.19818"	"44.192764"
"2330"	"70911"	"00000"	"W"	"90"	"Kirtland Community College    "	"4800 W 4 MILE ROAD, GRAYLING MI 49738 US"	"-84.706287"	"44.601776"
"3924"	"99087"	"00000"	"R"	"160"	"WEST MICHIGAN CREDIT UNION    "	"215 BELL AVE, CADILLAC MI 49601 US"	"-85.40452"	"44.274584"
"3941"	"208839"	"00000"	"M"	"210"	"AMOS FARMS                    "	"11990 MUNRO, WILLIAMSBURG MI 49690 US"	"-85.4157765"	"44.8559142"
"3968"	"210625"	"00000"	"R"	"190"	"HOLMES AUTO REPAIR"	"100 WORKS, CADILLAC MI 49601 US"	"-85.404398"	"44.277494"
"3975"	"211252"	"00000"	"F"	"180"	"CHUCK'S CORNER                "	"15057 M-115, MARION MI 49655 US"	"-85.147297"	"44.030788"
"3976"	"211385"	"00000"	"M"	"180"	"MANTON MINI MART              "	"305 W. MAIN, MANTON MI 49663 US"	"-85.400672"	"44.410586"
"3981"	"211646"	"00000"	"R"	"170"	"CADILLAC MOOSE                "	"7461 E. 34 MILE, CADILLAC MI 49601 US"	"-85.4274695"	"44.2819"
"3982"	"211729"	"00000"	"F"	"290"	"MOOSE LODGE                   "	"100 JAMES RD, HOUGHTON LAKE MI 48629 US"	"-84.715311"	"44.2982185"
"3990"	"99061"	"00087"	"M"	"50"	"SPT. FAMILY FARE #645 "	"211 S. DIVISION, BELLAIRE MI 49615 US"	"-85.196536"	"44.971848"
"3991"	"212941"	"00000"	"M"	"60"	"NORTHERN TREE TRANSPLANTING "	"220 BIRCH ST., BELLAIRE MI 49615 US"	"-85.2016155"	"44.972357"
"3995"	"213627"	"00000"	"T"	"170"	"MCNALLY'S PARTY STOR          "	"108 ROLAND STREET, MCBAIN MI 49657 US"	"-85.210958"	"44.191501"
"4004"	"99033"	"00062"	"M"	"200"	"MANTON SCHOOLS CHARTWELL"	"105 FIFTH STREET, MANTON MI 49663 US"	"-85.395959"	"44.406359"
"4017"	"215183"	"00000"	"R"	"230"	"B & P EMPLOYEE                "	"8052 E BOON ROAD, CADILLAC MI 49601 US"	"-85.4094327000064"	"44.2812949502548"
"4022"	"215570"	"00000"	"F"	"150"	"MARION EAGLES                 "	"101 E. MAIN, MARION MI 49665 US"	"-85.147757"	"44.102138"
"4039"	"216466"	"00000"	"T"	"90"	"POLLINGTON MACHINE            "	"20669 30TH AVE., MARION MI 49665 US"	"-85.148204"	"44.112438"
"4065"	"217900"	"00000"	"R"	"230"	"RAYMER EXCAVATING             "	"8361 20 RD., MANTON MI 49663 US"	"-85.41088"	"44.3826667"
"4067"	"218119"	"00000"	"R"	"120"	"SABER TOOL                    "	"1553 N. MITCHELL, CADILLAC MI 49601 US"	"-85.406818"	"44.272931"
"4103"	"218883"	"00000"	"M"	"70"	"ANTRIM COUNTY C.O.A.          "	"308 E. CAYUGA, BELLAIRE MI 49615 US"	"-85.2058151"	"44.975154"
"4146"	"99061"	"00090"	"F"	"110"	"SPT. FAMILY FARE #1501"	"3561 W HGHTN LK DR POB 699, HOUGHTON LK MI 48629 U"	"-84.7121233"	"44.2991883"
"4154"	"99061"	"00097"	"F"	"30"	"FAMILY FARE #1523"	"1570 N. CLARE AVE., HARRISON MI 48625 US"	"-84.792256"	"44.01091"
"4162"	"99061"	"00102"	"W"	"60"	"SPT. FAMILY FARE #1511"	"2470 S. I-75 BUS. LOOP, GRAYLING MI 49738 US"	"-84.709838"	"44.650577"
"4164"	"99061"	"00103"	"W"	"150"	"FAMILY FARE #1516 "	"409 N. FIFTH ST POB 220, ROSCOMMON MI 48653 US"	"-84.597279"	"44.500604"
"4193"	"221216"	"00000"	"M"	"370"	"GREEN LANTERN                 "	"3958 MACKINAW TRAIL, ALBA MI 49611 US"	"-84.969819"	"44.975495"
"4224"	"99193"	"00004"	"F"	"160"	"MDOT OFFICE                   "	"2897 16 MILE RD, MARION MI 49665 US"	"-85.1456778"	"44.044113"
"4238"	"222252"	"00000"	"W"	"270"	"FOREST FIRE EXPERIMENT STATION"	"1337 E. ROBINSON LAKE RD. COMPANY #221, ROSCOMMON "	"-84.5856583"	"44.4659317"
"4240"	"222256"	"00000"	"F"	"320"	"EAGLES                        "	"101 CRESTVIEW, HOUGHTON LAKE MI 48629 US"	"-84.741274"	"44.29699"
"4243"	"222260"	"00000"	"F"	"140"	"POWELL'S RESTAURANT"	"3257 W HOUGHTON LAKE DR #A, HOUGHTON LAKE MI 48692"	"-84.703498"	"44.298329"
"4255"	"222338"	"00000"	"T"	"340"	"LC POWERSPORTS & MARINE"	"2345 S. GREEN RD, LAKE CITY MI 49651 US"	"-85.234826"	"44.305144"
"4271"	"99033"	"00044"	"W"	"280"	"ROSCOMMON SCHOOLS             "	"10600 OAKWOOD P.O. BOX 825, ROSCOMMON MI 48653 US"	"-84.625321"	"44.4882235"
"4272"	"222578"	"00000"	"F"	"230"	"KRONNER PHARMACY              "	"778 W.HOUGHTON LAKE, HOUGHTON LAKE MI 48629 US"	"-84.7102193465474"	"44.2999648278591"
"4276"	"99033"	"00013"	"F"	"90"	"HOUGHTON LAKE SCHOOLS         "	"6001 W. HOUGHTON LAKE, HOUGHTON LAKE MI 48651 US"	"-84.7568175"	"44.3069614"
"4279"	"222598"	"00000"	"W"	"200"	"SPIKEHORN BAR                 "	"4955 E.HOUGHTON LAKE DR., HOUGHTON LAKE MI 48629 U"	"-84.67835"	"44.35483"
"4284"	"222631"	"00000"	"T"	"350"	"RICH-CO TRANSPORTATION        "	"9461 W. KELLY, LAKE CITY MI 49651 US"	"-85.282969"	"44.290114"
"4302"	"223019"	"00000"	"F"	"270"	"GARRETT'S PLACE REST.         "	"3548 W. HOUGHTON LAKE DR., HOUGHTON LAKE MI 48629 "	"-84.710884"	"44.298795"
"4307"	"99082"	"00006"	"F"	"10"	"SUNRISE STORE 16 MARATHON    "	"111 NORTH FIRST ST., HARRISON MI 48623 US"	"-84.799833"	"44.019941"
"4310"	"223634"	"00000"	"T"	"460"	"FRIENDS MINISTRY              "	"3728 South Morey Rd/66, Lake City MI 49601 US"	"-85.216459"	"44.285048"
"4320"	"223935"	"00000"	"F"	"140"	"SHANANJAC'S PIZZA             "	"221 E. MAIN STREET, MARION MI 49665 US"	"-85.144156"	"44.102696"
"4335"	"224055"	"00000"	"T"	"110"	"NATIONAL ENERGY OF MCBAIN, LLC"	"6751 W. GERWOUDE, MCBAIN MI 49657 US"	"-85.2205017"	"44.204415"
"4339"	"99058"	"00034"	"W"	"40"	"FORWARDS/SUBWAY-GRAYLING"	"317 JAMES ST., GRAYLING MI 49738 US"	"-84.708681"	"44.657301"
"4393"	"99061"	"00177"	"F"	"40"	"SPARTAN QUICK STOP #543"	"1713 N. CLARE AVE., HARRISON MI 48625 US"	"-84.790754"	"44.0116652"
"4412"	"225814"	"00000"	"F"	"20"	"LITTLE TOWN JERKY             "	"6555 S CEDAR, FALMOUTH MI 49632 US"	"-85.085558"	"44.242772"
"4413"	"225815"	"00000"	"F"	"10"	"EBELS FAMILY CENTER           "	"420 E PROSPER, FALMOUTH MI 49632 US"	"-85.085393"	"44.243499"
"4415"	"99058"	"00022"	"W"	"30"	"FORWARDS 140                  "	"503 N JAMES ST, GRAYLING MI 49738 US"	"-84.716645"	"44.662526"
"4416"	"99058"	"00023"	"W"	"170"	"FORWARDS 152                  "	"403 5TH STREET, ROSCOMMON MI 48653 US"	"-84.596551"	"44.500457"
"4443"	"226257"	"00000"	"R"	"100"	"BURKE'S WATERFRONT INN     "	"2403 SUNNYSIDE DR, CADILLAC MI 49601 US"	"-85.450252"	"44.232991"
"4447"	"226290"	"00000"	"T"	"270"	"L & J MEAT                    "	"3901 S MOREY RD, LAKE CITY MI 49657 US"	"-85.214343"	"44.282272"
"4454"	"226466"	"00000"	"R"	"80"	"CADILLAC COUNTRY CLUB         "	"5510 E. M55, CADILLAC MI 49601 US"	"-85.4599"	"44.23145"
"4457"	"226493"	"00000"	"F"	"40"	"THE SNACK SHACK               "	"210 E. PROSPER, FALMOUTH MI 49632 US"	"-85.08986"	"44.24337"
"4464"	"226586"	"00000"	"W"	"320"	"LAKES NORTH, LLC"	"449 W. Higgins Lake DR Unit 75 A&B Storage(Unit Co"	"-84.692859"	"44.420419"
"4475"	"226667"	"00000"	"T"	"260"	"WEXFORD COMM CU"	"4817 S. MOREY RD, LAKE CITY MI 49651 US"	"-85.21438"	"44.269484"
"4477"	"226713"	"00000"	"R"	"210"	"STONEY CORNERS VET            "	"9980 S. LUCAS ROAD, MCBAIN MI 49657 US"	"-85.285021"	"44.194324"
"4498"	"226912"	"00001"	"R"	"240"	"WOLVERINE POWER COOPERATIVE   "	"10125 W. WATERGATE RD, CADILLAC MI 49601 US"	"-85.2995332"	"44.2593158"
"4514"	"227022"	"00000"	"R"	"70"	"T&S TRUCK SERVICE             "	"251 CLAY DRIVE, CADILLAC MI 49601 US"	"-85.420742"	"44.28699"
"4538"	"227636"	"00000"	"R"	"50"	"LAKESIDE CHARLIES             "	"301 S LAKE MITCHELL, CADILLAC MI 49601 US"	"-85.455944"	"44.235937"
"4544"	"227743"	"00000"	"F"	"130"	"DYNAMIC                       "	"105 E MAIN, MARION MI 49665 US"	"-85.147144"	"44.102749"
"4559"	"99063"	"00006"	"W"	"80"	"DTE ENERGY"	"5897 W. NORTH DOWNRIVER RD, GRAYLING MI 49738 US"	"-84.7260137"	"44.669696"
"4561"	"99170"	"00002"	"R"	"110"	"PETERSON, MCGREGOR OF CADILLAC"	"1573 N. MITCHELL, CADILLAC MI 49601 US"	"-85.406963"	"44.27369"
"4589"	"228162"	"00000"	"R"	"210"	"AFFORDABLE AUTO REPAIR        "	"1699 PLETT RD, CADILLAC MI 49601 US"	"-85.3971967"	"44.2763867"
"4592"	"99033"	"00061"	"T"	"330"	"LAKE CITY SCHOOL CAFE         "	"250 E RUSSELL ST PO BOX 900, LAKE CITY MI 49651 US"	"-85.21131"	"44.3371067"
"4674"	"228881"	"00000"	"F"	"360"	"NORTHSHORE LOUNGE"	"13691 W SHORE DR, HOUGHTON LAKE MI 48629 US"	"-84.792275"	"44.399908"
"4687"	"228931"	"00000"	"W"	"190"	"ZONE 18"	"700 E HOUGHTON LK DR, PRUDENVILLE MI 48651 US"	"-84.6309339"	"44.3133761"
"4692"	"228976"	"00000"	"R"	"470"	"STAGG MACHINE                 "	"11711 W CADILLAC RD, CADILLAC MI 49601 US"	"-85.32966"	"44.25201"
"4697"	"229008"	"00000"	"W"	"220"	"COMPETITION AUTO              "	"11946 DEERHEART RD, ROSCOMMON MI 48653 US"	"-84.5709045"	"44.5116265"
"4807"	"99213"	"00004"	"M"	"170"	"ELK RAPIDS ENGINEERING        "	"210 INDUSTRIAL PARK DRIVE, ELK RAPIDS MI 49629 US"	"-85.405587"	"44.902714"
"4808"	"229456"	"00000"	"R"	"190"	"SALISBURY INC                 "	"12547 20 MILE RD, TUSTIN MI 49688 US"	"-85.3369172"	"44.1011363"
"4816"	"229493"	"00000"	"R"	"100"	"MARTIN POWER SPORTS           "	"6620 E M-115, CADILLAC MI 49601 US"	"-85.4430195"	"44.2276445"
"8306"	"229666"	"00000"	"R"	"150"	"CHERYLS LANDING"	"1749 N BOULEVARD, CADILLAC MI 49601 US"	"-85.432032"	"44.245853"
"8471"	"99031"	"00000"	"M"	"380"	"BLARNEY CASTLE 222"	"4158 FIRST ST., ALBA MI 49611 US"	"-84.974525"	"44.973088"
"8514"	"99031"	"00042"	"F"	"60"	"BLARNEY CASTLE 528"	"5778 N CLARE AVE, HARRISON MI 48625 US"	"-84.791387"	"44.071392"
"8544"	"99031"	"00071"	"R"	"90"	"BLARNEY CASTLE 304"	"6224 E M115, CADILLAC MI 49601 US"	"-85.453409"	"44.235253"
"8545"	"99031"	"00072"	"F"	"80"	"BLARNEY CASTLE 584"	"5175 HOUGHTON LAKE DRIVE, HOUGHTON LAKE MI 48629 U"	"-84.7427185"	"44.299931"
"8546"	"99031"	"00073"	"T"	"60"	"BLARNEY CASTLE 632"	"414 N MAIN STREET, LAKE CITY MI 49651 US"	"-85.214072"	"44.338798"
"8552"	"99031"	"00079"	"W"	"220"	"BLARNEY CASTLE 424"	"567 E HOUGHTON LAKE RD, PRUDENVILLE MI 48651 US"	"-84.633449"	"44.312645"
"8555"	"99031"	"00082"	"W"	"20"	"BLARNEY CASTLE 504"	"604 JAMES ST., GRAYLING MI 49738 US"	"-84.717755"	"44.664032"
"8559"	"99031"	"00086"	"W"	"160"	"BLARNEY CASTLE 776"	"2403 W HOUGHTON LAKE DR, PRUDENVILLE MI 48651 US"	"-84.687094"	"44.298389"
"8633"	"229839"	"00000"	"T"	"220"	"MANY BLESSINGS DAIRY"	"7742 LUCAS RD., MCBAIN MI 49657 US"	"-85.285107"	"44.226692"
"8713"	"229905"	"00000"	"T"	"120"	"STONEY CORNERS WINDFARM"	"6600 W BAKER, MCBAIN MI 49657 US"	"-85.222575"	"44.2031267"
"8747"	"229938"	"00000"	"M"	"170"	"THREE OH EIGHT"	"308 MAIN ST., MANTON MI 49663 US"	"-85.400661"	"44.410983"
"9166"	"230342"	"00000"	"R"	"230"	"THE PINES"	"PO BOX 329, CADILLAC MI 49601 US"	"-85.449688"	"44.233633"
"9191"	"230355"	"00000"	"T"	"380"	"L.C. FAMILY DINER"	"119 N MAIN ST, LAKE CITY MI 49651 US"	"-85.215047"	"44.335132"
"9307"	"230461"	"00000"	"R"	"330"	"D & G TRUCK REPAIR"	"11835 W WATERGATE, CADILLAC MI 49601 US"	"-85.33294"	"44.2523"
"9395"	"230538"	"00000"	"T"	"130"	"PINEVIEW DISCOUNT GROCERY"	"9200 S. Burkett Rd, MCBAIN MI 49657 US"	"-85.154914"	"44.205839"
"9404"	"99051"	"00049"	"R"	"60"	"JET'S PIZZA MI-159"	"8846 E 34TH, CADILLAC MI 49601 US"	"-85.400645"	"44.280843"
"9442"	"231079"	"00012"	"F"	"30"	"NMCAA-FALMOUTH CENTER"	"219 PROSPER RD, FALMOUTH MI 49632 US"	"-85.089716"	"44.244233"
"9463"	"230604"	"00000"	"R"	"140"	"44 NORTH"	"1406 N MITCHEL, CADILLAC MI 49601 US"	"-85.404351"	"44.271142"
"9774"	"230835"	"00000"	"R"	"40"	"WALRAVEN'S"	"6120 E M115, CADILLAC MI 49601 US"	"-85.4546598"	"44.236693"
"9782"	"230841"	"00000"	"M"	"140"	"EASTPORT MARKET"	"5431 US 31 NORTH, EASTPORT MI 49627 US"	"-85.350995"	"45.11317"
"9810"	"99031"	"00106"	"M"	"200"	"BLARNEY ELK RAPIDS 404"	"100 1ST ST, ELK RAPIDS MI 49629 US"	"-85.410997"	"44.89444"
"9950"	"99031"	"00107"	"M"	"100"	"CENTRAL LAKE EZ MART 308"	"1806 NORTH M88 HWY, CENTRAL LAKE MI 49622 US"	"-85.263645"	"45.061755"
"9957"	"230988"	"00000"	"F"	"70"	"LITTLE BOOTS CAFE"	"6633 W HOUGHTON LAKE DRIVE, HOUGHTON LAKE MI 48629"	"-84.764745"	"44.31451"
