""	"Acct #"	"Cust #"	"Week #"	"New Rt"	"New Delivery Day"	"New Stop"	"Customer Name"	"DisplayAddressFull"	"X_Longitude"	"Y_Latitude"
"1070"	"530614.0"	"0.0"	"Week1"	"56"	"F"	"1.0"	"KAZUMI"	"5710 S HARVEY ST, MUSKEGON MI 49444 US"	"-86.205448"	"43.148301"
"1071"	"830002.0"	"0.0"	"Week1"	"56"	"F"	"2.0"	"MICHIGAN PAIN CONSULTANTS"	"1675 E MOUNT GARFIELD SUITE 13, MUSKEGON HEIGHTS MI 49444 US"	"-86.204273"	"43.146272"
"1072"	"803000.0"	"0.0"	"Week1"	"56"	"F"	"3.0"	"MICHIGAN PAIN CONSULTANTS"	"1675 E MOUNT GARFIELD SUITE 135, MUSKEGON HEIGHTS MI 49444 US"	"-86.204273"	"43.146272"
"1073"	"99094.0"	"44.0"	"Week2"	"56"	"F"	"4.0"	"LMCU 89"	"1619 MT GARFIELD ROAD, MUSKEGON MI 49444 US"	"-86.20538"	"43.14639"
"1074"	"531814.0"	"0.0"	"Week1"	"56"	"F"	"4.0"	"GRAND TRAVERSE PIE CO"	"5817 HARVEY ST, NORTON SHORES MI 49444 US"	"-86.206978"	"43.14651"
"1075"	"99079.0"	"18.0"	"Week1"	"56"	"F"	"5.0"	"RED ROBIN #497"	"5785 S HARVEY ST, Muskegon MI 49441 US"	"-86.206685"	"43.148727"
"1076"	"99117.0"	"1.0"	"Week1"	"56"	"F"	"6.0"	"WESCO-BAKERY"	"6430 SCHAMBER DR, MUSKEGON MI 49444 US"	"-86.211669"	"43.135441"
"1077"	"99117.0"	"0.0"	"Week1"	"56"	"F"	"7.0"	"WESCO-DELI"	"6524 SCHAMBER DR, MUSKEGON MI 49444 US"	"-86.2123567"	"43.1340267"
"1078"	"803842.0"	"0.0"	"Week1"	"56"	"F"	"8.0"	"DR KEVIN FAIRFIELD"	"939 E. PONTALUNA, MUSKEGON MI 49444 US"	"-86.22248"	"43.1320417"
"1079"	"882664.0"	"7844.0"	"Week1"	"56"	"F"	"9.0"	"SYTSEMA FUNERAL HOMES INC."	"6291 S. HARVEY, MUSKEGON MI 49444-9739 US"	"-86.207006"	"43.137603"
"1080"	"806952.0"	"0.0"	"Week1"	"56"	"F"	"10.0"	"BOOYAH'S SPORTS BAR"	"6022 HARVEY ST, Muskegon MI 49415 US"	"-86.205372"	"43.142869"
"1081"	"806090.0"	"0.0"	"Week2"	"56"	"F"	"11.0"	"TIMELESS WOOD CARE PRODUCTS"	"6528 SCHAMBER DR, MUSKEGON MI 49444 US"	"-86.2121967"	"43.1340717"
"1082"	"806951.0"	"0.0"	"Week1"	"56"	"F"	"11.0"	"DOMINO'S PIZZA"	"6022 HARVEY ST, MUSKEGON MI 49444 US"	"-86.205372"	"43.142869"
"1083"	"802700.0"	"0.0"	"Week2"	"56"	"F"	"12.0"	"PHYT PHYZIQUE"	"6502 SCHAMBER DRIVE, MUSKEGON MI 49444 US"	"-86.212799"	"43.134642"
"1084"	"856041.0"	"0.0"	"Week1"	"56"	"F"	"12.0"	"WESTSHORE OMS, PLC"	"5957 S HARVEY, MUSKEGON MI 49444 US"	"-86.206981"	"43.144059"
"1085"	"802569.0"	"0.0"	"Week3"	"56"	"F"	"12.0"	"SERVICE 1 FEDERAL CREDIT UNION"	"1625 EASTWIND, MUSKEGON MI 49441 US"	"-86.205155"	"43.144228"
"1086"	"806197.0"	"0.0"	"Week2"	"56"	"F"	"13.0"	"TITAN TOOL AND DIE"	"6435 SCHAMBER DR, MUSKEGON MI 49441 US"	"-86.2139866"	"43.1356011"
"1087"	"803610.0"	"0.0"	"Week1"	"56"	"F"	"13.0"	"FOOT AND ANKLE SPECIALISTS"	"1450 E FARR RD, MUSKEGON MI 49444 US"	"-86.210086"	"43.140226"
"1088"	"808440.0"	"0.0"	"Week1"	"56"	"F"	"14.0"	"NOBLE COMPANY INC"	"7300 ENTERPRISE DR, SPRING LAKE MI 49456 US"	"-86.211556"	"43.119249"
"1089"	"533054.0"	"0.0"	"Week1"	"56"	"F"	"15.0"	"ACTIVE MANUFACTURING"	"17127 HICKORY, SPRING LAKE MI 49456 US"	"-86.21361"	"43.111346"
"1090"	"806805.0"	"0.0"	"Week1"	"56"	"F"	"16.0"	"FRUITPORT SCHOOLS"	"3113 E PONTALUNA ROAD, FRUITPORT MI 49415-9600 US"	"-86.1697"	"43.131103"
"1091"	"99033.0"	"257.0"	"Week1"	"56"	"F"	"17.0"	"FRUITPORT SCHOOLS"	"3113 E PONTALUNA, FRUITPORT MI 49415 US"	"-86.1697"	"43.131103"
"1092"	"804425.0"	"0.0"	"Week1"	"56"	"F"	"18.0"	"FRUITPORT ANIMAL HOSPITAL"	"3692 PONTALUNA ROAD, FRUITPORT MI 49415 US"	"-86.15352"	"43.1324667"
"1093"	"804431.0"	"0.0"	"Week1"	"56"	"F"	"19.0"	"ORCHARD MARKET - FRUITPORT"	"6530 AIRLINE ROAD, FRUITPORT MI 49415 US"	"-86.153923"	"43.133332"
"1094"	"99117.0"	"31.0"	"Week1"	"56"	"F"	"20.0"	"WESCO #5"	"6419 AIRLINE HWY, FRUITPORT MI 49415 US"	"-86.155952"	"43.135348"
"1095"	"806559.0"	"0.0"	"Week1"	"56"	"F"	"21.0"	"SHORELINE SALES GARY'S AUTO BO"	"3700 FARR RD, FRUITPORT MI 49415 US"	"-86.1534774"	"43.1395787"
"1096"	"806470.0"	"0.0"	"Week3"	"56"	"F"	"21.0"	"WILD MONKEY SMOKE SHOP"	"420 N THIRD, FRUITPORT MI 49415 US"	"-86.1544983"	"43.1316117"
"1097"	"806723.0"	"0.0"	"Week2"	"56"	"F"	"22.0"	"FRUITPORT TOWNSHIP"	"5865 AIRLINE RD, FRUITPORT MI 49415 US"	"-86.15662471"	"43.14548154"
"1098"	"806572.0"	"0.0"	"Week1"	"56"	"F"	"22.0"	"FRUITPORT CHIROPRACTIC"	"3427 FARR ROAD, FRUITPORT MI 49415 US"	"-86.159311"	"43.138901"
"1099"	"99117.0"	"32.0"	"Week1"	"56"	"F"	"23.0"	"WESCO #21"	"6440 AIRLINE RD, FRUITPORT MI 49415 US"	"-86.154875"	"43.134829"
"1100"	"806200.0"	"0.0"	"Week1"	"56"	"F"	"24.0"	"VILLAGE INN"	"340 N THIRD, FRUITPORT MI 49415 US"	"-86.154841"	"43.130512"
"1101"	"804434.0"	"0.0"	"Week2"	"56"	"F"	"25.0"	"MOREA CHIROPRACTIC"	"388 N THIRD, FRUITPORT MI 49415 US"	"-86.15367"	"43.131085"
"1102"	"806777.0"	"0.0"	"Week1"	"56"	"F"	"25.0"	"FRUITPORT CONGREGATIONAL"	"9 N 8TH AVE, FRUITPORT MI 49415 US"	"-86.166958"	"43.124386"
"1103"	"806724.0"	"0.0"	"Week4"	"56"	"F"	"26.0"	"FRUITPORT DISTRICT LIBRARY"	"47 PARK ST, FRUITPORT MI 49415 US"	"-86.155715"	"43.124164"
"1104"	"804449.0"	"0.0"	"Week1"	"56"	"F"	"26.0"	"THE GLEASON CENTER"	"19084 FRUITPORT RD, SPRING LAKE MI 49456 US"	"-86.157381"	"43.115543"
"1105"	"529098.0"	"0.0"	"Week2"	"56"	"F"	"26.0"	"ALL STAR GROOMING"	"109 N THIRD, FRUITPORT MI 49415 US"	"-86.155507"	"43.126294"
"1106"	"804450.0"	"0.0"	"Week1"	"56"	"F"	"27.0"	"FUR CRAZY PET SALON"	"19130 N FRUITPORT RD, SPRING LAKE MI 49456 US"	"-86.1565042"	"43.1160807"
"1107"	"514953.0"	"0.0"	"Week1"	"56"	"M"	"1.0"	"TLC REPAIR"	"1069 COMSTOCK, MARNE MI 49435 US"	"-85.815158"	"43.038266"
"1108"	"599000.0"	"15.0"	"Week1"	"56"	"M"	"2.0"	"NEW BEGINNINGS REST"	"25 68TH STREET, COOPERSVILLE MI 49404 US"	"-85.957556"	"43.060514"
"1109"	"886085.0"	"6092.0"	"Week1"	"56"	"M"	"3.0"	"GOODWILL COOPERSVILLE #245"	"1141 W. RANDALL, COOPERSVILLE MI 49404 US"	"-85.954761"	"43.060777"
"1110"	"99061.0"	"296.0"	"Week1"	"56"	"M"	"4.0"	"FAMILY FARE #635"	"1181 W. RANDALL, COOPERSVILLE MI 49404 US"	"-85.956128"	"43.061065"
"1111"	"99161.0"	"296.0"	"Week1"	"56"	"M"	"5.0"	"FAMILY FARE #635 FIRST AID"	"1181 W. RANDALL, COOPERSVILLE MI 49404 US"	"-85.956128"	"43.061065"
"1112"	"99084.0"	"1.0"	"Week1"	"56"	"M"	"6.0"	"BURNIPS EQUIPMENT CO"	"7353 STATE RD, COOPERSVILLE MI 49404 US"	"-85.970371"	"43.065282"
"1113"	"513087.0"	"0.0"	"Week1"	"56"	"M"	"7.0"	"TURKS INN INC."	"11139 CLEVELAND ROAD, NUNICA MI 49448 US"	"-86.065572"	"43.074696"
"1114"	"520553.0"	"0.0"	"Week3"	"56"	"M"	"7.0"	"MICHAELS CATHOLIC CHURCH"	"17150 88TH AVE., COOPERSVILLE MI 49404 US"	"-86.006512"	"43.080981"
"1115"	"533600.0"	"0.0"	"Week2"	"56"	"M"	"7.0"	"FATZO'S PIZZA-COOPERSVILLE"	"259 MAIN ST, COOPERSVILLE MI 49404 US"	"-85.933446"	"43.063623"
"1116"	"521497.0"	"0.0"	"Week2"	"56"	"M"	"8.0"	"RANDAL STREET MEDICAL"	"675 W. RANDALL, COOPERSVILLE MI 49404 US"	"-85.9442"	"43.060304"
"1117"	"99031.0"	"55.0"	"Week1"	"56"	"M"	"8.0"	"BLARNEY CASTLE 728"	"11956 CLEVELAND, NUNICA MI 49448 US"	"-86.085317"	"43.073708"
"1118"	"807701.0"	"0.0"	"Week1"	"56"	"M"	"9.0"	"FALCON CORPORATION"	"14510 CLEVELAND (M104), SPRING LAKE MI 49456 US"	"-86.14857"	"43.073267"
"1119"	"532240.0"	"0.0"	"Week2"	"56"	"M"	"9.0"	"IBEW LOCAL 275"	"140 N 64TH AVE, COOPERSVILLE MI 49404 US"	"-85.9463617"	"43.0622633"
"1120"	"99061.0"	"193.0"	"Week1"	"56"	"M"	"10.0"	"SPT FAM FARE GAS STATION #852"	"6380 LK MICHIGAN DR., ALLENDALE MI 49401 US"	"-85.94359"	"42.97181"
"1121"	"529530.0"	"0.0"	"Week2"	"56"	"M"	"10.0"	"BETTEN BAKER CHEVROLET"	"930 O'MALLY DRIVE, COOPERSVILLE MI 49404 US"	"-85.949569"	"43.05413"
"1122"	"99161.0"	"193.0"	"Week1"	"56"	"M"	"11.0"	"SPT FAM FARE #852 FIRST AID"	"6380 LK MICHIGAN DR., ALLENDALE MI 49401 US"	"-85.94359"	"42.97181"
"1123"	"99061.0"	"315.0"	"Week1"	"56"	"M"	"12.0"	"SPT F. FARE #137 FRONT"	"6370 LAKE MI DR., ALLENDALE MI 49401 US"	"-85.942465"	"42.97099"
"1124"	"99161.0"	"315.0"	"Week1"	"56"	"M"	"13.0"	"SPT F. FARE #137 FIRST AID"	"6370 LAKE MI DR., ALLENDALE MI 49401 US"	"-85.942465"	"42.97099"
"1125"	"801043.0"	"0.0"	"Week1"	"56"	"M"	"14.0"	"DOMINOES #1043"	"5164 LAKE MICHIGAN DRIVE, ALLENDALE MI 49401 US"	"-85.913197"	"42.971983"
"1126"	"27828.0"	"9.0"	"Week1"	"56"	"M"	"15.0"	"PEPPINOS PIZZA EXPRESS"	"4647 LAKE MICHIGAN DR, ALLENDALE MI 49401 US"	"-85.900771"	"42.972596"
"1127"	"532903.0"	"0.0"	"Week1"	"56"	"M"	"16.0"	"MAIN ST PUB-ALLENDALE"	"11240 UNIVERSITY PKWY, ALLENDALE MI 49401 US"	"-85.906374"	"42.973184"
"1128"	"99094.0"	"0.0"	"Week1"	"56"	"M"	"17.0"	"LMCU 75"	"5023 LAKE MICHIGAN DRIVE, ALLENDALE MI 49401 US"	"-85.909743"	"42.972875"
"1129"	"99054.0"	"25.0"	"Week4"	"56"	"M"	"17.0"	"CHARTER COMMUNICATION"	"12956 68TH AVE., ALLENDALE MI 49401 US"	"-85.953565"	"43.00412"
"1130"	"27828.0"	"4.0"	"Week1"	"56"	"M"	"18.0"	"PEPPINOS RESTORANTE"	"5065 LAKE MICHIGAN DRIVE, ALLENDALE MI 49401 US"	"-85.911126"	"42.972908"
"1131"	"99051.0"	"47.0"	"Week1"	"56"	"M"	"19.0"	"JET'S PIZZA MI-156"	"5135 LAKE MICHIGAN DRIVE, ALLENDALE MI 49401 US"	"-85.912909"	"42.973071"
"1132"	"806469.0"	"0.0"	"Week1"	"56"	"M"	"20.0"	"FUNKY MONKEY SMOKE SHOP"	"1136 W RANDALL ST SUITE G, COOPERSVILLE MI 49404 US"	"-85.954938"	"43.059255"
"1133"	"530054.0"	"0.0"	"Week1"	"56"	"M"	"21.0"	"327 PIZZA & PUB"	"327 MAIN ST., COOPERSVILLE MI 49406 US"	"-85.935133"	"43.063961"
"1134"	"521854.0"	"0.0"	"Week1"	"56"	"M"	"22.0"	"COOPERSVILLE DENTAL"	"345 MAIN ST, COOPERSVILLE MI 49404 US"	"-85.935587"	"43.06416"
"1135"	"532076.0"	"0.0"	"Week1"	"56"	"M"	"23.0"	"CHAMPS BAR & GRILL"	"287 MAIN ST, COOPERSVILLE MI 49404 US"	"-85.934145"	"43.063734"
"1136"	"807380.0"	"0.0"	"Week1"	"56"	"M"	"24.0"	"THROOP FUNERAL HOME"	"214 CHURCH ST, COOPERSVILLE MI 49404 US"	"-85.932865"	"43.063568"
"1137"	"806410.0"	"0.0"	"Week1"	"56"	"M"	"25.0"	"SOUTHSIDE BAR & GRILL INC"	"229 RANDALL, COOPERSVILLE MI 49404 US"	"-85.932814"	"43.060026"
"1138"	"532137.0"	"1.0"	"Week1"	"56"	"M"	"26.0"	"TAQUERIA MANRIQUEZ"	"4 EAST RANDALL #1, COOPERSVILLE MI 49401 US"	"-85.927099"	"43.059709"
"1139"	"532170.0"	"0.0"	"Week1"	"56"	"M"	"27.0"	"OTTAWA ORCHARDS, INC."	"3449 E. ARTHUR, COOPERSVILLE MI 49347 US"	"-85.874624"	"43.060551"
"1140"	"512907.0"	"0.0"	"Week1"	"56"	"M"	"28.0"	"CAMP-N-CRUISE"	"1613 HAYES, MARNE MI 49435 US"	"-85.827777"	"43.031311"
"1141"	"531485.0"	"4.0"	"Week1"	"56"	"R"	"1.0"	"TED'S"	"14977 CLEVELAND STREET, SPRING LAKE MI 49546 US"	"-86.160496"	"43.074788"
"1142"	"519821.0"	"0.0"	"Week1"	"56"	"R"	"2.0"	"SPRING LAKE COUNTRY CLUB"	"17496 FRUITPORT RD., SPRING LAKE MI 49456 US"	"-86.1760504"	"43.0844816"
"1143"	"526659.0"	"0.0"	"Week1"	"56"	"R"	"3.0"	"TWO TONY'S TAVERNA GRILLE"	"723 E. SAVIDGE, SPRING LAKE MI 49456 US"	"-86.181547"	"43.077319"
"1144"	"99117.0"	"9.0"	"Week1"	"56"	"R"	"4.0"	"WESCO #16"	"502 W SAVIDGE ST, SPRING LAKE MI 49456 US"	"-86.203657"	"43.076331"
"1145"	"528125.0"	"0.0"	"Week1"	"56"	"R"	"5.0"	"OLD BOYS BREWHOUSE"	"971 W SAVIDGE ST, SPRING LAKE MI 49456 US"	"-86.21282"	"43.076976"
"1146"	"533590.0"	"0.0"	"Week3"	"56"	"R"	"5.0"	"BEEFY'S BURGER SHACK"	"909 W. SAVIDGE ST, SPRING LAKE MI 49456 US"	"-86.209792"	"43.076527"
"1147"	"533340.0"	"0.0"	"Week1"	"56"	"R"	"6.0"	"FINNS CHOPHOUSE"	"909 W. SAVIDGE, SPRING LAKE MI 49456 US"	"-86.209792"	"43.076527"
"1148"	"520889.0"	"0.0"	"Week1"	"56"	"R"	"8.0"	"HORIZON HOSPITALITY"	"940 W. SAVIDGE HOLIDAY INN, SPRING LAKE MI 49456 US"	"-86.212891"	"43.075567"
"1149"	"520889.0"	"1.0"	"Week1"	"56"	"R"	"9.0"	"HORIZON EVENTS"	"940 W. SAVIDGE HOLIDAY INN, SPRING LAKE MI 49456 US"	"-86.212891"	"43.075567"
"1150"	"887717.0"	"7717.0"	"Week1"	"56"	"R"	"10.0"	"MR SCRIB'S"	"317 N BEACON, GRAND HAVEN MI 49417-1108 US"	"-86.221057"	"43.064218"
"1151"	"99054.0"	"27.0"	"Week1"	"56"	"R"	"11.0"	"CHARTER COMMUNICATION"	"1433 FULTON STREET, GRAND HAVEN MI 49417 US"	"-86.207038"	"43.063296"
"1152"	"530152.0"	"0.0"	"Week2"	"56"	"R"	"11.0"	"RAINY DAYS CAFE"	"121 N. BEACHTREE, GRAND HAVEN MI 49417 US"	"-86.206102"	"43.062661"
"1153"	"533045.0"	"0.0"	"Week1"	"56"	"R"	"12.0"	"COMCAST SPOTLIGHT"	"1435 FULTON ST, GRAND HAVEN MI 49417 US"	"-86.206353"	"43.063376"
"1154"	"808552.0"	"0.0"	"Week2"	"56"	"R"	"13.0"	"SIGN FACTORY, THE"	"1444 WASHINGTON AVE, GRAND HAVEN MI 49417 US"	"-86.206505"	"43.060998"
"1155"	"808004.0"	"0.0"	"Week1"	"56"	"R"	"13.0"	"CITY AUTO BODY"	"12 N BEECHTREE, GRAND HAVEN MI 49417 US"	"-86.205503"	"43.061824"
"1156"	"808001.0"	"0.0"	"Week1"	"56"	"R"	"14.0"	"SPORTY'S BAR & GRILL"	"6 S BEECHTREE STREET, GRAND HAVEN MI 49417 US"	"-86.2055967"	"43.0611183"
"1157"	"532000.0"	"0.0"	"Week1"	"56"	"R"	"15.0"	"TOASTED PICKLE"	"112 WASHINGTON, GRAND HAVEN MI 49417 US"	"-86.232107"	"43.06409"
"1158"	"531517.0"	"0.0"	"Week3"	"56"	"R"	"15.0"	"MAMA'S THAI CAFE"	"562 N. BEACON BLVD., GRAND HAVEN MI 49417 US"	"-86.218183"	"43.067644"
"1159"	"531014.0"	"0.0"	"Week1"	"56"	"R"	"16.0"	"ELECTRIC HERO"	"20 WASHINGTON, GRAND HAVEN MI 49417 US"	"-86.233401"	"43.064509"
"1160"	"529379.0"	"0.0"	"Week1"	"56"	"R"	"17.0"	"BUTCHS BEACH BURRITO"	"728 E SAVAGE, SPRING LAKE MI 49456 US"	"-86.21264034"	"43.07627166"
"1161"	"808527.0"	"0.0"	"Week1"	"56"	"R"	"18.0"	"SABO SKIN CARE & MASSAGE"	"701 E SAVAGE ST., SPRING LAKE MI 49456 US"	"-86.21474"	"43.07652"
"1162"	"99031.0"	"52.0"	"Week1"	"56"	"R"	"19.0"	"BLARNEY CASTLE 392"	"123 PINE ST., FERRYSBURG MI 49409 US"	"-86.215603"	"43.077889"
"1163"	"518644.0"	"0.0"	"Week4"	"56"	"R"	"19.0"	"W. MI ACADEMY OF ART"	"17350 HAZEL STREET, SPRING LAKE MI 49517 US"	"-86.213869"	"43.085497"
"1164"	"806500.0"	"0.0"	"Week1"	"56"	"R"	"20.0"	"PINE STREET CAFE"	"401 PINE STREET, FERRYSBURG MI 49409 US"	"-86.21381"	"43.08028"
"1165"	"806505.0"	"0.0"	"Week1"	"56"	"R"	"21.0"	"BILZ PLUMBING"	"235 2ND STREET, FERRYSBURG MI 49409 US"	"-86.2212632"	"43.0805558"
"1166"	"886085.0"	"6093.0"	"Week1"	"56"	"R"	"22.0"	"GOODWILL IND. DONATION CENTER"	"17687 174TH AVE., FERRYSBURG MI 49456 US"	"-86.22258"	"43.090252"
"1167"	"808859.0"	"0.0"	"Week2"	"56"	"R"	"22.0"	"KIMBERLY TAYLOR ACCTING & TAX"	"17188 VAN WAGONER, SPRING LAKE MI 49456 US"	"-86.216266"	"43.094123"
"1168"	"533161.0"	"0.0"	"Week1"	"56"	"R"	"23.0"	"GLOBAL TECHNOLOGIES"	"18683 TRIMBLE CT., SPRING LAKE MI 49456 US"	"-86.218052"	"43.108218"
"1169"	"808022.0"	"0.0"	"Week1"	"56"	"R"	"24.0"	"PLIANT PLASTICS CORP"	"1700 TAFT ROAD, MUSKEGON MI 49456 US"	"-86.21959107"	"43.10297723"
"1170"	"804156.0"	"0.0"	"Week4"	"56"	"R"	"24.0"	"BEST FINANCIAL CREDIT UNION"	"612 W SAVIDGE, SPRING LAKE MI 49456 US"	"-86.20521"	"43.076192"
"1171"	"804439.0"	"0.0"	"Week4"	"56"	"R"	"25.0"	"WELL ADJUSTED CHIROPRACTIC"	"124 W SAVIDGE, SPRING LAKE MI 49456 US"	"-86.198505"	"43.0765283"
"1172"	"888020.0"	"8020.0"	"Week2"	"56"	"R"	"25.0"	"LOVE IN ACTION"	"200 W SAVIDGE, SPRING LAKE MI 49456 US"	"-86.199162"	"43.07647"
"1173"	"99100.0"	"2.0"	"Week1"	"56"	"R"	"25.0"	"AAC CU-SPRING LAKE"	"17228 VAN WAGONER, SPRING LAKE MI 49456 US"	"-86.216727"	"43.095476"
"1174"	"533136.0"	"0.0"	"Week1"	"56"	"R"	"26.0"	"ZIMMER AUTOMOTIVE SERVICES"	"116 CHRISTMAN, SPRING LAKE MI 49456 US"	"-86.206436"	"43.077482"
"1175"	"883674.0"	"6579.0"	"Week1"	"56"	"R"	"27.0"	"LAKESHORE FAMILY CARE"	"601 W. SAVIDGE, SPRING LAKE MI 49456 US"	"-86.2052113"	"43.0770792"
"1176"	"806578.0"	"0.0"	"Week1"	"56"	"R"	"28.0"	"BILLS SPORT SHOP"	"401 W SAVIDGE, SPRING LAKE MI 49456-1608 US"	"-86.202255"	"43.076962"
"1177"	"806710.0"	"0.0"	"Week1"	"56"	"R"	"29.0"	"IDLE HOUR RESTAURANT"	"213 W SAVIDGE, SPRING LAKE MI 49456 US"	"-86.199663"	"43.076928"
"1178"	"804442.0"	"0.0"	"Week1"	"56"	"R"	"30.0"	"ORCHARD MARKET - SPRING LAKE"	"17026 LLOYDS BAYOU DRIVE, SPRING LAKE MI 49456 US"	"-86.172333"	"43.077615"
"1179"	"99117.0"	"28.0"	"Week1"	"56"	"T"	"1.0"	"WESCO #18"	"1858 RUDDIMAN DR., MUSKEGON MI 49445 US"	"-86.26127"	"43.261744"
"1180"	"99117.0"	"26.0"	"Week1"	"56"	"T"	"2.0"	"WESCO-MAIN OFFICE"	"1460 WHITEHALL RD, MUSKEGON MI 49445 US"	"-86.260234"	"43.278947"
"1181"	"806962.0"	"0.0"	"Week1"	"56"	"T"	"3.0"	"MONA LAKE BOAT CLUB"	"372 RANDALL ROAD, MUSKEGON MI 49441 US"	"-86.254248"	"43.176137"
"1182"	"803510.0"	"0.0"	"Week4"	"56"	"T"	"3.0"	"LAKE HARBOR UNITED METHODIST"	"4861 S HENRY ST, MUSKEGON MI 49441 US"	"-86.264435"	"43.164454"
"1183"	"802171.0"	"0.0"	"Week1"	"56"	"T"	"4.0"	"LEFLUER CORPORATION LLC"	"4210 GRAND HAVEN RD, MUSKEGON MI 49441 US"	"-86.219961"	"43.175898"
"1184"	"806045.0"	"0.0"	"Week2"	"56"	"T"	"5.0"	"OLD HOMESTEAD INC"	"4814 GRAND HAVEN RD, MUSKEGON MI 49441 US"	"-86.220062"	"43.165086"
"1185"	"806385.0"	"0.0"	"Week1"	"56"	"T"	"5.0"	"WESTSHORE PROPERTY MGMT"	"4265 GRAND HAVEN RD, NORTON SHORES MI 49441 US"	"-86.220982"	"43.175284"
"1186"	"806384.0"	"0.0"	"Week1"	"56"	"T"	"6.0"	"CINEMA CAROUSEL THEATRE"	"4289 GRAND HAVEN RD, MUSKEGON MI 49441 US"	"-86.221546"	"43.174017"
"1187"	"808015.0"	"0.0"	"Week1"	"56"	"T"	"7.0"	"MARINE & INDUSTRIAL AUTO ELECT"	"4280 AIRLINE RD, MUSKEGON MI 49444 US"	"-86.209638"	"43.174808"
"1188"	"99104.0"	"14.0"	"Week1"	"56"	"T"	"8.0"	"AUNT MILLIE'S MUSKEGON BRANCH"	"3980 AIRLINE RD, MUSKEGON MI 49444 US"	"-86.216793"	"43.180048"
"1189"	"803855.0"	"0.0"	"Week1"	"56"	"T"	"9.0"	"BABBITT'S SPORT CENTER"	"3712 AIRLINE RD, MUSKEGON MI 49444 US"	"-86.2245315"	"43.1862048"
"1190"	"803857.0"	"0.0"	"Week1"	"56"	"T"	"10.0"	"AIRLINE BAR"	"3680 AIRLINE, MUSKEGON HEIGHTS MI 49444 US"	"-86.2276993"	"43.1873112"
"1191"	"809425.0"	"0.0"	"Week1"	"56"	"T"	"11.0"	"GREEK TONY'S PIZZA"	"4543 GRAND HAVEN RD, MUSKEGON MI 49441 US"	"-86.221071"	"43.170078"
"1192"	"809877.0"	"0.0"	"Week2"	"56"	"T"	"11.0"	"HUNGERFORD NICHOLS"	"4927 STARIHA SUITE A, MUSKEGON MI 49441 US"	"-86.233391"	"43.163027"
"1193"	"808915.0"	"0.0"	"Week1"	"56"	"T"	"12.0"	"FIRST CLASS TOWING, LLC"	"4585 GRAND HAVEN ROAD, MUSKEGON MI 49441 US"	"-86.221016"	"43.169262"
"1194"	"888021.0"	"8021.0"	"Week2"	"56"	"T"	"13.0"	"FOUNTAIN VIEW FAMILY DENTAL"	"925 E. PONTALUNA, MUSKEGON MI 49444 US"	"-86.223055"	"43.13194"
"1195"	"809304.0"	"0.0"	"Week1"	"56"	"T"	"13.0"	"FOUR SEASONS HOME CRAFTERS"	"4788 GRAND HAVEN RD, MUSKEGON MI 49441 US"	"-86.21999"	"43.16566"
"1196"	"806041.0"	"0.0"	"Week1"	"56"	"T"	"14.0"	"VFW POST 3195"	"5209 GRAND HAVEN RD, MUSKEGON MI 49441 US"	"-86.2209946"	"43.1578509"
"1197"	"806381.0"	"0.0"	"Week1"	"56"	"T"	"15.0"	"TOP'S BODY SHOPPE"	"5233 GRAND HAVEN RD, MUSKEGON MI 49441 US"	"-86.2213165"	"43.157462"
"1198"	"533216.0"	"0.0"	"Week1"	"56"	"T"	"16.0"	"DIETECH"	"865 E. PORTER, NORTON SHORES MI 49441 US"	"-86.222855"	"43.157614"
"1199"	"809841.0"	"0.0"	"Week3"	"56"	"T"	"16.0"	"EARTHTRONICS INC."	"755 E. ELLIS RD, MUSKEGON MI 49441 US"	"-86.226102"	"43.160645"
"1200"	"806886.0"	"0.0"	"Week1"	"56"	"T"	"17.0"	"THERMO-O-DISC. INC."	"851 E. Porter Rd., Muskegon MI 49441 US"	"-86.2252324"	"43.1576797"
"1201"	"524527.0"	"0.0"	"Week1"	"56"	"T"	"18.0"	"SILVER CREEK MANF."	"696 AIRPORT PLACE, NORTON SHORES MI 49441 US"	"-86.2278362"	"43.1603386"
"1202"	"809840.0"	"0.0"	"Week1"	"56"	"T"	"19.0"	"JENNIFER ROWE, MASSAGE THERAPY"	"800 E ELLIS, MUSKEGON MI 49441 US"	"-86.225506"	"43.162191"
"1203"	"809831.0"	"0.0"	"Week1"	"56"	"T"	"20.0"	"MUSKEGON COUNTY AIRPORT MAINT"	"106 SINCLAIR DRIVE, MUSKEGON MI 49441-5542 US"	"-86.2343588"	"43.1647777"
"1204"	"879222.0"	"0.0"	"Week1"	"56"	"T"	"21.0"	"HARBOR HOSPICE"	"265 E MT GARFIELD, MUSKEGON MI 49444 US"	"-86.24485416"	"43.14738541"
"1205"	"803997.0"	"0.0"	"Week1"	"56"	"T"	"22.0"	"BELLA MARIA'S RISTORANTE & EVE"	"513 W. PONTALUNA RD, MUSKEGON MI 49444 US"	"-86.25805"	"43.129954"
"1206"	"808030.0"	"0.0"	"Week2"	"56"	"T"	"22.0"	"GOOBERS BAKERY & PASTRY SHOPPE"	"4165 GRAND HAVEN RD, MUSKEGON MI 49441 US"	"-86.220795"	"43.176913"
"1207"	"99117.0"	"36.0"	"Week1"	"56"	"T"	"23.0"	"WESCO #68"	"1025 E. PONTALUNA RD, NORTON SHORES MI 49456 US"	"-86.220105"	"43.131949"
"1208"	"806471.0"	"0.0"	"Week4"	"56"	"T"	"23.0"	"J W & CO HAIR STUDIO"	"4851 HARVEY ST SUITE D, MUSKEGON MI 49444 US"	"-86.206664"	"43.164048"
"1209"	"805977.0"	"0.0"	"Week2"	"56"	"T"	"23.0"	"MR. QUICK RESTAURANTS"	"4190 Grand Haven Rd, MUSKEGON MI 49444 US"	"-86.219601"	"43.177055"
"1210"	"806405.0"	"0.0"	"Week1"	"56"	"T"	"24.0"	"WEST MI POWER CLEANING SYS INC"	"6156 GRAND HAVEN RD, MUSKEGON MI 49441 US"	"-86.219961"	"43.140473"
"1211"	"808617.0"	"0.0"	"Week1"	"56"	"T"	"25.0"	"LAKESHORE TECHNOLOGIES LLC"	"1269 E MOUNT GARFIELD SUITE G, NORTON SHORES MI 49441 US"	"-86.212739"	"43.146014"
"1212"	"808080.0"	"0.0"	"Week1"	"56"	"T"	"26.0"	"SEMLOW CHIROPRACTIC"	"5353 GRAND HAVEN RD SUITE A, MUSKEGON MI 49441 US"	"-86.221954"	"43.155407"
"1213"	"499014.0"	"50.0"	"Week3"	"56"	"T"	"26.0"	"RX OPTICAL"	"1720 STERNBERG, FRUITPORT MI  US"	"-86.202881"	"43.154651"
"1214"	"885970.0"	"5971.0"	"Week3"	"56"	"T"	"27.0"	"GLO SUN AND SHADES"	"5247 HARVEY, MUSKEGON MI 49444 US"	"-86.208739"	"43.157188"
"1215"	"886208.0"	"7974.0"	"Week1"	"56"	"T"	"27.0"	"G & L CHILI DOGS"	"1133 E STERNBERG RD, MUSKEGON MI 49440-1215 US"	"-86.217697"	"43.153953"
"1216"	"807972.0"	"0.0"	"Week1"	"56"	"T"	"28.0"	"MEYER MUSIC"	"1664 E STERNBERG, MUSKEGON MI 49444 US"	"-86.204169"	"43.154804"
"1217"	"886085.0"	"6086.0"	"Week1"	"56"	"T"	"29.0"	"GOODWILL NORTON SHORES #236"	"1484 ELLIS ROAD, MUSKEGON MI 49444 US"	"-86.207151"	"43.162098"
"1218"	"804692.0"	"0.0"	"Week1"	"56"	"T"	"30.0"	"SALON 297"	"4915 HARVEY, MUSKEGON MI 49444 US"	"-86.206547"	"43.162991"
"1219"	"99117.0"	"5.0"	"Week1"	"56"	"W"	"1.0"	"WESCO #7"	"14750 MERCURY DR., GRAND HAVEN MI 49417 US"	"-86.152834"	"43.022819"
"1220"	"99094.0"	"54.0"	"Week1"	"56"	"W"	"2.0"	"LMCU 390"	"16916 ROBBINS RD, GRAND HAVEN MI 49417 US"	"-86.207359"	"43.044272"
"1221"	"882175.0"	"2178.0"	"Week3"	"56"	"W"	"3.0"	"REDI RENTAL"	"401 S BEECHTREE, GRAND HAVEN MI 49417 US"	"-86.206348"	"43.057335"
"1222"	"808705.0"	"0.0"	"Week1"	"56"	"W"	"3.0"	"PREMIER MD PLUS"	"16986 ROBBINS RD SUITE 180, GRAND HAVEN MI 49417 US"	"-86.209768"	"43.044253"
"1223"	"886085.0"	"6082.0"	"Week1"	"56"	"W"	"4.0"	"GOODWILL GRAND HAVEN #232"	"1112 ROBBINS RD, GRAND HAVEN MI 49417 US"	"-86.213879"	"43.043955"
"1224"	"99061.0"	"18.0"	"Week1"	"56"	"W"	"5.0"	"D&W 1570 MEAT"	"1116 ROBBINS ROAD, GRAND HAVEN MI 49417 US"	"-86.214084"	"43.043337"
"1225"	"99061.0"	"19.0"	"Week1"	"56"	"W"	"6.0"	"D&W 1570 BAKERY"	"1116 ROBBINS ROAD, GRAND HAVEN MI 49417 US"	"-86.214084"	"43.043337"
"1226"	"888020.0"	"8018.0"	"Week2"	"56"	"W"	"7.0"	"LOVE IN ACTION"	"1106 FULTON, GRAND HAVEN MI 49417 US"	"-86.215172"	"43.062485"
"1227"	"99061.0"	"20.0"	"Week1"	"56"	"W"	"7.0"	"D&W 1570 DELI"	"1116 ROBBINS ROAD, GRAND HAVEN MI 49417 US"	"-86.214084"	"43.043337"
"1228"	"99061.0"	"21.0"	"Week1"	"56"	"W"	"8.0"	"D&W 1570 PRODUCE"	"1116 ROBBINS ROAD, GRAND HAVEN MI 49417 US"	"-86.214084"	"43.043337"
"1229"	"888020.0"	"8017.0"	"Week2"	"56"	"W"	"9.0"	"LOVE IN ACTION"	"326 N FERRY, GRAND HAVEN MI 49456 US"	"-86.215256"	"43.064398"
"1230"	"99061.0"	"22.0"	"Week1"	"56"	"W"	"9.0"	"D&W 1570 STARBUCKS"	"1116 ROBBINS ROAD, GRAND HAVEN MI 49417 US"	"-86.214084"	"43.043337"
"1231"	"532736.0"	"1.0"	"Week2"	"56"	"W"	"10.0"	"TROPICAL SMOOTHIE-GRAND HAVEN"	"410 NORTH BEACON BLVD, GRAND HAVEN MI 49417 US"	"-86.219554"	"43.065277"
"1232"	"99061.0"	"23.0"	"Week1"	"56"	"W"	"10.0"	"D&W 1570 FRONT"	"1116 ROBBINS ROAD, GRAND HAVEN MI 49417 US"	"-86.214084"	"43.043337"
"1233"	"99061.0"	"473.0"	"Week1"	"56"	"W"	"11.0"	"SPT D&W QUICK STOP #1570"	"1116 ROBBINS ROAD, GRAND HAVEN MI 49417 US"	"-86.214084"	"43.043337"
"1234"	"99094.0"	"13.0"	"Week2"	"56"	"W"	"11.0"	"LMCU 87"	"951 JACKSON ST, GRAND HAVEN MI 49417 US"	"-86.217456"	"43.067239"
"1235"	"99113.0"	"1.0"	"Week2"	"56"	"W"	"12.0"	"WAVELAND-GRAND LANDINGS"	"529 MILLER, GRAND HAVEN MI 49417 US"	"-86.221761"	"43.06761"
"1236"	"99161.0"	"18.0"	"Week1"	"56"	"W"	"12.0"	"D&W 1570 FIRST AID"	"1116 ROBBINS ROAD, GRAND HAVEN MI 49417 US"	"-86.214084"	"43.043337"
"1237"	"882688.0"	"2689.0"	"Week2"	"56"	"W"	"13.0"	"CUISINE ARTS GRAND HAVEN STORE"	"623 A-WAY, GRAND HAVEN MI 49417 US"	"-86.220965"	"43.068156"
"1238"	"99161.0"	"484.0"	"Week1"	"56"	"W"	"13.0"	"D&W #766 FIRST AID"	"17200 ROBBINS ROAD, GRAND HAVEN MI 49417 US"	"-86.216075"	"43.044216"
"1239"	"532601.0"	"0.0"	"Week1"	"56"	"W"	"14.0"	"TWO YOLKS CAFE"	"949 ROBBINS RD, GRAND HAVEN MI 49417 US"	"-86.218357"	"43.044857"
"1240"	"806590.0"	"0.0"	"Week2"	"56"	"W"	"14.0"	"DOMINO'S PIZZA (S BEACON)"	"311 NORTH 7TH STREET, GRAND HAVEN MI 49417 US"	"-86.221631"	"43.06454"
"1241"	"808707.0"	"0.0"	"Week1"	"56"	"W"	"15.0"	"GRAND PINES ASSISTED LIVING"	"1410 S FERRY, GRAND HAVEN MI 49417 US"	"-86.213854"	"43.047237"
"1242"	"806548.0"	"0.0"	"Week1"	"56"	"W"	"16.0"	"WORKPLACE HEALTH OF GRAND HAVE"	"923 BEECHTREE, SUITE 9, GRAND HAVEN MI 49417 US"	"-86.206898"	"43.0517807"
"1243"	"513937.0"	"0.0"	"Week2"	"56"	"W"	"16.0"	"THE BOOKMAN"	"715 WASHINGTON, GRAND HAVEN MI 49417 US"	"-86.222328"	"43.06162"
"1244"	"807010.0"	"0.0"	"Week1"	"56"	"W"	"17.0"	"HI-WAY INN"	"600 S BEACHTREE, GRAND HAVEN MI 49417 US"	"-86.205486"	"43.055569"
"1245"	"512567.0"	"0.0"	"Week1"	"56"	"W"	"18.0"	"CLOVER BAR"	"601 S. BEECHTREE, GRAND HAVEN MI 49417 US"	"-86.206161"	"43.055552"
"1246"	"533411.0"	"0.0"	"Week2"	"56"	"W"	"18.0"	"GRAND HAVEN ELKS"	"15 S. 3RD ST, GRAND HAVEN MI 49417 US"	"-86.230001"	"43.062933"
"1247"	"522135.0"	"0.0"	"Week4"	"56"	"W"	"18.0"	"CHURCH OF THE DUNES"	"717 SHELDON, GRAND HAVEN MI 49417 US"	"-86.230147"	"43.055995"
"1248"	"806549.0"	"0.0"	"Week4"	"56"	"W"	"19.0"	"BURMINGHAM PROPERTIES"	"841 SLAYTON, GRAND HAVEN MI 49417 US"	"-86.221215"	"43.058261"
"1249"	"521600.0"	"0.0"	"Week2"	"56"	"W"	"19.0"	"PIANO FACTORY LLC"	"41 WASHINGTON, GRAND HAVEN MI 49417 US"	"-86.232656"	"43.064993"
"1250"	"527739.0"	"0.0"	"Week1"	"56"	"W"	"19.0"	"FOUR POINTES"	"1051 S. BEACON BLVD, GRAND HAVEN MI 49417 US"	"-86.222074"	"43.05066"
"1251"	"808623.0"	"0.0"	"Week1"	"56"	"W"	"20.0"	"GRAND HAVEN PIZZA & SUB SHOP"	"1005 S BEACON, GRAND HAVEN MI 49417 US"	"-86.221979"	"43.051351"
"1252"	"807715.0"	"0.0"	"Week2"	"56"	"W"	"20.0"	"REDS"	"41 W WASHINGTON AVE, SUITE 230, GRAND HAVEN MI 49417 US"	"-86.232656"	"43.064993"
"1253"	"807521.0"	"0.0"	"Week1"	"56"	"W"	"21.0"	"LAKESHORE UROLOGY PLC"	"1445 SHELDON, SUITE 101, GRAND HAVEN MI 49417 US"	"-86.228873"	"43.050686"
"1254"	"522035.0"	"0.0"	"Week1"	"56"	"W"	"22.0"	"HARBOR DUNES MEDICAL CENTER"	"1445 SHELDON AVE, GRAND HAVEN MI 49417 US"	"-86.228873"	"43.050686"
"1255"	"808536.0"	"0.0"	"Week4"	"56"	"W"	"23.0"	"MICHAEL L STERENBERG DO PLLC"	"600 PARK AVE, GRAND HAVEN MI 49417 US"	"-86.225128"	"43.053014"
"1256"	"529107.0"	"0.0"	"Week1"	"56"	"W"	"24.0"	"BUTCHS BEACH BURRITOS"	"726 S HARBOR DR, GRAND HAVEN MI 49417 US"	"-86.242202"	"43.059324"
"1257"	"808537.0"	"0.0"	"Week4"	"56"	"W"	"24.0"	"YOUNG, DR. ROBBI"	"600 PARK, SUITE 3, GRAND HAVEN MI 49417 US"	"-86.225128"	"43.053014"
"1258"	"99113.0"	"0.0"	"Week1"	"56"	"W"	"25.0"	"WAVELAND-ZEPHYR HOUSE"	"22 S. HARBOR, GRAND HAVEN MI 49417 US"	"-86.234179"	"43.064207"
"1259"	"808633.0"	"0.0"	"Week2"	"56"	"W"	"25.0"	"DR SID DISBROW"	"518 S BEACON, GRAND HAVEN MI 49417 US"	"-86.22016"	"43.055698"
"1260"	"808507.0"	"0.0"	"Week1"	"56"	"W"	"26.0"	"VFW 2326"	"20 N FIRST, GRAND HAVEN MI 49417 US"	"-86.231908"	"43.065059"
"1261"	"808718.0"	"0.0"	"Week1"	"56"	"W"	"27.0"	"TRI CITY HISTORICAL MUSEUM"	"200 WASHINGTON AVE, GRAND HAVEN MI 49417 US"	"-86.230981"	"43.063592"
"1262"	"530421.0"	"0.0"	"Week4"	"56"	"W"	"28.0"	"HARBOR DEBURRING"	"1703 EATON DR, GRAND HAVEN MI 49417 US"	"-86.19859"	"43.0493167"
"1263"	"808877.0"	"0.0"	"Week1"	"56"	"W"	"28.0"	"GLOBAL AUTOWORK LLC"	"1050 FULTON, GRAND HAVEN MI 49417 US"	"-86.216155"	"43.062468"
"1264"	"888020.0"	"8019.0"	"Week2"	"56"	"W"	"29.0"	"LOVE IN ACTION"	"948 ROBBINS RD, GRAND HAVEN MI 49456 US"	"-86.2183"	"43.044099"
"1265"	"807616.0"	"0.0"	"Week1"	"56"	"W"	"29.0"	"BODHI TREE JUICE CO. LLC"	"1115 WASHINGTON, GRAND HAVEN MI 49417 US"	"-86.214904"	"43.061191"
"1266"	"529558.0"	"1.0"	"Week1"	"56"	"W"	"30.0"	"FRANK'S MARKET"	"1118 WASHINGTON AVE, GRAND HAVEN MI 49417 US"	"-86.214809"	"43.060727"
"1267"	"806612.0"	"0.0"	"Week3"	"56"	"W"	"30.0"	"HEALTH HUT"	"700 WASHINGTON, GRAND HAVEN MI 49417 US"	"-86.222647"	"43.061172"
"1268"	"529558.0"	"0.0"	"Week1"	"56"	"W"	"31.0"	"STANZ CAFE"	"1118 WASHINGTON AVE, GRAND HAVEN MI 49417 US"	"-86.214809"	"43.060727"
"1269"	"512583.0"	"0.0"	"Week1"	"56"	"W"	"32.0"	"TRI CITIES CREDIT UN"	"905 PENNOYER, GRAND HAVEN MI 49417 US"	"-86.220368"	"43.059373"
"1270"	"806613.0"	"0.0"	"Week1"	"56"	"W"	"33.0"	"J W'S"	"6 N SEVENTH ST, GRAND HAVEN MI 49417 US"	"-86.222761"	"43.061729"
"1271"	"99031.0"	"54.0"	"Week1"	"56"	"W"	"34.0"	"BLARNEY CASTLE 496"	"1 S. BEACON, GRAND HAVEN MI 49417 US"	"-86.221043"	"43.060525"
"1272"	"99054.0"	"44.0"	"Week1"	"56"	"W"	"35.0"	"CHARTER COMMUNICATIONS"	"315 DAVIS STREET, GRAND HAVEN MI 48417 US"	"-86.222733"	"43.057519"
"1273"	"512548.0"	"0.0"	"Week1"	"56"	"W"	"36.0"	"AUTOMATIC SPRING PRO"	"803 TAYLOR AVE., GRAND HAVEN MI 49417 US"	"-86.222429"	"43.052462"
"1274"	"99045.0"	"27.0"	"Week1"	"56"	"W"	"37.0"	"CONSUMERS CREDIT UNION"	"901 SOUTH BEACON BLVD, GRAND HAVEN MI 49417 US"	"-86.2210052"	"43.0527067"
"1275"	"806910.0"	"0.0"	"Week1"	"56"	"W"	"38.0"	"PREFERRED AUTOMOTIVE DEALERSHI"	"1625 S BEACON BLVD, GRAND HAVEN MI 49417 US"	"-86.222281"	"43.045944"
"1276"	"530318.0"	"0.0"	"Week1"	"56"	"W"	"39.0"	"AUTOMATIC SPRING"	"16955 HAYES ST, GRAND HAVEN MI 49417 US"	"-86.208685"	"43.031123"
"1277"	"499014.0"	"23.0"	"Week3"	"56"	"W"	"39.0"	"RX OPTICAL"	"1125 S. BEACON, GRAND HAVEN MI 49417 US"	"-86.221102"	"43.049749"
"1278"	"99031.0"	"56.0"	"Week1"	"56"	"W"	"40.0"	"BLARNEY CASTLE 896"	"11240 W. OLIVE, GRAND HAVEN MI 49417 US"	"-86.181681"	"42.972858"
"1279"	"806666.0"	"0.0"	"Week2"	"56"	"W"	"40.0"	"BEECHTREE FAMILY DENTISTRY"	"927 BEECHTREE SUITE 5, GRAND HAVEN MI 49417 US"	"-86.206456"	"43.051537"
"1280"	"885361.0"	"5362.0"	"Week3"	"56"	"W"	"42.0"	"WEST OLIVE ESTATES YES COMM"	"8930 146TH AVENUE, WEST OLIVE MI 49460 US"	"-86.145013"	"42.932255"
"1281"	"512618.0"	"0.0"	"Week4"	"56"	"W"	"44.0"	"LAKE CYCLE SHOP"	"12200 W. OLIVE RD, GRAND HAVEN MI 49417 US"	"-86.193809"	"42.990623"
"1282"	"512791.0"	"0.0"	"Week2"	"56"	"W"	"44.0"	"45 BOTELLO'S PARTY STORE"	"15791 LAKE MICHIGAN DR, WEST OLIVE MI 49460 US"	"-86.178406"	"42.972458"
