""	"Acct #"	"Cust #"	"Week #"	"New Rt"	"New Delivery Day"	"New Stop"	"Customer Name"	"DisplayAddressFull"	"X_Longitude"	"Y_Latitude"
"0"	"531315.0"	"0.0"	"Week1"	"6"	"F"	"1.0"	"6PM HOSPITALITY PARTNERS"	"61 EAST 7TH STREET, HOLLAND MI 49423 US"	"-86.104742"	"42.79143"
"1"	"531315.0"	"0.0"	"Week1"	"6"	"F"	"2.0"	"6PM HOSPITALITY PARTNERS"	"61 EAST 7TH STREET, HOLLAND MI 49423 US"	"-86.104742"	"42.79143"
"2"	"533101.0"	"5.0"	"Week1"	"6"	"F"	"3.0"	"BIGGBY-COLLEGE AVE"	"225 COLLEGE AVE, HOLLAND MI 49423 US"	"-86.103107"	"42.788976"
"3"	"99061.0"	"24.0"	"Week1"	"6"	"F"	"4.0"	"D&W 1574 PRODUCE"	"50 DOUGLAS AVE., HOLLAND MI 49424 US"	"-86.108418"	"42.803021"
"4"	"99061.0"	"25.0"	"Week1"	"6"	"F"	"5.0"	"D&W 1574 BAKERY"	"50 DOUGLAS AVE., HOLLAND MI 49424 US"	"-86.108418"	"42.803021"
"5"	"99061.0"	"26.0"	"Week1"	"6"	"F"	"6.0"	"D&W 1574 MEAT"	"50 DOUGLAS AVE., HOLLAND MI 49424 US"	"-86.108418"	"42.803021"
"6"	"99061.0"	"79.0"	"Week1"	"6"	"F"	"7.0"	"D&W 1574 DELI"	"50 DOUGLAS AVE., HOLLAND MI 49424 US"	"-86.108418"	"42.803021"
"7"	"99061.0"	"80.0"	"Week1"	"6"	"F"	"8.0"	"D&W 1574 FRONT"	"50 DOUGLAS AVE., HOLLAND MI 49424 US"	"-86.108418"	"42.803021"
"8"	"99161.0"	"24.0"	"Week1"	"6"	"F"	"9.0"	"D&W 1574 FIRST AID"	"50 DOUGLAS AVE., HOLLAND MI 49424 US"	"-86.108418"	"42.803021"
"9"	"99117.0"	"6.0"	"Week1"	"6"	"F"	"10.0"	"WESCO #4"	"14 W. LAKEWOOD, HOLLAND MI 49424 US"	"-86.107771"	"42.805032"
"10"	"99054.0"	"23.0"	"Week2"	"6"	"F"	"11.0"	"CHARTER COMMUNICATION"	"110 JAMES ST., HOLLAND MI 49424 US"	"-86.11217"	"42.81148"
"11"	"530254.0"	"0.0"	"Week1"	"6"	"F"	"11.0"	"THE DOGHOUSE RESORT & SPA"	"32 E LAKEWOOD AVE, HOLLAND MI 49424 US"	"-86.106493"	"42.804953"
"12"	"531844.0"	"0.0"	"Week1"	"6"	"F"	"12.0"	"RAMIREZ BAKERY"	"361 E. LAKEWOOD, HOLLDAN MI 49424 US"	"-86.093065"	"42.8049767"
"13"	"99031.0"	"35.0"	"Week1"	"6"	"F"	"13.0"	"BLARNEY CASTLE 576"	"12481 JAMES ST., HOLLAND MI 49424 US"	"-86.090107"	"42.812543"
"14"	"521344.0"	"0.0"	"Week1"	"6"	"F"	"14.0"	"MED-1"	"383 GARDEN AVE, HOLLAND MI 49424-9602 US"	"-86.076325"	"42.809263"
"15"	"529884.0"	"0.0"	"Week3"	"6"	"F"	"14.0"	"TACO FIESTA"	"11972 LAKEWOOD BLVD., HOLLAND MI 49424 US"	"-86.077248"	"42.804579"
"16"	"531234.0"	"0.0"	"Week1"	"6"	"F"	"15.0"	"COPPERCRAFT DISTILLERY"	"184 120TH AVE, HOLLAND MI 49424 US"	"-86.078762"	"42.803006"
"17"	"882688.0"	"2690.0"	"Week1"	"6"	"F"	"16.0"	"CUISINE ARTS HOLLAND STORE"	"660 CHICAGO DRIVE, HOLLAND MI 49423 US"	"-86.078256"	"42.796419"
"18"	"99045.0"	"1.0"	"Week2"	"6"	"F"	"16.0"	"CONSUMERS CREDIT UNION"	"12705 RILEY ST, HOLLAND MI 49424 US"	"-86.095856"	"42.826937"
"19"	"99094.0"	"27.0"	"Week1"	"6"	"F"	"17.0"	"LMCU 86"	"677 E. 8TH ST SW, HOLLAND MI 49423 US"	"-86.078335"	"42.790932"
"20"	"99054.0"	"35.0"	"Week2"	"6"	"F"	"17.0"	"CHARTER COMMUNICATIONS"	"12719 RILEY ST, HOLLAND MI 49424 US"	"-86.09656"	"42.827558"
"21"	"532665.0"	"0.0"	"Week1"	"6"	"F"	"18.0"	"TAQUERIA VALLARTA"	"275 E 8TH, HOLLAND MI 49423 US"	"-86.095214"	"42.790672"
"22"	"518352.0"	"0.0"	"Week1"	"6"	"F"	"19.0"	"SKILES TAVERN"	"154 E. 8TH ST., HOLLAND MI 49842 US"	"-86.100551"	"42.790161"
"23"	"99094.0"	"14.0"	"Week2"	"6"	"F"	"19.0"	"LMCU 388"	"3493 WEST SHORE DRIVE, HOLLAND MI 49424 US"	"-86.094527"	"42.831722"
"24"	"532481.0"	"0.0"	"Week1"	"6"	"F"	"20.0"	"BIG LAKE BREWING"	"13 WEST 7TH ST, HOLLAND MI 49423 US"	"-86.107919"	"42.791485"
"25"	"522456.0"	"0.0"	"Week1"	"6"	"F"	"21.0"	"NEW HOLLAND BREWING CO."	"66 E. 8TH, HOLLAND MI 49423 US"	"-86.10413"	"42.790101"
"26"	"99143.0"	"1.0"	"Week2"	"6"	"F"	"21.0"	"OB/GYN ASSOCIATES OF HOLLAND"	"3290 N. WELLNESS DRIVE, HOLLAND MI 49424 US"	"-86.085984"	"42.828401"
"27"	"522456.0"	"1.0"	"Week1"	"6"	"F"	"22.0"	"NEW HOLLAND BREW SIDE CAR"	"66 E. 8TH, HOLLAND MI 49423 US"	"-86.10413"	"42.790101"
"28"	"530605.0"	"0.0"	"Week1"	"6"	"F"	"23.0"	"OUR BREWING COMPANY"	"76 E 8TH STREET, HOLLAND MI 49423 US"	"-86.103753"	"42.790121"
"29"	"99095.0"	"7.0"	"Week4"	"6"	"F"	"23.0"	"SALVATION ARMY-HOLLAND"	"12579 FELCH, HOLLAND MI 49424 US"	"-86.092552"	"42.819741"
"30"	"531014.0"	"2.0"	"Week1"	"6"	"F"	"24.0"	"ELECTRIC HERO-HOLLAND"	"683 CHICAGO DRIVE, HOLLAND MI 49423 US"	"-86.078293"	"42.797897"
"31"	"532736.0"	"0.0"	"Week1"	"6"	"F"	"25.0"	"TROPICAL SMOOTHIE-HOLLAND"	"3155 W SHORE DRIVE, HOLLAND MI 49424 US"	"-86.092769"	"42.825412"
"32"	"99100.0"	"5.0"	"Week1"	"6"	"F"	"26.0"	"AAC CU-HOLLAND NORTH"	"12390 RILEY, HOLLAND MI 49424 US"	"-86.087823"	"42.826065"
"33"	"99133.0"	"3.0"	"Week1"	"6"	"F"	"27.0"	"LOGAN'S ROAD HOUSE"	"3299 W SHORE DR, HOLLAND MI 49424 US"	"-86.093585"	"42.828256"
"34"	"99079.0"	"17.0"	"Week1"	"6"	"F"	"28.0"	"RED ROBIN #496"	"3379 WEST SHORE DRIVE, HOLLAND MI 49424 US"	"-86.094147"	"42.829775"
"35"	"533101.0"	"7.0"	"Week1"	"6"	"F"	"29.0"	"BIGGBY #830"	"12719 RILEY ST SUITE 10, HOLLAND MI 49424 US"	"-86.09656"	"42.827558"
"36"	"499014.0"	"45.0"	"Week1"	"6"	"F"	"30.0"	"RX OPTICAL"	"12659 RILEY ST., HOLLAND MI 49423 US"	"-86.095288"	"42.82806"
"37"	"886085.0"	"6081.0"	"Week1"	"6"	"F"	"31.0"	"GOODWILL HOLLAND #231"	"393 E.LAKEWOOD BLVD., HOLLAND MI 49424 US"	"-86.091211"	"42.805274"
"38"	"99061.0"	"54.0"	"Week1"	"6"	"M"	"1.0"	"FAMILY FARE 1589 CUSTOMER SVC"	"1965 BALDWIN ST., JENISON MI 49428 US"	"-85.831389"	"42.90852"
"39"	"499014.0"	"51.0"	"Week2"	"6"	"M"	"2.0"	"RX OPTICAL"	"4555 WILSON AVE SW, GRANDVILLE MI  US"	"-85.7636"	"42.881922"
"40"	"99161.0"	"53.0"	"Week1"	"6"	"M"	"2.0"	"FAM FARE #1589 MEAT FIRST AID"	"1965 BALDWIN ST., JENISON MI 49428 US"	"-85.831389"	"42.90852"
"41"	"532460.0"	"0.0"	"Week2"	"6"	"M"	"3.0"	"ACCEL CHIROPRACTIC"	"4555 WILSON AVE STE 2A, GRANDVILLE MI 49418 US"	"-85.7636"	"42.881922"
"42"	"99061.0"	"53.0"	"Week1"	"6"	"M"	"3.0"	"FAMILY FARE #1589 MEAT"	"1965 BALDWIN ST., JENISON MI 49428 US"	"-85.831389"	"42.90852"
"43"	"99059.0"	"2.0"	"Week1"	"6"	"M"	"4.0"	"MR BURGER #6"	"5835 BALSAM DR, HUDSONVILLE MI 49426 US"	"-85.859149"	"42.875533"
"44"	"99061.0"	"184.0"	"Week1"	"6"	"M"	"5.0"	"SPT. FAMILY FARE GAS STAT 832"	"3260 96TH AVENUE, ZEELAND MI 49464 US"	"-86.018755"	"42.8280267"
"45"	"99061.0"	"335.0"	"Week1"	"6"	"M"	"7.0"	"SPT. FF #108 MEAT"	"9479 RILEY ST., ZEELAND MI 49464 US"	"-86.016491"	"42.827686"
"46"	"99061.0"	"336.0"	"Week1"	"6"	"M"	"8.0"	"SPT FF #108 BAKERY"	"9479 RILEY ST., ZEELAND MI 49464 US"	"-86.016491"	"42.827686"
"47"	"99061.0"	"337.0"	"Week1"	"6"	"M"	"9.0"	"SPT. FF #108 PRODUCE"	"9479 RILEY ST., ZEELAND MI 49464 US"	"-86.016491"	"42.827686"
"48"	"99061.0"	"338.0"	"Week1"	"6"	"M"	"10.0"	"SPT. FF #108 DELI"	"9479 RILEY ST., ZEELAND MI 49464 US"	"-86.016491"	"42.827686"
"49"	"99161.0"	"335.0"	"Week1"	"6"	"M"	"11.0"	"SPT. FF #108 FIRST AID"	"9479 RILEY ST., ZEELAND MI 49464 US"	"-86.016491"	"42.827686"
"50"	"526639.0"	"0.0"	"Week1"	"6"	"M"	"12.0"	"CATER TO YOU"	"2371 RILEY, HUDSONVILLE MI 49424 US"	"-85.8415762"	"42.825984"
"51"	"532222.0"	"0.0"	"Week1"	"6"	"M"	"13.0"	"SARA'S PIZZA LLC"	"3114 CHICAGO DRIVE, HUDSONVILLE MI 49426 US"	"-85.859244"	"42.871243"
"52"	"512008.0"	"0.0"	"Week1"	"6"	"M"	"14.0"	"GEORGETOWN ANIMAL CLINIC"	"2887 PORT SHELDON RD., HUDSONVILLE MI 49426 US"	"-85.853738"	"42.888394"
"53"	"529793.0"	"0.0"	"Week1"	"6"	"M"	"15.0"	"OIL PRO"	"2656 PORT SHELDON ST., JENISON MI 49428 US"	"-85.848036"	"42.887223"
"54"	"599000.0"	"3.0"	"Week1"	"6"	"M"	"16.0"	"NEW BEGINNINGS REST."	"2722 PORT SHELDON, JENISON MI 49426 US"	"-85.848699"	"42.88719"
"55"	"99061.0"	"198.0"	"Week1"	"6"	"M"	"17.0"	"SPT F. FARE QUICK STOP #854"	"2760 PORT SHELDON, JENISON MI 49428 US"	"-85.8495572"	"42.8870958"
"56"	"99161.0"	"198.0"	"Week1"	"6"	"M"	"18.0"	"SPT FFARE #854 FIRST AID"	"2760 PORT SHELDON, JENISON MI 49428 US"	"-85.8495572"	"42.8870958"
"57"	"99061.0"	"322.0"	"Week1"	"6"	"M"	"19.0"	"SPT F. FARE #239 FRONT"	"6480 28TH AVE., HUDSONVILLE MI 49426 US"	"-85.850303"	"42.886961"
"58"	"99061.0"	"323.0"	"Week1"	"6"	"M"	"20.0"	"SPT F. FARE #239 MEAT"	"6480 28TH AVE., HUDSONVILLE MI 49426 US"	"-85.850303"	"42.886961"
"59"	"99061.0"	"324.0"	"Week1"	"6"	"M"	"21.0"	"SPT F. FARE #239 BAKERY"	"6480 28TH AVE., HUDSONVILLE MI 49426 US"	"-85.850303"	"42.886961"
"60"	"99061.0"	"325.0"	"Week1"	"6"	"M"	"22.0"	"SPT F. FARE #239 DELI"	"6480 28TH AVE., HUDSONVILLE MI 49426 US"	"-85.850303"	"42.886961"
"61"	"99061.0"	"326.0"	"Week1"	"6"	"M"	"23.0"	"SPT F. FARE #239 PRODUCE"	"6480 28TH AVE., HUDSONVILLE MI 49426 US"	"-85.850303"	"42.886961"
"62"	"99161.0"	"322.0"	"Week1"	"6"	"M"	"24.0"	"SPT FFARE #239 FIRST AID"	"6480 28TH AVE., HUDSONVILLE MI 49426 US"	"-85.850303"	"42.886961"
"63"	"528348.0"	"0.0"	"Week1"	"6"	"M"	"25.0"	"GREAT LAKES CHINESE REST"	"6450 28TH AVE, HUDSONVILLE MI 49426 US"	"-85.850381"	"42.886537"
"64"	"531599.0"	"0.0"	"Week2"	"6"	"M"	"25.0"	"DOGGONE SPOILED"	"6837 11TH AVE, JENISON MI 49428 US"	"-85.81044"	"42.893265"
"65"	"99133.0"	"0.0"	"Week1"	"6"	"M"	"26.0"	"LOGAN'S ROAD HOUSE"	"4425 CANAL AVE, GRANDVILLE MI 49418 US"	"-85.77382"	"42.884062"
"66"	"99051.0"	"51.0"	"Week1"	"6"	"M"	"27.0"	"JET'S PIZZA MI-104"	"4499 IVANREST, GRANDVILLE MI 49418 US"	"-85.744009"	"42.883067"
"67"	"99079.0"	"15.0"	"Week1"	"6"	"M"	"28.0"	"RED ROBIN #492"	"3722 POTOMAC CIRCLE, GRANDVILLE MI 49418 US"	"-85.755929"	"42.883181"
"68"	"99061.0"	"55.0"	"Week1"	"6"	"M"	"29.0"	"FAMILY FARE 1579-PRODUCE"	"3960 44TH ST SW, GRANDVILLE MI 49418 US"	"-85.760914"	"42.88314"
"69"	"531428.0"	"0.0"	"Week4"	"6"	"M"	"29.0"	"INTERCARE WIC"	"3723 BALDWIN SUITE F, HUDSONVILLE MI 49401 US"	"-85.8756007"	"42.9079845"
"70"	"99061.0"	"56.0"	"Week1"	"6"	"M"	"30.0"	"FAMILY FARE 1579-DELI"	"3960 44TH ST SW, GRANDVILLE MI 49418 US"	"-85.760914"	"42.88314"
"71"	"99061.0"	"57.0"	"Week1"	"6"	"M"	"31.0"	"FAMILY FARE 1579-BAKERY"	"3960 44TH ST SW, GRANDVILLE MI 49418 US"	"-85.760914"	"42.88314"
"72"	"99061.0"	"58.0"	"Week1"	"6"	"M"	"32.0"	"FAMILY FARE 1579-MEAT"	"3960 44TH ST SW, GRANDVILLE MI 49418 US"	"-85.760914"	"42.88314"
"73"	"99061.0"	"59.0"	"Week1"	"6"	"M"	"33.0"	"FAMILY FARE 1579-FRONT"	"3960 44TH ST SW, GRANDVILLE MI 49418 US"	"-85.760914"	"42.88314"
"74"	"99161.0"	"55.0"	"Week1"	"6"	"M"	"34.0"	"FAMILY FARE 1579- FIRST AID"	"3960 44TH ST SW, GRANDVILLE MI 49418 US"	"-85.760914"	"42.88314"
"75"	"99094.0"	"15.0"	"Week2"	"6"	"M"	"34.0"	"LMCU 85"	"4100 32ND AVE, HUDSONVILLE MI 49426 US"	"-85.860888"	"42.842549"
"76"	"99045.0"	"19.0"	"Week1"	"6"	"M"	"35.0"	"CONSUMERS CREDIT UNION"	"4350 44TH ST, GRANDVILLE MI 49418 US"	"-85.771349"	"42.884416"
"77"	"532665.0"	"3.0"	"Week1"	"6"	"M"	"36.0"	"LOS RANCHOS"	"1814 BALWIN STREET, JENISON MI 49428 US"	"-85.827551"	"42.906588"
"78"	"532739.0"	"0.0"	"Week1"	"6"	"M"	"37.0"	"THE WIN"	"7628 GEORGETOWN CENTER DR, JENISON MI 49428 US"	"-85.82822"	"42.908121"
"79"	"532224.0"	"1.0"	"Week1"	"6"	"M"	"38.0"	"WESTERN MICHIGAN PEDIATRICS"	"1865 GEORGETOWN CENTER SUITE A, JENISON MI 49428 US"	"-85.828461"	"42.910448"
"80"	"530405.0"	"1.0"	"Week1"	"6"	"M"	"39.0"	"LICARI'S SICILIAN KITCHEN-WEST"	"3627 BALDWIN STREET, HUDSONVILLE MI 49426 US"	"-85.873269"	"42.907793"
"81"	"99117.0"	"64.0"	"Week1"	"6"	"M"	"40.0"	"WESCO #66"	"7661 36TH AVENUE, HUDSONVILLE MI 49426 US"	"-85.873253"	"42.90834"
"82"	"99051.0"	"42.0"	"Week1"	"6"	"M"	"41.0"	"JET'S PIZZA MI-140"	"3735 BALDWIN STREET, HUDSONVILLE MI 49426 US"	"-85.875853"	"42.908088"
"83"	"99161.0"	"184.0"	"Week3"	"6"	"M"	"41.0"	"SPT FFARE #832 FIRST AID"	"3260 96TH AVENUE, ZEELAND MI 49464 US"	"-86.018755"	"42.8280267"
"84"	"529638.0"	"0.0"	"Week1"	"6"	"M"	"42.0"	"SHELDON MEATS"	"7405 PORT SHELDON RD, HUDSONVILLE MI 49426 US"	"-85.966146"	"42.885721"
"85"	"530650.0"	"0.0"	"Week1"	"6"	"M"	"43.0"	"GREAT LAKES SYSTEMS"	"2286 PORT SHELDON COURT, JENISON MI 49428 US"	"-85.841195"	"42.8832792"
"86"	"528200.0"	"0.0"	"Week2"	"6"	"M"	"44.0"	"HAGER PARK CHURCH"	"2635 BAUER ROAD, JENISON MI 49428 US"	"-85.848235"	"42.922732"
"87"	"99145.0"	"5.0"	"Week4"	"6"	"R"	"1.0"	"FIRST NATIONAL BANK-HOLLAND"	"1 W 8TH, HOLLAND MI 49423 US"	"-86.1074783"	"42.7905685"
"88"	"532891.0"	"0.0"	"Week1"	"6"	"R"	"1.0"	"WAVERLY STONE PUB"	"20 W 8TH, HOLLAND MI 49423 US"	"-86.108258"	"42.790049"
"89"	"530608.0"	"0.0"	"Week1"	"6"	"R"	"2.0"	"SCRAP YARD LOFTS"	"148 S RIVER SUITE 200, HOLLAND MI 49423 US"	"-86.1091217"	"42.79187"
"90"	"518392.0"	"0.0"	"Week1"	"6"	"R"	"3.0"	"JAMES ST INN"	"255 JAMES, HOLLAND MI 49423 US"	"-86.119292"	"42.812515"
"91"	"521059.0"	"0.0"	"Week1"	"6"	"R"	"4.0"	"INTERCARE COMM DENTAL"	"285 JAMES ST, HOLLAND MI 49424 US"	"-86.120119"	"42.812629"
"92"	"532386.0"	"0.0"	"Week2"	"6"	"R"	"4.0"	"DON MIGUEL"	"1011 136TH STREET, HOLLAND MI 49424 US"	"-86.116844"	"42.828055"
"93"	"27828.0"	"1.0"	"Week1"	"6"	"R"	"5.0"	"PEPPINOS PIZZA 6"	"977 BUTTERNUT DRIVE, HOLLAND MI 49424 US"	"-86.135118"	"42.828129"
"94"	"532647.0"	"0.0"	"Week1"	"6"	"R"	"6.0"	"LEMON GRASS"	"977 BUTTERNUT, HOLLAND MI 49424 US"	"-86.135118"	"42.828129"
"95"	"99061.0"	"297.0"	"Week1"	"6"	"R"	"7.0"	"SPT. F. FARE #122 MEAT"	"993 BUTTERNUT DR., HOLLAND MI 49424 US"	"-86.136685"	"42.828971"
"96"	"99061.0"	"298.0"	"Week1"	"6"	"R"	"8.0"	"SPT F. FARE #122 DELI"	"993 BUTTERNUT DR., HOLLAND MI 49424 US"	"-86.136685"	"42.828971"
"97"	"99061.0"	"186.0"	"Week1"	"6"	"R"	"9.0"	"SPT FAMILY FARE GAS STAT 122"	"993 BUTTERNUT DR., HOLLAND MI 49424 US"	"-86.136685"	"42.828971"
"98"	"99161.0"	"186.0"	"Week1"	"6"	"R"	"10.0"	"SPT F. FARE GAS #22 FIRST AID"	"993 BUTTERNUT DR., HOLLAND MI 49424 US"	"-86.136685"	"42.828971"
"99"	"99161.0"	"298.0"	"Week1"	"6"	"R"	"11.0"	"SPT F. FARE 122 FIRST AID"	"993 BUTTERNUT DR, HOLLAND MI 49424 US"	"-86.136685"	"42.828971"
"100"	"99161.0"	"486.0"	"Week1"	"6"	"R"	"12.0"	"F. FARE QUICK 837 FIRST AID"	"997 BUTTERNUT DR, HOLLAND MI 49424 US"	"-86.137031"	"42.8278828"
"101"	"99031.0"	"36.0"	"Week1"	"6"	"R"	"13.0"	"BLARNEY CASTLE 752"	"945 BUTTERNUT DR., HOLLAND MI 49424 US"	"-86.133272"	"42.826414"
"102"	"530728.0"	"0.0"	"Week1"	"6"	"R"	"14.0"	"SUPERMERCADO LE EXCELENCIA"	"305 N RIVER AVE, HOLLAND MI 49424 US"	"-86.115533"	"42.806916"
"103"	"533181.0"	"0.0"	"Week1"	"6"	"R"	"15.0"	"SPERRY MOVIEHOUSE-HOLLAND"	"102 W EIGHT STREET, HOLLAND MI 49423 US"	"-86.1118528"	"42.7899407"
"104"	"531708.0"	"0.0"	"Week1"	"6"	"R"	"16.0"	"THE PAISLEY PIG"	"1642 S. SHORE DR, HOLLAND MI 49423 US"	"-86.176295"	"42.774177"
"105"	"518364.0"	"1.0"	"Week1"	"6"	"R"	"17.0"	"SOUTHSIDE INN"	"192 W. 35TH ST., HOLLAND MI 49068 US"	"-86.115554"	"42.765015"
"106"	"533101.0"	"4.0"	"Week1"	"6"	"R"	"18.0"	"BIGGBY #409"	"1000 WASHINGTON AVE, HOLLAND MI 49423 US"	"-86.117158"	"42.76119"
"107"	"99051.0"	"40.0"	"Week1"	"6"	"R"	"19.0"	"JET'S PIZZA MI-134"	"1013 S WASHINGTON, HOLLAND MI 49423 US"	"-86.1159"	"42.760831"
"108"	"886085.0"	"6088.0"	"Week1"	"6"	"R"	"20.0"	"GOODWILL HOLLAND #238"	"1180 S. WASHINGTON AVE., HOLLAND MI 49423 US"	"-86.117439"	"42.755837"
"109"	"99045.0"	"14.0"	"Week3"	"6"	"R"	"20.0"	"CONSUMERS CREDIT UNION"	"1037 S WASHINGTON AVE, HOLLAND MI 49423 US"	"-86.115882"	"42.76021"
"110"	"99113.0"	"2.0"	"Week4"	"6"	"R"	"21.0"	"532@SOUTH SHORE MACATAWA"	"532 16TH STREET, HOLLAND MI 49423 US"	"-86.131447"	"42.782684"
"111"	"499014.0"	"17.0"	"Week3"	"6"	"R"	"21.0"	"RX OPTICAL"	"1148 SOUTH WASHINGTO, HOLLAND MI 49423 US"	"-86.117162"	"42.756955"
"112"	"525346.0"	"0.0"	"Week1"	"6"	"R"	"21.0"	"VELO-CITY"	"326 RIVER AVE., HOLLAND MI 49423 US"	"-86.109268"	"42.785213"
"113"	"523291.0"	"0.0"	"Week1"	"6"	"R"	"22.0"	"WINDMILL RESTAURANT"	"28 W. 8TH STREET, HOLLAND MI 48116 US"	"-86.108501"	"42.79"
"114"	"529712.0"	"0.0"	"Week2"	"6"	"R"	"23.0"	"DONUTVILLE"	"676 MICHIGAN AVE., HOLLAND MI 49423 US"	"-86.11505"	"42.771881"
"115"	"532137.0"	"2.0"	"Week1"	"6"	"R"	"23.0"	"TAQUERIA ARANDAS"	"98 DOUGLAS, HOLLAND MI 49424 US"	"-86.111668"	"42.802059"
"116"	"99135.0"	"3.0"	"Week1"	"6"	"R"	"24.0"	"FIREHOUSE SUBS-DOUGLAS"	"90 DOUGLAS AVE, HOLLAND MI 49422 US"	"-86.111364"	"42.802288"
"117"	"529751.0"	"0.0"	"Week4"	"6"	"R"	"24.0"	"LA CONSENTIDA SUPERMARKET"	"676 MICHIGAN AVE., HOLLAND MI 49423 US"	"-86.11505"	"42.771881"
"118"	"99143.0"	"0.0"	"Week2"	"6"	"R"	"24.0"	"OB/GYN ASSOCIATES OF HOLLAND"	"664 MICHIGAN, HOLLAND MI 49423 US"	"-86.114779"	"42.772416"
"119"	"530483.0"	"0.0"	"Week2"	"6"	"R"	"25.0"	"MI FAVORITA GROCERY"	"408 COLUMBIA AVE, HOLLAND MI 49423 US"	"-86.100544"	"42.782348"
"120"	"533101.0"	"1.0"	"Week1"	"6"	"R"	"25.0"	"BIGGBY #340"	"65 DOUGLAS AVE, HOLLAND MI 49424 US"	"-86.110183"	"42.804234"
"121"	"531114.0"	"0.0"	"Week4"	"6"	"R"	"27.0"	"MARLENA'S BISTRO & PIZZERIA"	"909 LINCOLN AVE, HOLLAND MI 49423 US"	"-86.096772"	"42.764328"
"122"	"530404.0"	"0.0"	"Week1"	"6"	"T"	"1.0"	"VICKI'S FAMILY DINER"	"110 BLUE STAR HIGHWAY, DOUGLAS MI 49406 US"	"-86.209807"	"42.641649"
"123"	"522456.0"	"4.0"	"Week2"	"6"	"T"	"2.0"	"NEW HOLLAND TASTING-SAUGATUCK"	"201 CULVER STREET, SAUGATUCK MI 49453 US"	"-86.203867"	"42.654644"
"124"	"530590.0"	"0.0"	"Week1"	"6"	"T"	"2.0"	"PIZZA MAMBO"	"10 1/2 BLUE STARR HIGHWAY, DOUGLAS MI 49406 US"	"-86.207811"	"42.643312"
"125"	"531234.0"	"1.0"	"Week2"	"6"	"T"	"3.0"	"COPPERCRAFT TASTING ROOM"	"340 WATER STREET, SAUGATUCK MI 49453 US"	"-86.205674"	"42.657142"
"126"	"532017.0"	"0.0"	"Week1"	"6"	"T"	"3.0"	"GROW"	"302 CULVER ST, SAUGATUCK MI 48453 US"	"-86.202715"	"42.654958"
"127"	"531714.0"	"0.0"	"Week1"	"6"	"T"	"4.0"	"THE SOUTHERNER"	"880 HOLLAND ST, SAUGATUCK MI 49453 US"	"-86.201064"	"42.663031"
"128"	"533409.0"	"0.0"	"Week1"	"6"	"T"	"5.0"	"SAUGATUCK FISH CAMP"	"149 GRIFFITH ST, SAUGATUCK MI 49453 US"	"-86.202601"	"42.655591"
"129"	"533378.0"	"0.0"	"Week1"	"6"	"T"	"6.0"	"TAVERNA ROSSA"	"129 GRIFFITH STREET, SAUGATUCK MI 49543 US"	"-86.20259"	"42.655176"
"130"	"532734.0"	"0.0"	"Week1"	"6"	"T"	"7.0"	"TREE OF LIFE JUICES"	"201 CULVER, SAUGATUCK MI 49453 US"	"-86.203867"	"42.654644"
"131"	"521782.0"	"0.0"	"Week4"	"6"	"T"	"8.0"	"BELVEDERE INN"	"3656 63RD ST, SAUGATUCK MI 49453 US"	"-86.165327"	"42.68562"
"132"	"522854.0"	"0.0"	"Week2"	"6"	"T"	"8.0"	"BACK ALLEY PIZZA JOINT"	"22 MAIN ST., DOUGLAS MI 49406 US"	"-86.200673"	"42.644139"
"133"	"530519.0"	"0.0"	"Week1"	"6"	"T"	"8.0"	"THE FARMHOUSE DELI"	"100 BLUE STAR HIGHWAY, DOUGLAS MI 49406 US"	"-86.208665"	"42.64205"
"134"	"528013.0"	"0.0"	"Week1"	"6"	"T"	"9.0"	"BLUE STAR CAFE"	"141 BLUE STAR HIGHWAY, DOUGLAS MI 49406 US"	"-86.208861"	"42.640759"
"135"	"533327.0"	"0.0"	"Week4"	"6"	"T"	"9.0"	"THIRD COAST COMMUNITY CHURCH"	"6069 BLUE STAR HWY, SAUGATUCK MI 49453 US"	"-86.1416773"	"42.6927365"
"136"	"514197.0"	"0.0"	"Week1"	"6"	"T"	"10.0"	"LAKESHORE CONVENIENC"	"155 BLUE STAR HIGHWAY, DOUGLAS MI 49406 US"	"-86.208705"	"42.640512"
"137"	"532684.0"	"0.0"	"Week1"	"6"	"T"	"11.0"	"CHRISTOS ROADHOUSE"	"2035 BLUE STAR, DOUGLAS MI 49406 US"	"-86.21073695"	"42.63883862"
"138"	"531734.0"	"0.0"	"Week1"	"6"	"T"	"12.0"	"SAUGATUCK ANTIQUE PAVILION"	"2948 BLUE STAR HIGHWAY, DOUGLAS MI 49408 US"	"-86.21261"	"42.632182"
"139"	"528759.0"	"0.0"	"Week1"	"6"	"T"	"13.0"	"SAUGATUCK BREWERY"	"2948 BLUESTAR HIGHWAY, DOUGLAS MI 49406 US"	"-86.21261"	"42.632182"
"140"	"524205.0"	"0.0"	"Week1"	"6"	"T"	"14.0"	"FENN VALLEY VINEYARD"	"6130 122ND AVE., FENNVILLE MI 49408 US"	"-86.144032"	"42.577712"
"141"	"413698.0"	"2.0"	"Week2"	"6"	"T"	"14.0"	"ALLEGAN CREDIT UNION"	"432 W. MAIN ST, FENNVILLE MI 49408 US"	"-86.1086397"	"42.5945208"
"142"	"531448.0"	"0.0"	"Week1"	"6"	"T"	"15.0"	"LAS BRAZAS LLC"	"204 E. MAIN ST., FENNVILLE MI 49408 US"	"-86.1035306"	"42.5940169"
"143"	"514008.0"	"0.0"	"Week1"	"6"	"T"	"16.0"	"BLUE GOOSE CAFE"	"210 E. MAIN, FENNVILLE MI 49408 US"	"-86.103423"	"42.594085"
"144"	"532665.0"	"1.0"	"Week1"	"6"	"T"	"17.0"	"EL JARIPEO"	"106 W. MAIN STREET, FENNVILLE MI 49408 US"	"-86.104138"	"42.59405"
"145"	"523800.0"	"1.0"	"Week1"	"6"	"T"	"18.0"	"JOEZANO'S PIZZA"	"3606 LINCOLN RD, HAMILTON MI 49419 US"	"-85.999457"	"42.67152799"
"146"	"530448.0"	"0.0"	"Week1"	"6"	"W"	"1.0"	"THE WOODEN SHOE"	"441 US HIGHWAY 31, HOLLAND MI 49423 US"	"-86.079659"	"42.781195"
"147"	"529386.0"	"0.0"	"Week1"	"6"	"W"	"2.0"	"STAR TRUCK HOLLAND"	"719 96TH ST, HOLLAND MI 49424 US"	"-86.0191608"	"42.7815645"
"148"	"428373.0"	"1.0"	"Week1"	"6"	"W"	"3.0"	"ADVANCED ARCHITECTURAL PRODUCT"	"3393 LINCOLN ROAD, HAMILTON MI 49419 US"	"-85.9911515"	"42.6650591"
"149"	"518364.0"	"0.0"	"Week1"	"6"	"W"	"4.0"	"TRESTLE STOP"	"3366 M-40, HAMILTON MI 49419 US"	"-85.9924248"	"42.6640568"
"150"	"532354.0"	"0.0"	"Week4"	"6"	"W"	"5.0"	"HAMILTON FIRE DEPARTMENT"	"3440 M-40, HAMILTON MI 49419 US"	"-85.9978755"	"42.6694523"
"151"	"99088.0"	"8.0"	"Week1"	"6"	"W"	"5.0"	"CONSUMERS CONCRETE-HOLLAND"	"4312 M-40, HOLLAND MI 49423 US"	"-86.0648622"	"42.7334543"
"152"	"521028.0"	"0.0"	"Week1"	"6"	"W"	"6.0"	"HAWORTH"	"1 HAWORTH CENTER, HOLLAND MI 49423 US"	"-86.084669"	"42.750824"
"153"	"99033.0"	"198.0"	"Week1"	"6"	"W"	"7.0"	"EUREST-HAWORTH 22148"	"1 HAWORTH CENTER DR, HOLLAND MI 49423 US"	"-86.084669"	"42.750824"
"154"	"99161.0"	"187.0"	"Week1"	"6"	"W"	"8.0"	"SPT FAM FARE #835 FIRST AID"	"1149 S. Washington, HOLLAND MI 49423 US"	"-86.115659"	"42.757435"
"155"	"99061.0"	"187.0"	"Week1"	"6"	"W"	"9.0"	"SPT FAM FARE GAS STAT 835"	"1149 S. WASHINGTON, HOLLAND MI 49423 US"	"-86.115659"	"42.757435"
"156"	"99061.0"	"304.0"	"Week1"	"6"	"W"	"10.0"	"SPT F. FARE #123 FRONT"	"1185 S. WASHINGTON, HOLLAND MI 49423 US"	"-86.114245"	"42.756334"
"157"	"99061.0"	"305.0"	"Week1"	"6"	"W"	"11.0"	"SPT F. FARE #123 PRODUCE"	"1185 S. WASHINGTON, HOLLAND MI 49423 US"	"-86.114245"	"42.756334"
"158"	"99061.0"	"306.0"	"Week1"	"6"	"W"	"12.0"	"SPT F. FARE #123 MEAT"	"1185 S. WASHINGTON, HOLLAND MI 49423 US"	"-86.114245"	"42.756334"
"159"	"99061.0"	"307.0"	"Week1"	"6"	"W"	"13.0"	"SPT F. FARE #123 BAKERY"	"1185 S. WASHINGTON, HOLLAND MI 49423 US"	"-86.114245"	"42.756334"
"160"	"99061.0"	"308.0"	"Week1"	"6"	"W"	"14.0"	"SPT F. FARE #123 DELI"	"1185 S. WASHINGTON, HOLLAND MI 49423 US"	"-86.114245"	"42.756334"
"161"	"99161.0"	"304.0"	"Week1"	"6"	"W"	"15.0"	"SPT F. FARE #123 FIRST AID"	"1185 S. WASHINGTON, HOLLAND MI 49423 US"	"-86.114245"	"42.756334"
"162"	"533410.0"	"0.0"	"Week2"	"6"	"W"	"15.0"	"OVERISEL LUMBER"	"573 E. 32ND ST, HOLLAND MI 49423 US"	"-86.080941"	"42.769068"
"163"	"99100.0"	"4.0"	"Week1"	"6"	"W"	"16.0"	"AAC CU-SOUTH HOLLAND"	"215 E 25TH, HOLLAND MI 49423 US"	"-86.097457"	"42.775166"
"164"	"499014.0"	"63.0"	"Week2"	"6"	"W"	"16.0"	"RX OPTICAL"	"590 E. 16TH STREET SUITE #20, HOLLAND MI 49423 US"	"-86.08173"	"42.782867"
"165"	"521637.0"	"0.0"	"Week1"	"6"	"W"	"17.0"	"HOLLAND ELKS LODGE #1315"	"569 E 24TH ST, HOLLAND MI 49423 US"	"-86.082481"	"42.776517"
"166"	"533101.0"	"3.0"	"Week1"	"6"	"W"	"18.0"	"BIGGBY #335"	"660 CHICAGO DR, HOLLAND MI 49423 US"	"-86.078256"	"42.796419"
"167"	"533167.0"	"0.0"	"Week1"	"6"	"W"	"19.0"	"SALT & PEPPER"	"11539 E LAKEWOOD BLVD SUITE 50, HOLLAND MI 49424 US"	"-86.06636"	"42.805576"
"168"	"99051.0"	"44.0"	"Week1"	"6"	"W"	"20.0"	"JET'S PIZZA MI-147"	"11190 CHICAGO DR, ZEELAND MI 49464 US"	"-86.057237"	"42.80435"
"169"	"533101.0"	"2.0"	"Week1"	"6"	"W"	"21.0"	"BIGGBY #470"	"501 W. MAIN, ZEELAND MI 49464 US"	"-86.034021"	"42.812786"
"170"	"530825.0"	"0.0"	"Week1"	"6"	"W"	"22.0"	"THE FARMHOUSE"	"430 W WASHINGTON AVE, ZEELAND MI 49464 US"	"-86.031124"	"42.812889"
"171"	"533083.0"	"0.0"	"Week1"	"6"	"W"	"23.0"	"VITALES ZEELAND"	"59 W. WASHINGTON, ZEELAND MI 49464 US"	"-86.020937"	"42.814349"
"172"	"529567.0"	"0.0"	"Week3"	"6"	"W"	"24.0"	"BORCULO EXPRESS"	"6210 96TH STREET, ZEELAND MI 49464 US"	"-86.020603"	"42.881547"
"173"	"533002.0"	"0.0"	"Week2"	"6"	"W"	"24.0"	"STROMBOLIS"	"6210 96TH AVE, ZEELAND MI 49464 US"	"-86.020603"	"42.881547"
"174"	"528745.0"	"0.0"	"Week1"	"6"	"W"	"24.0"	"CHINATOWN"	"9479 RILEY ST, ZEELAND MI 49464 US"	"-86.016491"	"42.827686"
"175"	"533428.0"	"0.0"	"Week1"	"6"	"W"	"25.0"	"STREATS TACO KITCHEN"	"14 S. ELM STREET, ZEELAND MI 49464 US"	"-86.016851"	"42.811762"
"176"	"528081.0"	"0.0"	"Week2"	"6"	"W"	"25.0"	"FRANKS RESTAURANT"	"134 E MAIN AVE, ZEELAND MI 49464 US"	"-86.015082"	"42.812125"
"177"	"521551.0"	"0.0"	"Week2"	"6"	"W"	"26.0"	"ZEELAND PRINT SHOP"	"145 E MAIN ST, ZEELAND MI 49464 US"	"-86.0148249"	"42.8125793"
"178"	"99100.0"	"1.0"	"Week1"	"6"	"W"	"26.0"	"AAC CU-ZEELAND"	"612 E. MAIN, ZEELAND MI 49464 US"	"-86.004284"	"42.812105"
"179"	"99094.0"	"52.0"	"Week1"	"6"	"W"	"27.0"	"LMCU 369"	"8630 BYRON ROAD, ZEELAND MI 49464 US"	"-85.993902"	"42.812045"
