""	"Acct #"	"Cust #"	"New Delivery Day"	"Allaint Sequence"	"Customer Name"	"Address"	"X_Longitude"	"Y_Latitude"
"13"	"807701"	"0"	"T"	"550.0"	"FALCON CORPORATION"	"14510 CLEVELAND (M104), SPRING LAKE MI 49456 US"	"-86.14857"	"43.073267"
"15"	"99061"	"473"	"F"	"130.0"	"SPT D&W QUICK STOP 1570"	"1116 ROBBINS ROAD, GRAND HAVEN MI 49417 US"	"-86.214084"	"43.043337"
"24"	"806572"	"0"	"R"	"130.0"	"FRUITPORT CHIROPRACTIC"	"3427 FARR ROAD, FRUITPORT MI 49415 US"	"-86.159311"	"43.138901"
"35"	"532137"	"1"	"M"	"130.0"	"TAQUERIA MANRIQUEZ"	"4 EAST RANDALL, COOPERSVILLE MI 49401 US"	"-85.927099"	"43.059709"
"41"	"806200"	"0"	"R"	"50.0"	"VILLAGE INN"	"340 N THIRD, FRUITPORT MI 49415 US"	"-86.154841"	"43.130512"
"45"	"804450"	"0"	"R"	"20.0"	"FUR CRAZY PET SALON"	"19130 N FRUITPORT RD, SPRING LAKE MI 49456 US"	"-86.1565042"	"43.1160807"
"51"	"99161"	"193"	"M"	"250.0"	"SPT FAM FARE  852 FIRST AID"	"6380 LK MICHIGAN DR., ALLENDALE MI 49401 US"	"-85.94359"	"42.97181"
"53"	"806710"	"0"	"F"	"30.0"	"IDLE HOUR RESTAURANT"	"213 W SAVIDGE, SPRING LAKE MI 49456 US"	"-86.199663"	"43.076928"
"54"	"885361"	"5362"	"M"	"240.0"	"WEST OLIVE ESTATES YES COMM"	"8930 146TH AVENUE, WEST OLIVE MI 49460 US"	"-86.145013"	"42.932255"
"55"	"801043"	"0"	"M"	"290.0"	"DOMINOES 1043"	"5164 LAKE MICHIGAN DRIVE, ALLENDALE MI 49401 US"	"-85.913197"	"42.971983"
"56"	"532903"	"0"	"M"	"310.0"	"MAIN ST PUB-ALLENDALE"	"11240 UNIVERSITY PKWY, ALLENDALE MI 49401 US"	"-85.906374"	"42.973184"
"63"	"808877"	"0"	"T"	"40.0"	"GLOBAL AUTOWORK LLC"	"1050 FULTON, GRAND HAVEN MI 49417 US"	"-86.216155"	"43.062468"
"64"	"807010"	"0"	"T"	"130.0"	"HI-WAY INN"	"600 S BEACHTREE, GRAND HAVEN MI 49417 US"	"-86.205486"	"43.055569"
"65"	"512567"	"0"	"T"	"120.0"	"CLOVER BAR                    "	"601 S. BEECHTREE, GRAND HAVEN MI 49417 US"	"-86.206161"	"43.055552"
"66"	"808001"	"0"	"T"	"100.0"	"SPORTY'S BAR & GRILL"	"6 S BEECHTREE STREET, GRAND HAVEN MI 49417 US"	"-86.2055967"	"43.0611183"
"67"	"527739"	"0"	"T"	"190.0"	"FOUR POINTES"	"1051 S. BEACON BLVD, GRAND HAVEN MI 49417 US"	"-86.222074"	"43.05066"
"68"	"808623"	"0"	"T"	"160.0"	"GRAND HAVEN PIZZA & SUB SHOP"	"1005 S BEACON, GRAND HAVEN MI 49417 US"	"-86.221979"	"43.051351"
"69"	"806548"	"0"	"T"	"150.0"	"WORKPLACE HEALTH OF GRAND HAVE"	"923 BEECHTREE, SUITE 9, GRAND HAVEN MI 49417 US"	"-86.206898"	"43.0517807"
"71"	"529558"	"1"	"T"	"60.0"	"FRANK'S MARKET"	"1118 WASHINGTON AVE, GRAND HAVEN MI 49417 US"	"-86.214809"	"43.060727"
"72"	"529558"	"0"	"T"	"50.0"	"STANZ CAFE"	"1118 WASHINGTON AVE, GRAND HAVEN MI 49417 US"	"-86.214809"	"43.060727"
"73"	"808004"	"0"	"T"	"90.0"	"CITY AUTO BODY"	"12 N BEECHTREE, GRAND HAVEN MI 49417 US"	"-86.205503"	"43.061824"
"74"	"99054"	"27"	"T"	"80.0"	"CHARTER COMMUNICATION"	"1433 FULTON STREET, GRAND HAVEN MI 49417 US"	"-86.207038"	"43.063296"
"75"	"807616"	"0"	"T"	"70.0"	"BODHI TREE JUICE CO. LLC"	"1115 WASHINGTON, GRAND HAVEN MI 49417 US"	"-86.214904"	"43.061191"
"78"	"808440"	"0"	"F"	"260.0"	"NOBLE COMPANY INC"	"7300 ENTERPRISE DR, SPRING LAKE MI 49456 US"	"-86.211556"	"43.119249"
"87"	"806777"	"0"	"R"	"40.0"	"FRUITPORT CONGREGATIONAL"	"9 N 8TH AVE, FRUITPORT MI 49415 US"	"-86.166958"	"43.124386"
"92"	"806578"	"0"	"T"	"480.0"	"BILLS SPORT SHOP"	"401 W SAVIDGE, SPRING LAKE MI  US"	"-86.202255"	"43.076962"
"99"	"808022"	"0"	"F"	"280.0"	"PLIANT PLASTICS CORP"	"1700 TAFT ROAD, MUSKEGON MI 49456 US"	"-86.21959107"	"43.10297723"
"107"	"532076"	"0"	"M"	"90.0"	"CHAMPS BAR & GRILL"	"287 MAIN ST, COOPERSVILLE MI 49404 US"	"-85.934145"	"43.063734"
"110"	"532078"	"0"	"M"	"350.0"	"IRONWOOD BAR & GRILL"	"2501 WILSON DR. NW, WALKER MI 49534 US"	"-85.77815014"	"43.01613946"
"115"	"99051"	"47"	"M"	"340.0"	"JET'S PIZZA MI-156"	"5135 LAKE MICHIGAN DRIVE, ALLENDALE MI 49401 US"	"-85.912909"	"42.973071"
"128"	"856041"	"0"	"R"	"210.0"	"WESTSHORE OMS, PLC"	"5957 S HARVEY, MUSKEGON MI 49444 US"	"-86.206981"	"43.144059"
"130"	"808617"	"0"	"R"	"360.0"	"LAKESHORE TECHNOLOGIES LLC"	"1269 E MOUNT GARFIELD SUITE G, NORTON SHORES MI 49441 US"	"-86.212739"	"43.146014"
"133"	"531485"	"4"	"T"	"10.0"	"TED'S"	"14977 CLEVELAND STREET, SPRING LAKE MI 49546 US"	"-86.160496"	"43.074788"
"140"	"808527"	"0"	"T"	"530.0"	"SABO SKIN CARE & MASSAGE"	"701 E Savidge St #5, Spring Lake, MI 49456, SPRING LAKE MI 49456 US"	"-86.182751"	"43.077505"
"149"	"532052"	"0"	"W"	"30.0"	"TUDOR EVENT SERVICES"	"4610 AIRLINE AVENUE, MUSKEGON MI 49444 US"	"-86.200142"	"43.16846"
"152"	"99084"	"1"	"M"	"180.0"	"BURNIPS EQUIPMENT CO"	"7353 STATE RD, COOPERSVILLE MI 49404 US"	"-85.970371"	"43.065282"
"153"	"99031"	"56"	"M"	"210.0"	"BLARNEY CASTLE 896"	"11240 W. OLIVE, GRAND HAVEN MI 49417 US"	"-86.181681"	"42.972858"
"155"	"27828"	"9"	"M"	"300.0"	"PEPPINOS PIZZA EXPRESS"	"4647 LAKE MICHIGAN DR, ALLENDALE MI 49401 US"	"-85.900771"	"42.972596"
"166"	"806559"	"0"	"R"	"110.0"	"SHORELINE SALES GARY'S AUTO BO"	"3700 FARR RD, FRUITPORT MI 49415 US"	"-86.1534774"	"43.1395787"
"169"	"99161"	"484"	"F"	"60.0"	"D&W 766 FIRST AID"	"17200 ROBBINS ROAD, GRAND HAVEN MI 49417 US"	"-86.216075"	"43.044216"
"172"	"806505"	"0"	"F"	"350.0"	"BILZ PLUMBING"	"235 2ND STREET, FERRYSBURG MI 49409 US"	"-86.2212632"	"43.0805558"
"179"	"99161"	"315"	"M"	"280.0"	"SPT F. FARE 137 FIRST AID"	"6370 LAKE MI DR., ALLENDALE MI 49401 US"	"-85.942465"	"42.97099"
"182"	"99061"	"193"	"M"	"260.0"	"SPT FAM FARE GAS STATION 852"	"6380 LK MICHIGAN DR., ALLENDALE MI 49401 US"	"-85.94359"	"42.97181"
"186"	"532170"	"0"	"M"	"20.0"	"OTTAWA ORCHARDS, INC."	"3449 E. ARTHUR, COOPERSVILLE MI 49347 US"	"-85.874624"	"43.060551"
"197"	"99061"	"315"	"M"	"270.0"	"SPT F. FARE 137 FRONT "	"6370 LAKE MI DR., ALLENDALE MI 49401 US"	"-85.942465"	"42.97099"
"202"	"512548"	"0"	"T"	"220.0"	"AUTOMATIC SPRING PRO          "	"803 TAYLOR AVE., GRAND HAVEN MI 49417 US"	"-86.222429"	"43.052462"
"236"	"99031"	"55"	"F"	"460.0"	"BLARNEY CASTLE 728"	"11956 CLEVELAND, NUNICA MI 49448 US"	"-86.085317"	"43.073708"
"268"	"520889"	"1"	"F"	"380.0"	"HORIZON EVENTS"	"940 W. SAVIDGE, SPRING LAKE MI 49456 US"	"-86.212891"	"43.075567"
"269"	"521854"	"0"	"M"	"110.0"	"COOPERSVILLE DENTAL           "	"345 MAIN ST, COOPERSVILLE MI 49404 US"	"-85.935587"	"43.06416"
"277"	"856042"	"0"	"R"	"220.0"	"US10 PROPERTIES"	"5957 S HARVEY, Muskegon MI 49444 US"	"-86.206981"	"43.144059"
"278"	"522135"	"0"	"T"	"280.0"	"CHURCH OF THE DUNES           "	"717 SHELDON, GRAND HAVEN MI 49417 US"	"-86.230147"	"43.055995"
"304"	"806886"	"0"	"W"	"150.0"	"THERMO-O-DISC. INC."	"851 E. Porter Rd., Muskegon MI 49441 US"	"-86.2252324"	"43.1576797"
"305"	"809840"	"0"	"W"	"120.0"	"JENNIFER ROWE, MASSAGE THERAPY"	"800 E ELLIS, MUSKEGON MI 49441 US"	"-86.225506"	"43.162191"
"306"	"809831"	"0"	"W"	"110.0"	"MUSKEGON COUNTY AIRPORT MAINT"	"106 SINCLAIR DRIVE, MUSKEGON MI  US"	"-86.2343588"	"43.1647777"
"307"	"809304"	"0"	"W"	"190.0"	"FOUR SEASONS HOME CRAFTERS"	"4788 GRAND HAVEN RD, MUSKEGON MI 49441 US"	"-86.21999"	"43.16566"
"308"	"806381"	"0"	"W"	"170.0"	"TOP'S BODY SHOPPE"	"5233 GRAND HAVEN RD, MUSKEGON MI 49441 US"	"-86.2213165"	"43.157462"
"309"	"533216"	"0"	"W"	"160.0"	"DIETECH"	"865 E. PORTER, NORTON SHORES MI 49441 US"	"-86.222855"	"43.157614"
"310"	"807972"	"0"	"W"	"70.0"	"MEYER MUSIC"	"1664 E STERNBERG, MUSKEGON MI 49444 US"	"-86.204169"	"43.154804"
"311"	"804692"	"0"	"W"	"40.0"	"SALON 297"	"4915 HARVEY, MUSKEGON MI 49444 US"	"-86.206547"	"43.162991"
"312"	"806809"	"0"	"W"	"10.0"	"MUSKEGON AREA DISTRICT LIBRARY"	"4845 AIRLINE RD., MUSKEGON MI 49444 US"	"-86.195022"	"43.164061"
"313"	"808080"	"0"	"W"	"90.0"	"SEMLOW CHIROPRACTIC"	"5353 GRAND HAVEN RD SUITE A, MUSKEGON MI 49441 US"	"-86.221954"	"43.155407"
"315"	"886208"	"7974"	"W"	"80.0"	"G & L CHILI DOGS"	"1133 E STERNBERG RD, MUSKEGON MI  US"	"-86.217697"	"43.153953"
"316"	"808915"	"0"	"W"	"200.0"	"FIRST CLASS TOWING, LLC"	"4585 GRAND HAVEN ROAD, MUSKEGON MI 49441 US"	"-86.221016"	"43.169262"
"318"	"803857"	"0"	"W"	"290.0"	"AIRLINE BAR"	"3680 AIRLINE, MUSKEGON HEIGHTS MI 49444 US"	"-86.2276993"	"43.1873112"
"319"	"803855"	"0"	"W"	"280.0"	"BABBITT'S SPORT CENTER"	"3712 AIRLINE RD, MUSKEGON MI 49444 US"	"-86.2245315"	"43.1862048"
"320"	"886085"	"6086"	"W"	"320.0"	"GOODWILL NORTON SHORES 236"	"1484 ELLIS ROAD, MUSKEGON MI 49444 US"	"-86.207151"	"43.162098"
"321"	"808015"	"0"	"W"	"310.0"	"MARINE & INDUSTRIAL AUTO ELECT"	"4280 AIRLINE RD, MUSKEGON MI 49444 US"	"-86.209638"	"43.174808"
"322"	"99104"	"14"	"W"	"300.0"	"AUNT MILLIE'S MUSKEGON BRANCH"	"3980 AIRLINE RD, MUSKEGON MI 49444 US"	"-86.216793"	"43.180048"
"323"	"806385"	"0"	"W"	"240.0"	"WESTSHORE PROPERTY MGMT"	"4265 GRAND HAVEN RD, NORTON SHORES MI 49441 US"	"-86.220982"	"43.175284"
"324"	"806384"	"0"	"W"	"230.0"	"CINEMA CAROUSEL THEATRE"	"4289 GRAND HAVEN RD, MUSKEGON MI 49441 US"	"-86.221546"	"43.174017"
"325"	"809425"	"0"	"W"	"210.0"	"GREEK TONY'S PIZZA"	"4543 GRAND HAVEN RD, MUSKEGON MI 49441 US"	"-86.221071"	"43.170078"
"327"	"806962"	"0"	"W"	"260.0"	"MONA LAKE BOAT CLUB"	"372 RANDALL ROAD, MUSKEGON MI 49441 US"	"-86.254248"	"43.176137"
"328"	"802171"	"0"	"W"	"250.0"	"LEFLUER CORPORATION LLC"	"4210 GRAND HAVEN RD, MUSKEGON MI 49441 US"	"-86.219961"	"43.175898"
"329"	"531014"	"0"	"T"	"360.0"	"ELECTRIC HERO"	"20 WASHINGTON, GRAND HAVEN MI 49417 US"	"-86.233401"	"43.064509"
"330"	"806613"	"0"	"T"	"310.0"	"J W'S"	"6 N SEVENTH ST, GRAND HAVEN MI 49417 US"	"-86.222761"	"43.061729"
"331"	"99054"	"44"	"T"	"290.0"	"CHARTER COMMUNICATIONS        "	"315 DAVIS STREET, GRAND HAVEN MI 48417 US"	"-86.222733"	"43.057519"
"332"	"808507"	"0"	"T"	"410.0"	"VFW 2326"	"20 N FIRST, GRAND HAVEN MI 49417 US"	"-86.231908"	"43.065059"
"333"	"529107"	"0"	"T"	"400.0"	"BUTCHS BEACH BURRITOS         "	"726 S HARBOR DR, GRAND HAVEN MI 49417 US"	"-86.242202"	"43.059324"
"334"	"99113"	"0"	"T"	"370.0"	"WAVELAND-ZEPHYR HOUSE"	"22 S. HARBOR, GRAND HAVEN MI 49417 US"	"-86.234179"	"43.064207"
"335"	"806910"	"0"	"T"	"250.0"	"PREFERRED AUTOMOTIVE DEALERSHI"	"1625 S BEACON BLVD, GRAND HAVEN MI 49417 US"	"-86.222281"	"43.045944"
"337"	"99045"	"27"	"T"	"210.0"	"CONSUMERS CREDIT UNION"	"901 SOUTH BEACON BLVD, GRAND HAVEN MI 49417 US"	"-86.2210052"	"43.0527067"
"338"	"99161"	"296"	"M"	"30.0"	"FAMILY FARE 635 FIRST AID"	"1181 W. RANDALL, COOPERSVILLE MI 49404 US"	"-85.956128"	"43.061065"
"339"	"807521"	"0"	"T"	"270.0"	"LAKESHORE UROLOGY PLC"	"1445 SHELDON, SUITE 101, GRAND HAVEN MI 49417 US"	"-86.228873"	"43.050686"
"340"	"522035"	"0"	"T"	"260.0"	"HARBOR DUNES MEDICAL CENTER   "	"1445 SHELDON AVE, GRAND HAVEN MI 49417 US"	"-86.228873"	"43.050686"
"341"	"99031"	"54"	"T"	"420.0"	"BLARNEY CASTLE 496"	"1 S. BEACON, GRAND HAVEN MI 49417 US"	"-86.221043"	"43.060525"
"342"	"530054"	"0"	"M"	"100.0"	"327 PIZZA & PUB"	"327 MAIN ST., COOPERSVILLE MI 49406 US"	"-85.935133"	"43.063961"
"343"	"807380"	"0"	"M"	"70.0"	"THROOP FUNERAL HOME"	"214 CHURCH ST, COOPERSVILLE MI 49404 US"	"-85.932865"	"43.063568"
"344"	"99161"	"18"	"F"	"50.0"	"D&W 1570  FIRST AID"	"1116 ROBBINS ROAD, GRAND HAVEN MI 49417 US"	"-86.214084"	"43.043337"
"345"	"806469"	"0"	"M"	"170.0"	"FUNKY MONKEY SMOKE SHOP"	"1136 W RANDALL ST, COOPERSVILLE MI 49404 US"	"-85.954938"	"43.059255"
"346"	"886085"	"6092"	"M"	"160.0"	"GOODWILL COOPERSVILLE 245"	"1141 W. RANDALL, COOPERSVILLE MI 49404 US"	"-85.954761"	"43.060777"
"347"	"806410"	"0"	"M"	"120.0"	"SOUTHSIDE BAR & GRILL INC"	"229 RANDALL, COOPERSVILLE MI 49404 US"	"-85.932814"	"43.060026"
"348"	"526659"	"0"	"T"	"520.0"	"TWO TONY'S TAVERNA GRILLE     "	"723 E. SAVIDGE, SPRING LAKE MI 49456 US"	"-86.181547"	"43.077319"
"349"	"99117"	"9"	"T"	"490.0"	"WESCO 16"	"502 W SAVIDGE ST, SPRING LAKE MI 49456 US"	"-86.203657"	"43.076331"
"350"	"887717"	"7717"	"T"	"430.0"	"MR SCRIB'S"	"317 N BEACON, GRAND HAVEN MI  US"	"-86.221057"	"43.064218"
"351"	"599000"	"15"	"M"	"50.0"	"NEW BEGINNINGS REST           "	"25 68TH STREET, COOPERSVILLE MI 49404 US"	"-85.957556"	"43.060514"
"352"	"99061"	"296"	"M"	"40.0"	"FAMILY FARE 635 "	"1181 W. RANDALL, COOPERSVILLE MI 49404 US"	"-85.956128"	"43.061065"
"353"	"529379"	"0"	"T"	"540.0"	"BUTCHS BEACH BURRITO          "	"728 E SAVAGE, SPRING LAKE MI 49456 US"	"-86.181611"	"43.076322"
"354"	"806041"	"0"	"W"	"350.0"	"VFW POST 3195"	"5209 GRAND HAVEN RD, MUSKEGON MI 49441 US"	"-86.2209946"	"43.1578509"
"355"	"512583"	"0"	"F"	"250.0"	"TRI CITIES CREDIT UN          "	"905 PENNOYER, GRAND HAVEN MI 49417 US"	"-86.220368"	"43.059373"
"356"	"808707"	"0"	"F"	"160.0"	"GRAND PINES ASSISTED LIVING"	"1410 S FERRY, GRAND HAVEN MI 49417 US"	"-86.213854"	"43.047237"
"357"	"886085"	"6082"	"F"	"140.0"	"GOODWILL GRAND HAVEN 232"	"1112 ROBBINS RD, GRAND HAVEN MI 49417 US"	"-86.213879"	"43.043955"
"358"	"99176"	"0"	"F"	"320.0"	"CONCEPT METALS-ROLL FORM"	"17237 VAN WAGONER RD., Spring Lake MI 49456 US"	"-86.216445"	"43.096994"
"359"	"533054"	"0"	"F"	"310.0"	"ACTIVE MANUFACTURING"	"17127 HICKORY, SPRING LAKE MI 49456 US"	"-86.21361"	"43.111346"
"360"	"533161"	"0"	"F"	"300.0"	"GLOBAL TECHNOLOGIES"	"18683 TRIMBLE CT., SPRING LAKE MI 49456 US"	"-86.218052"	"43.108218"
"361"	"99061"	"22"	"F"	"90.0"	"D&W 1570 STARBUCKS"	"1116 ROBBINS ROAD, GRAND HAVEN MI 49417 US"	"-86.214084"	"43.043337"
"362"	"99061"	"20"	"F"	"80.0"	"D&W 1570 DELI "	"1116 ROBBINS ROAD, GRAND HAVEN MI 49417 US"	"-86.214084"	"43.043337"
"363"	"99061"	"21"	"F"	"70.0"	"D&W 1570 PRODUCE "	"1116 ROBBINS ROAD, GRAND HAVEN MI 49417 US"	"-86.214084"	"43.043337"
"364"	"99061"	"19"	"F"	"100.0"	"D&W 1570 BAKERY "	"1116 ROBBINS ROAD, GRAND HAVEN MI 49417 US"	"-86.214084"	"43.043337"
"365"	"99061"	"18"	"F"	"120.0"	"D&W 1570 MEAT "	"1116 ROBBINS ROAD, GRAND HAVEN MI 49417 US"	"-86.214084"	"43.043337"
"366"	"99061"	"23"	"F"	"110.0"	"D&W 1570 FRONT "	"1116 ROBBINS ROAD, GRAND HAVEN MI 49417 US"	"-86.214084"	"43.043337"
"367"	"99100"	"2"	"F"	"330.0"	"AAC CU-SPRING LAKE"	"17228 VAN WAGONER, SPRING LAKE MI 49456 US"	"-86.216727"	"43.095476"
"368"	"533340"	"0"	"F"	"430.0"	"FINNS CHOPHOUSE"	"909 W. SAVIDGE, SPRING LAKE MI 49456 US"	"-86.209792"	"43.076527"
"369"	"533590"	"0"	"F"	"420.0"	"BEEFY'S BURGER SHACK"	"909 W. SAVIDGE ST, SPRING LAKE MI 49456 US"	"-86.209792"	"43.076527"
"370"	"533136"	"0"	"F"	"410.0"	"ZIMMER AUTOMOTIVE SERVICES"	"116 CHRISTMAN, SPRING LAKE MI 49456 US"	"-86.206436"	"43.077482"
"372"	"99176"	"1"	"F"	"450.0"	"CONCEPT METALS-FAB"	"16928 148TH AVE, Spring Lake MI 49456 US"	"-86.1548021"	"43.0768717"
"373"	"519821"	"0"	"F"	"440.0"	"SPRING LAKE COUNTRY CLUB      "	"17496 FRUITPORT RD., SPRING LAKE MI 49456 US"	"-86.1760504"	"43.0844816"
"375"	"806500"	"0"	"F"	"360.0"	"PINE STREET CAFE"	"401 PINE STREET, FERRYSBURG MI 49409 US"	"-86.21381"	"43.08028"
"377"	"528125"	"0"	"F"	"400.0"	"OLD BOYS BREWHOUSE            "	"971 W SAVIDGE ST, SPRING LAKE MI 49456 US"	"-86.21282"	"43.076976"
"378"	"520889"	"0"	"F"	"390.0"	"HORIZON HOSPITALITY"	"940 W. SAVIDGE, SPRING LAKE MI 49456 US"	"-86.212891"	"43.075567"
"379"	"99031"	"52"	"F"	"370.0"	"BLARNEY CASTLE 392"	"123 PINE ST., FERRYSBURG MI 49409 US"	"-86.215603"	"43.077889"
"380"	"99079"	"18"	"R"	"250.0"	"RED ROBIN 497"	"5785 S HARVEY ST, Muskegon MI 49441 US"	"-86.206685"	"43.148727"
"381"	"530614"	"0"	"R"	"240.0"	"KAZUMI"	"5710 S HARVEY ST, MUSKEGON MI 49444 US"	"-86.205448"	"43.148301"
"383"	"99117"	"36"	"R"	"320.0"	"WESCO 68"	"1025 E. PONTALUNA RD, NORTON SHORES MI 49456 US"	"-86.220105"	"43.131949"
"384"	"803890"	"0"	"R"	"280.0"	"CANCER & HEMATOLOGY CENTERS"	"6425 Harvey St, Norton Shores, MI 49444, MI 49444 US"	"-86.206965"	"43.135462"
"385"	"882664"	"7844"	"R"	"270.0"	"SYTSEMA FUNERAL HOMES INC."	"6291 S. HARVEY, MUSKEGON MI  US"	"-86.207006"	"43.137603"
"386"	"99117"	"31"	"R"	"140.0"	"WESCO 5"	"6419 AIRLINE HWY, FRUITPORT MI 49415 US"	"-86.155952"	"43.135348"
"387"	"99117"	"32"	"R"	"100.0"	"WESCO 21"	"6440 AIRLINE RD, FRUITPORT MI 49415 US"	"-86.154875"	"43.134829"
"388"	"513087"	"0"	"R"	"10.0"	"TURKS INN INC.                "	"11139 CLEVELAND ROAD, NUNICA MI 49448 US"	"-86.065572"	"43.074696"
"389"	"806952"	"0"	"R"	"190.0"	"BOOYAH'S SPORTS BAR"	"6022 HARVEY ST, Muskegon MI 49415 US"	"-86.205372"	"43.142869"
"390"	"806951"	"0"	"R"	"180.0"	"DOMINO'S PIZZA"	"6022 HARVEY ST, MUSKEGON MI 49444 US"	"-86.205372"	"43.142869"
"391"	"99033"	"257"	"R"	"150.0"	"FRUITPORT SCHOOLS"	"3113 E PONTALUNA ROAD, FRUITPORT MI  US"	"-86.1697"	"43.131103"
"392"	"806405"	"0"	"R"	"330.0"	"WEST MI POWER CLEANING SYS INC"	"6156 GRAND HAVEN RD, MUSKEGON MI 49441 US"	"-86.219961"	"43.140473"
"393"	"99117"	"5"	"F"	"10.0"	"WESCO 7"	"14750 MERCURY DR., GRAND HAVEN MI 49417 US"	"-86.152834"	"43.022819"
"394"	"879222"	"0"	"R"	"420.0"	"HARBOR HOSPICE"	"265 E MT GARFIELD, MUSKEGON MI 49444 US"	"-86.24485416"	"43.14738541"
"395"	"803997"	"0"	"R"	"410.0"	"BELLA MARIA'S RISTORANTE & EVE"	"513 W. PONTALUNA RD, MUSKEGON MI 49444 US"	"-86.25805"	"43.129954"
"396"	"808705"	"0"	"F"	"40.0"	"PREMIER MD PLUS"	"16986 ROBBINS RD SUITE 180, GRAND HAVEN MI 49417 US"	"-86.209768"	"43.044253"
"397"	"99094"	"54"	"F"	"30.0"	"LMCU 390"	"16916 ROBBINS RD, GRAND HAVEN MI 49417 US"	"-86.207359"	"43.044272"
"398"	"530318"	"0"	"F"	"20.0"	"AUTOMATIC SPRING"	"16955 HAYES ST, GRAND HAVEN MI 49417 US"	"-86.208685"	"43.031123"
"399"	"888010"	"8011"	"R"	"370.0"	"JOHNSON TECH PLANT 2 NORTH"	"6060 NORTON CENTER DR, MSUKEGON MI 49441 US"	"-86.216825"	"43.142223"
"400"	"888010"	"8008"	"R"	"350.0"	"JOHNSON TECH PLANT 2 SOUTH"	"6120 NORTON CENTER DR, MUSKEGON MI 49441 US"	"-86.2172929"	"43.1413967"
"401"	"888010"	"8007"	"R"	"340.0"	"JOHNSON TECH PLANT 2 SOUTH"	"6120 NORTON CENTER DR, MUSKEGON MI 49441 US"	"-86.2172929"	"43.1413967"
"403"	"803842"	"0"	"R"	"390.0"	"DR KEVIN FAIRFIELD"	"939 E. PONTALUNA, MUSKEGON MI 49444 US"	"-86.22248"	"43.1320417"
"404"	"888010"	"8014"	"R"	"380.0"	"JOHNSON TECHNOLOGY PLANT 2"	"6060 NORTON CENTER DR, MUSKEGON MI 49441 US"	"-86.216825"	"43.142223"
"423"	"27828"	"4"	"M"	"330.0"	"PEPPINOS RESTORANTE           "	"5065 LAKE MICHIGAN DRIVE, ALLENDALE MI 49401 US"	"-85.911126"	"42.972908"
"454"	"803610"	"0"	"R"	"260.0"	"FOOT AND ANKLE SPECIALISTS"	"1450 E FARR RD, MUSKEGON MI 49444 US"	"-86.210086"	"43.140226"
"474"	"532601"	"0"	"T"	"200.0"	"TWO YOLKS CAFE"	"1099 S Beacon Blvd, Grand Haven, MI 49417, GRAND HAVEN MI 49417 US"	"-86.2216742"	"43.050736"
"487"	"532625"	"0"	"M"	"10.0"	"COOPERSVILLE SPORTSMAN CLUB"	"MI 49404 US"	"-85.94276428"	"43.0598526"
"584"	"804442"	"0"	"T"	"20.0"	"ORCHARD MARKET - SPRING LAKE"	"17026 LLOYDS BAYOU DRIVE, SPRING LAKE MI 49456 US"	"-86.172333"	"43.077615"
"608"	"804425"	"0"	"R"	"80.0"	"FRUITPORT ANIMAL HOSPITAL"	"3692 PONTALUNA ROAD, FRUITPORT MI 49415 US"	"-86.15352"	"43.1324667"
"616"	"804431"	"0"	"R"	"90.0"	"ORCHARD MARKET - FRUITPORT"	"6530 AIRLINE ROAD, FRUITPORT MI 49415 US"	"-86.153923"	"43.133332"
"628"	"804449"	"0"	"R"	"30.0"	"THE GLEASON CENTER"	"19084 FRUITPORT RD, SPRING LAKE MI 49456 US"	"-86.157381"	"43.115543"
"664"	"531814"	"0"	"R"	"230.0"	"GRAND TRAVERSE PIE CO"	"5817 HARVEY ST, NORTON SHORES MI 49444 US"	"-86.206978"	"43.14651"
"678"	"886085"	"6093"	"F"	"340.0"	"GOODWILL IND. DONATION CENTER"	"17687 174TH AVE., FERRYSBURG MI 49456 US"	"-86.22258"	"43.090252"
"680"	"532000"	"0"	"T"	"330.0"	"TOASTED PICKLE"	"112 WASHINGTON, GRAND HAVEN MI 49417 US"	"-86.232107"	"43.06409"
"697"	"883674"	"6579"	"T"	"460.0"	"LAKESHORE FAMILY CARE"	"601 W. SAVIDGE, SPRING LAKE MI 49456 US"	"-86.2052113"	"43.0770792"
"705"	"99094"	"0"	"M"	"320.0"	"LMCU 75"	"5023 LAKE MICHIGAN DRIVE, ALLENDALE MI 49401 US"	"-85.909743"	"42.972875"
"739"	"806666"	"0"	"T"	"140.0"	"BEECHTREE FAMILY DENTISTRY"	"927 BEECHTREE SUITE 5, GRAND HAVEN MI 49417 US"	"-86.206456"	"43.051537"
"757"	"532240"	"0"	"M"	"150.0"	"IBEW LOCAL 275"	"140 N 64TH AVE, COOPERSVILLE MI 49404 US"	"-85.9463617"	"43.0622633"
"769"	"888020"	"8017"	"F"	"220.0"	"LOVE IN ACTION"	"326 N FERRY, GRAND HAVEN MI 49456 US"	"-86.215256"	"43.064398"
"770"	"888020"	"8018"	"F"	"210.0"	"LOVE IN ACTION"	"1106 FULTON, GRAND HAVEN MI 49417 US"	"-86.215172"	"43.062485"
"773"	"808859"	"0"	"F"	"290.0"	"KIMBERLY TAYLOR ACCTING & TAX "	"17188 VAN WAGONER, SPRING LAKE MI 49456 US"	"-86.216266"	"43.094123"
"774"	"532736"	"1"	"F"	"230.0"	"TROPICAL SMOOTHIE-GRAND HAVEN"	"410 NORTH BEACON BLVD, GRAND HAVEN MI 49417 US"	"-86.219554"	"43.065277"
"775"	"888020"	"8019"	"F"	"170.0"	"LOVE IN ACTION"	"948 ROBBINS RD, GRAND HAVEN MI 49456 US"	"-86.2183"	"43.044099"
"776"	"888021"	"8021"	"R"	"400.0"	"FOUNTAIN VIEW FAMILY DENTAL"	"925 E. PONTALUNA, MUSKEGON MI 49444 US"	"-86.223055"	"43.13194"
"778"	"530152"	"0"	"F"	"200.0"	"RAINY DAYS CAFE"	"121 N. BEACHTREE, GRAND HAVEN MI 49417 US"	"-86.206102"	"43.062661"
"779"	"808552"	"0"	"F"	"190.0"	"SIGN FACTORY, THE"	"1444 WASHINGTON AVE, GRAND HAVEN MI 49417 US"	"-86.206505"	"43.060998"
"780"	"808633"	"0"	"F"	"180.0"	"DR SID DISBROW"	"518 S BEACON, GRAND HAVEN MI 49417 US"	"-86.22016"	"43.055698"
"794"	"806197"	"0"	"R"	"310.0"	"TITAN TOOL AND DIE"	"6435 SCHAMBER DR, MUSKEGON MI 49441 US"	"-86.2139866"	"43.1356011"
"795"	"888020"	"8020"	"T"	"470.0"	"LOVE IN ACTION"	"200 W SAVIDGE, SPRING LAKE MI 49456 US"	"-86.199162"	"43.07647"
"796"	"882688"	"2689"	"T"	"390.0"	"CUISINE ARTS GRAND HAVEN STORE"	"623 A-WAY, GRAND HAVEN MI 49417 US"	"-86.220965"	"43.068156"
"797"	"99113"	"1"	"T"	"380.0"	"WAVELAND-GRAND LANDINGS"	"529 MILLER, GRAND HAVEN MI 49417 US"	"-86.221761"	"43.06761"
"798"	"521497"	"0"	"M"	"140.0"	"RANDAL STREET MEDICAL         "	"675 W. RANDALL, COOPERSVILLE MI 49404 US"	"-85.9442"	"43.060304"
"799"	"533600"	"0"	"M"	"80.0"	"FATZO'S PIZZA-COOPERSVILLE"	"259 MAIN ST, COOPERSVILLE MI 49404 US"	"-85.933446"	"43.063623"
"800"	"529530"	"0"	"M"	"60.0"	"BETTEN BAKER CHEVROLET"	"930 O'MALLY DRIVE, COOPERSVILLE MI 49404 US"	"-85.949569"	"43.05413"
"802"	"533411"	"0"	"T"	"320.0"	"GRAND HAVEN ELKS"	"15 S. 3RD ST, GRAND HAVEN MI 49417 US"	"-86.230001"	"43.062933"
"803"	"513937"	"0"	"T"	"300.0"	"THE BOOKMAN                   "	"715 WASHINGTON, GRAND HAVEN MI 49417 US"	"-86.222328"	"43.06162"
"804"	"806590"	"0"	"T"	"440.0"	"DOMINO'S PIZZA (S BEACON)"	"311 NORTH 7TH STREET, GRAND HAVEN MI 49417 US"	"-86.221631"	"43.06454"
"805"	"807715"	"0"	"T"	"350.0"	"REDS"	"41 W WASHINGTON AVE, SUITE 230, GRAND HAVEN MI 49417 US"	"-86.232656"	"43.064993"
"806"	"521600"	"0"	"T"	"340.0"	"PIANO FACTORY LLC             "	"41 WASHINGTON, GRAND HAVEN MI 49417 US"	"-86.232656"	"43.064993"
"807"	"512791"	"0"	"M"	"220.0"	"45 BOTELLO'S PARTY STORE      "	"15791 LAKE MICHIGAN DR, WEST OLIVE MI 49460 US"	"-86.178406"	"42.972458"
"809"	"806723"	"0"	"R"	"120.0"	"FRUITPORT TOWNSHIP"	"5865 AIRLINE RD, FRUITPORT MI 49415 US"	"-86.15662471"	"43.14548154"
"810"	"804434"	"0"	"R"	"60.0"	"MOREA CHIROPRACTIC"	"388 N THIRD, FRUITPORT MI 49415 US"	"-86.15367"	"43.131085"
"811"	"802700"	"0"	"R"	"300.0"	"PHYT PHYZIQUE"	"6502 SCHAMBER DRIVE, MUSKEGON MI 49444 US"	"-86.212799"	"43.134642"
"812"	"806090"	"0"	"R"	"290.0"	"TIMELESS WOOD CARE PRODUCTS"	"6528 SCHAMBER DR, MUSKEGON MI 49444 US"	"-86.2121967"	"43.1340717"
"813"	"529098"	"0"	"R"	"160.0"	"ALL STAR GROOMING"	"109 N THIRD, FRUITPORT MI 49415 US"	"-86.155507"	"43.126294"
"814"	"809877"	"0"	"W"	"100.0"	"HUNGERFORD NICHOLS"	"4927 STARIHA SUITE A, MUSKEGON MI 49441 US"	"-86.233391"	"43.163027"
"815"	"806691"	"0"	"W"	"20.0"	"WHITLOW'S FORERUNNER REST"	"4610 AIRLINE RD, MUSKEGON MI  US"	"-86.200142"	"43.16846"
"816"	"526541"	"0"	"M"	"360.0"	"ARH WALKER                    "	"3744 THREE MILE RD Nw, WALKER MI 49544 US"	"-85.761606"	"43.015354"
"817"	"805977"	"0"	"W"	"220.0"	"MR. QUICK RESTAURANTS"	"4190 Grand Haven Rd, MUSKEGON MI 49444 US"	"-86.219601"	"43.177055"
"818"	"806045"	"0"	"W"	"180.0"	"OLD HOMESTEAD INC"	"4814 GRAND HAVEN RD, MUSKEGON MI 49441 US"	"-86.220062"	"43.165086"
"819"	"524527"	"0"	"W"	"130.0"	"SILVER CREEK MANF.            "	"696 AIRPORT PLACE, NORTON SHORES MI 49441 US"	"-86.2278362"	"43.1603386"
"832"	"99094"	"13"	"F"	"240.0"	"LMCU 87"	"951 JACKSON ST, GRAND HAVEN MI 49417 US"	"-86.217456"	"43.067239"
"835"	"99094"	"44"	"R"	"200.0"	"LMCU 89"	"1619 MT GARFIELD ROAD, MUSKEGON MI 49444 US"	"-86.20538"	"43.14639"
"857"	"809841"	"0"	"W"	"140.0"	"EARTHTRONICS INC."	"755 E. ELLIS RD, MUSKEGON MI 49441 US"	"-86.226102"	"43.160645"
"860"	"885970"	"5971"	"W"	"50.0"	"GLO SUN AND SHADES"	"5247 HARVEY, MUSKEGON MI 49444 US"	"-86.208739"	"43.157188"
"863"	"802569"	"0"	"W"	"60.0"	"SERVICE 1 FEDERAL CREDIT UNION"	"1625 EASTWIND, MUSKEGON MI 49441 US"	"-86.205155"	"43.144228"
"868"	"499014"	"23"	"F"	"150.0"	"RX OPTICAL                    "	"1125 S. BEACON, GRAND HAVEN MI 49417 US"	"-86.221102"	"43.049749"
"870"	"806470"	"0"	"R"	"70.0"	"WILD MONKEY SMOKE SHOP"	"420 N THIRD, FRUITPORT MI 49415 US"	"-86.1544983"	"43.1316117"
"874"	"882175"	"2178"	"T"	"110.0"	"REDI RENTAL"	"401 S BEECHTREE, GRAND HAVEN MI 49417 US"	"-86.206348"	"43.057335"
"880"	"531517"	"0"	"T"	"450.0"	"MAMA'S THAI CAFE"	"562 N. BEACON BLVD., GRAND HAVEN MI 49417 US"	"-86.218183"	"43.067644"
"884"	"520553"	"0"	"M"	"190.0"	"MICHAELS CATHOLIC CHURCH      "	"17150 88TH AVE., COOPERSVILLE MI 49404 US"	"-86.006512"	"43.080981"
"885"	"806612"	"0"	"T"	"180.0"	"HEALTH HUT"	"700 WASHINGTON, GRAND HAVEN MI 49417 US"	"-86.222647"	"43.061172"
"890"	"512618"	"0"	"M"	"200.0"	"LAKE CYCLE SHOP               "	"12200 W. OLIVE RD, GRAND HAVEN MI 49417 US"	"-86.193809"	"42.990623"
"893"	"99054"	"25"	"M"	"230.0"	"CHARTER COMMUNICATION"	"12956 68TH AVE., ALLENDALE MI 49401 US"	"-85.953565"	"43.00412"
"894"	"804156"	"0"	"T"	"500.0"	"BEST FINANCIAL CREDIT UNION"	"612 W SAVIDGE, SPRING LAKE MI 49456 US"	"-86.20521"	"43.076192"
"895"	"804439"	"0"	"T"	"510.0"	"WELL ADJUSTED CHIROPRACTIC"	"124 W SAVIDGE, SPRING LAKE MI 49456 US"	"-86.198505"	"43.0765283"
"896"	"808537"	"0"	"T"	"240.0"	"YOUNG, DR. ROBBI"	"600 PARK, SUITE 3, GRAND HAVEN MI 49417 US"	"-86.225128"	"43.053014"
"897"	"808536"	"0"	"T"	"230.0"	"MICHAEL L STERENBERG DO PLLC"	"600 PARK AVE, GRAND HAVEN MI 49417 US"	"-86.225128"	"43.053014"
"904"	"530421"	"0"	"T"	"170.0"	"HARBOR DEBURRING"	"1703 EATON DR, GRAND HAVEN MI 49417 US"	"-86.19859"	"43.0493167"
"915"	"803510"	"0"	"W"	"270.0"	"LAKE HARBOR UNITED METHODIST "	"4861 S HENRY ST, MUSKEGON MI 49441 US"	"-86.264435"	"43.164454"
"917"	"806724"	"0"	"R"	"170.0"	"FRUITPORT DISTRICT LIBRARY"	"47 PARK ST, FRUITPORT MI 49415 US"	"-86.155715"	"43.124164"
"918"	"806471"	"0"	"W"	"330.0"	"J W & CO HAIR STUDIO"	"4851 HARVEY ST, MUSKEGON MI 49444 US"	"-86.206664"	"43.164048"
"919"	"518644"	"0"	"F"	"270.0"	"W. MI ACADEMY OF ART          "	"17350 HAZEL STREET, SPRING LAKE MI 49517 US"	"-86.213869"	"43.085497"
