""	"Acct #"	"Cust #"	"Week #"	"New Rt"	"New Delivery Day"	"New Stop"	"Customer Name"	"DisplayAddressFull"	"X_Longitude"	"Y_Latitude"
"1447"	"804238.0"	"0.0"	"Week1"	"8040"	"F"	"1"	"ARNOLD AUTO GLASS INC"	"480 W SHERMAN, MUSKEGON MI 49444 US"	"-86.256276"	"43.205687"
"1448"	"884502.0"	"4504.0"	"Week1"	"8040"	"F"	"2"	"MUSK RESCUE MISS SHELTER LINEN"	"400 W. LAKETON, MUSKEGON MI 49442 US"	"-86.2539099"	"43.2202858"
"1449"	"884502.0"	"45042.0"	"Week1"	"8040"	"F"	"3"	"MUSK RESCUE MISS SHELTER MATS"	"400 W. LAKETON, MUSKEGON MI 49442 US"	"-86.2539099"	"43.2202858"
"1450"	"807505.0"	"0.0"	"Week2"	"8040"	"F"	"4"	"DEPARTMENT OF HUMAN SERVICES"	"2700 BAKER, MUSKEGON MI 49444 US"	"-86.241643"	"43.202517"
"1451"	"804600.0"	"0.0"	"Week1"	"8040"	"F"	"4"	"SPEC ABRASIVES & FINISHING LLC"	"543 W. SOUTHERN, MUSKEGON MI  US"	"-86.2562093"	"43.2235795"
"1452"	"882688.0"	"2688.0"	"Week1"	"8040"	"F"	"5"	"CUISINE ARTS, MUSKEGON STORE"	"1788 TERRACE ST, MUSKEGON MI  US"	"-86.237316"	"43.219998"
"1453"	"805605.0"	"0.0"	"Week1"	"8040"	"F"	"6"	"SHORELINE NEUROSURGICAL CONS"	"1675 LEAHY ST SUITE 401-A, MUSKEGON MI 49441 US"	"-86.241194"	"43.22162"
"1454"	"882175.0"	"2176.0"	"Week2"	"8040"	"F"	"7"	"REDI RENTAL WAREHOUSE"	"2233 TEMPLE ST, MUSKEGON MI 49441 US"	"-86.257637"	"43.211057"
"1455"	"803032.0"	"0.0"	"Week1"	"8040"	"F"	"7"	"WEST MICHIGAN GASTROENTEROLOGY"	"1675 LEAHY ST, SUITE 324-B, MUSKEGON MI  US"	"-86.241194"	"43.22162"
"1456"	"884654.0"	"4659.0"	"Week1"	"8040"	"F"	"8"	"HACKLEY COMMUNITY CARE CENTER"	"1550 CLINTON, MUSKEGON MI 49442 US"	"-86.24301158"	"43.22214792"
"1457"	"802865.0"	"0.0"	"Week1"	"8040"	"F"	"9"	"CLOCK FUNERAL HOME"	"1469 PECK STREET, MUSKEGON MI 49441 US"	"-86.244924"	"43.225551"
"1458"	"99033.0"	"30402.0"	"Week1"	"8040"	"F"	"10"	"CHARTWELLS (MUSKEGON H.S.)"	"80 W. SOUTHERN, MUSKEGON MI 49441 US"	"-86.2462"	"43.22471"
"1459"	"883960.0"	"3684.0"	"Week3"	"8040"	"F"	"10"	"PROFESSIONAL MED TEAM (HTS)"	"2445 PARK STREET, MUSKEGON HEIGHTS MI 49444 US"	"-86.2550076"	"43.2072589"
"1460"	"806173.0"	"0.0"	"Week3"	"8040"	"F"	"11"	"KEENE LUMBER"	"346 W LAKETON, MUSKEGON MI 49441 US"	"-86.252228"	"43.2202333"
"1461"	"807803.0"	"0.0"	"Week1"	"8040"	"F"	"11"	"MUSKEGON SUPPER HOUSE"	"2500 JEFFERSON STREET, MUSKEGON HEIGHTS MI 49444 US"	"-86.246781"	"43.206651"
"1462"	"883041.0"	"3041.0"	"Week1"	"8040"	"F"	"12"	"MUSKEGON HTS FOOD SERVICE"	"2441 SANFORD ST, MUSKEGON HEIGHTS MI 49444 US"	"-86.247793"	"43.207241"
"1463"	"808170.0"	"0.0"	"Week1"	"8040"	"F"	"13"	"MUSKEGON AREA TRANSIT SYSTEM"	"2624 6TH ST, MUSKEGON HTS MI 49444 US"	"-86.248966"	"43.203619"
"1464"	"807808.0"	"0.0"	"Week1"	"8040"	"F"	"14"	"CHICKEN COOP"	"2544 SANFORD, MUSKEGON HTS MI 49444 US"	"-86.245516"	"43.205318"
"1465"	"883041.0"	"30413.0"	"Week1"	"8040"	"F"	"15"	"MUSKEGON HTS. SCHOOLS"	"55 E. SHERMAN, MUSKEGON HEIGHTS MI 49444 US"	"-86.243514"	"43.204546"
"1466"	"809977.0"	"0.0"	"Week2"	"8040"	"F"	"16"	"FOUNTAIN FUNERAL HOME"	"1765 PECK ST, MUSKEGON MI 49441 US"	"-86.244695"	"43.220641"
"1467"	"807810.0"	"0.0"	"Week1"	"8040"	"F"	"16"	"GRAPHICS HOUSE PRINTING"	"2632 PECK, MUSKEGON HEIGHTS MI 49444 US"	"-86.244061"	"43.20388"
"1468"	"807853.0"	"0.0"	"Week1"	"8040"	"F"	"17"	"FANCY YANCY'S SALON LLC"	"2754 PECK ST, MUSKEGON HTS MI 49444 US"	"-86.244585"	"43.2019783"
"1469"	"884654.0"	"4651.0"	"Week1"	"8040"	"F"	"18"	"HACKLEY COMMUNITY CARE-PHARMAC"	"2700 BAKER ST, MUSKEGON HTS MI 49444 US"	"-86.241643"	"43.202517"
"1470"	"807500.0"	"0.0"	"Week1"	"8040"	"F"	"19"	"TRIDONN DEVELOPMENT"	"2700 BAKER, MUSKEGON HEIGHTS MI 49444 US"	"-86.241643"	"43.202517"
"1471"	"884654.0"	"4654.0"	"Week1"	"8040"	"F"	"20"	"HACKLEY COMMUNITY CARE CENTER"	"2700 BAKER ST (3RD FLOOR), MUSKEGON HEIGHTS MI 49444 US"	"-86.241643"	"43.202517"
"1472"	"807950.0"	"0.0"	"Week2"	"8040"	"F"	"20"	"SCHULTZ HOUSE"	"395 W BROADWAY, MUSKEGON HTS MI 49444 US"	"-86.254485"	"43.200904"
"1473"	"884654.0"	"4656.0"	"Week1"	"8040"	"F"	"21"	"HACKLEY CC DENTAL"	"2700 BAKER ST, MUSKEGON HEIGHTS MI 49444 US"	"-86.241643"	"43.202517"
"1474"	"886809.0"	"6810.0"	"Week2"	"8040"	"F"	"21"	"MUSKEGON AREA DISTRICT LIBRARY"	"2808 SANFORD, MUSKEGON HEIGHTS MI 49444 US"	"-86.2457869"	"43.2005641"
"1475"	"803513.0"	"0.0"	"Week2"	"8040"	"F"	"22"	"CLASSIC CUTS"	"2815 SANFORD, MUSKEGON HEIGHTS MI 49444 US"	"-86.2462352"	"43.2004935"
"1476"	"807883.0"	"0.0"	"Week1"	"8040"	"F"	"22"	"THE HIDEOUT"	"100 E BROADWAY, MUSKEGON HTS MI 49444 US"	"-86.2428793"	"43.2012765"
"1477"	"808501.0"	"0.0"	"Week1"	"8040"	"F"	"23"	"KENNEY'S SANDWICH AND CATERING"	"323 E BROADWAY, MUSKEGON HTS MI  US"	"-86.236178"	"43.200804"
"1478"	"883041.0"	"30414.0"	"Week1"	"8040"	"F"	"24"	"MUSKEGON HTS. SCHOOLS"	"3028 HOWDEN, MUSKEGON MI 49444 US"	"-86.237052"	"43.196943"
"1479"	"807826.0"	"0.0"	"Week2"	"8040"	"F"	"25"	"CHRIST TEMPLE CHURCH"	"412 E SHERMAN BLVD, MUSKEGON HEIGHTS MI 49444 US"	"-86.234263"	"43.205222"
"1480"	"807751.0"	"0.0"	"Week1"	"8040"	"F"	"25"	"ODYSSEY ENTERTAINMENT"	"700 E BROADWAY, MUSKEGON HEIGHTS MI 49444 US"	"-86.227563"	"43.201844"
"1481"	"803000.0"	"0.0"	"Week1"	"8040"	"F"	"26"	"MICHIGAN PAIN CONSULTANTS"	"1675 E MOUNT GARFIELD, MUSKEGON HEIGHTS MI 49444 US"	"-86.204273"	"43.146272"
"1482"	"885730.0"	"5729.0"	"Week1"	"8040"	"F"	"27"	"MUSK SURG-DOWNSTAIRS-PATRIOT"	"1675 PATRIOT, MUSKEGON MI  US"	"-86.204053"	"43.158058"
"1483"	"885730.0"	"5727.0"	"Week1"	"8040"	"F"	"28"	"MUSK SURG-UPSTAIRS-PATRIOT"	"1675 PATRIOT, MUSKEGON MI 49444 US"	"-86.204053"	"43.158058"
"1484"	"803832.0"	"0.0"	"Week2"	"8040"	"M"	"1"	"AMAZON APARTMENTS DBA"	"550 W WESTERN AVE, MUSKEGON MI 49440 US"	"-86.2567323"	"43.233701"
"1485"	"99033.0"	"310.0"	"Week1"	"8040"	"M"	"1"	"CHARTWELL-NELSON ELEMENTARY"	"550 W. GRAND AVE., MUSKEGON MI 49441 US"	"-86.257331"	"43.226245"
"1486"	"804370.0"	"0.0"	"Week1"	"8040"	"M"	"2"	"RELIABLE TOWING INC"	"1288 9TH STREET, MUSKEGON MI 49440 US"	"-86.259286"	"43.229423"
"1487"	"804390.0"	"0.0"	"Week1"	"8040"	"M"	"3"	"GINMAN TIRE"	"665 WEST CLAY AVE, MUSKEGON MI 49440 US"	"-86.259481"	"43.229748"
"1488"	"809404.0"	"0.0"	"Week1"	"8040"	"M"	"4"	"RAD DAD'S"	"470 W. WESTERN STE A, MUSKEGON MI 49440 US"	"-86.255607"	"43.234689"
"1489"	"804829.0"	"0.0"	"Week2"	"8040"	"M"	"5"	"HERITAGE SQUARE COMMONS"	"940 SECOND STREET, MUSKEGON MI 49440 US"	"-86.251042"	"43.23576"
"1490"	"808548.0"	"0.0"	"Week1"	"8040"	"M"	"5"	"MERCY HEALTH ARENA"	"470 W. WESTERN, MUSKEGON MI  US"	"-86.255607"	"43.234689"
"1491"	"806953.0"	"0.0"	"Week1"	"8040"	"M"	"6"	"LEGENDS BAR AND GRILLE"	"446 W. WESTERN, MUSKEGON MI 49440 US"	"-86.254414"	"43.234887"
"1492"	"804775.0"	"0.0"	"Week1"	"8040"	"M"	"7"	"BURL & SPRIG"	"333 W. WESTERN, MUSKEGON MI 49440 US"	"-86.25145"	"43.236043"
"1493"	"805829.0"	"0.0"	"Week2"	"8040"	"M"	"7"	"CENTURY BUILDING"	"356 W WESTERN AVE, MUSKEGON MI 49440 US"	"-86.252463"	"43.236192"
"1494"	"882351.0"	"2350.0"	"Week1"	"8040"	"M"	"8"	"MUSKEGON COMMUNITY COLLEGE"	"981 THIRD ST, MUSKEGON MI 49440 US"	"-86.252688"	"43.234642"
"1495"	"805360.0"	"0.0"	"Week1"	"8040"	"M"	"9"	"DR ROLF'S BBQ"	"477 WEST WESTERN, MUSKEGON MI 49440 US"	"-86.254581"	"43.234192"
"1496"	"808542.0"	"0.0"	"Week1"	"8040"	"M"	"10"	"MIKE'S INN, INC"	"555 W. WESTERN AVE, MUSKEGON MI 49440 US"	"-86.256617"	"43.232946"
"1497"	"804770.0"	"0.0"	"Week2"	"8040"	"M"	"10"	"PIGEON HILL BREWERY LLC"	"895 FOURTH ST (TAPROOM), MUSKEGON MI 49442 US"	"-86.256596"	"43.235847"
"1498"	"808199.0"	"0.0"	"Week1"	"8040"	"M"	"11"	"NO NAME BAR"	"609 W WESTERN, N MUSKEGON MI 49440 US"	"-86.257918"	"43.232222"
"1499"	"805170.0"	"0.0"	"Week2"	"8040"	"M"	"11"	"WEST MICHIGAN DOCK & MARKET"	"560 MART STREET, MUSKEGON MI 49440 US"	"-86.2588023"	"43.2358864"
"1500"	"802522.0"	"0.0"	"Week2"	"8040"	"M"	"12"	"EARLE PRESS"	"1150 7TH STREET, MUSKEGON MI 49440 US"	"-86.2577958"	"43.2317102"
"1501"	"804100.0"	"0.0"	"Week1"	"8040"	"M"	"12"	"MUSKEGON EAGLES"	"621 WESTERN AVE, MUSKEGON MI 49440 US"	"-86.258071"	"43.232009"
"1502"	"804680.0"	"0.0"	"Week1"	"8040"	"M"	"13"	"PARMENTER-O'TOOLE LLC"	"601 TERRACE, MUSKEGON MI 49440 US"	"-86.250214"	"43.242151"
"1503"	"885910.0"	"5950.0"	"Week1"	"8040"	"M"	"14"	"MUSK COUNTY WASTEWATER C STAT"	"633 OTTAWA, MUSKEGON MI 49442 US"	"-86.2420443"	"43.2410297"
"1504"	"804771.0"	"0.0"	"Week1"	"8040"	"M"	"15"	"SPORTFISHERMAN SERVICE (MIKE'S"	"545 OTTAWA ST, MUSKEGON MI 49442 US"	"-86.2410493"	"43.2426278"
"1505"	"882870.0"	"2870.0"	"Week3"	"8040"	"M"	"16"	"ANCHOR INSURANCE GROUP"	"877 TERRACE, MUSKEGON MI 49440 US"	"-86.2468"	"43.236348"
"1506"	"808186.0"	"0.0"	"Week1"	"8040"	"M"	"16"	"COFESSCO FIRE PROTECTION, IN"	"411 OTTAWA, MUSKEGON MI  US"	"-86.239527"	"43.245249"
"1507"	"886176.0"	"6176.0"	"Week2"	"8040"	"M"	"17"	"MUSKEGON CO-OP FEDERAL CREDIT"	"715 TERRACE ST, MUSKEGON MI 49440 US"	"-86.250834"	"43.239906"
"1508"	"804000.0"	"0.0"	"Week1"	"8040"	"M"	"17"	"UNITED WAY OF THE LAKESHORE"	"31 E CLAY AVE, MUSKEGON MI  US"	"-86.243424"	"43.238849"
"1509"	"803980.0"	"0.0"	"Week1"	"8040"	"M"	"18"	"WEST MICHIGAN LOCK AND DOOR"	"61 E. APPLE, MUSKEGON MI 49442 US"	"-86.242478"	"43.2341557"
"1510"	"804010.0"	"0.0"	"Week1"	"8040"	"M"	"19"	"MERCY VISITING NURSE SERVICE"	"888 TERRACE, MUSKEGON MI 49440 US"	"-86.246044"	"43.23654"
"1511"	"805200.0"	"0.0"	"Week3"	"8040"	"M"	"20"	"BETHANY CHRISTIAN REFORMED"	"1105 TERRACE, MUSKEGON MI 49442 US"	"-86.242954"	"43.232226"
"1512"	"804666.0"	"0.0"	"Week1"	"8040"	"M"	"20"	"GUNTER ACCOUNTING"	"880 JEFFERSON, MUSKEGON MI 49440 US"	"-86.2479677"	"43.2366578"
"1513"	"804662.0"	"0.0"	"Week2"	"8040"	"M"	"20"	"SUPERIOR MONUMENT"	"354 OTTAWA, MUSKEGON MI 49442 US"	"-86.2383593"	"43.2460407"
"1514"	"804888.0"	"0.0"	"Week2"	"8040"	"M"	"21"	"MUSKEGON GLASS COMPANY INC"	"777 PINE STREET, MUSKEGON MI 49442 US"	"-86.2462227"	"43.2383865"
"1515"	"804747.0"	"0.0"	"Week1"	"8040"	"M"	"21"	"US31 BBQ"	"151 W. MUSKEGON, MUSKEGON MI 49440 US"	"-86.247267"	"43.234914"
"1516"	"806187.0"	"0.0"	"Week1"	"8040"	"M"	"22"	"HAMBURGER MIKEY"	"1129 THIRD ST, MUSKEGON MI 49442 US"	"-86.249654"	"43.231845"
"1517"	"804750.0"	"0.0"	"Week4"	"8040"	"M"	"23"	"BRIANNA T SCOTT & ASSOCIATES"	"75 W APPLE AVE, MUSKEGON MI 49442 US"	"-86.2458732"	"43.2340274"
"1518"	"99033.0"	"30406.0"	"Week1"	"8040"	"M"	"23"	"CHARTWELLS-MOON"	"1458 5TH STREET, MUSKEGON MI 49441 US"	"-86.24824273"	"43.22589803"
"1519"	"885730.0"	"5730.0"	"Week1"	"8040"	"M"	"24"	"MUSKEGON SURGICAL ASSOC-MERCY"	"1316 MERCY DRIVE, MUSKEGON MI  US"	"-86.211751"	"43.20795"
"1520"	"802685.0"	"0.0"	"Week2"	"8040"	"M"	"25"	"JEFFREY P WEST PLLC"	"1017 SANFORD, MUSKEGON MI 49442 US"	"-86.2455794"	"43.2340408"
"1521"	"883084.0"	"3081.0"	"Week2"	"8040"	"M"	"28"	"MAISD-CRAIG CAMPUS"	"1580 PARK ST, MUSKEGON MI 49440 US"	"-86.25377"	"43.2235672"
"1522"	"807940.0"	"0.0"	"Week2"	"8040"	"M"	"29"	"LITHUANIAN CLUB"	"2152 NINTH ST, MUSKEGON HEIGHTS MI 49444 US"	"-86.2528128"	"43.2129043"
"1523"	"807944.0"	"0.0"	"Week4"	"8040"	"M"	"29"	"TATRA HALL"	"2526 6TH STREET, MUSKEGON HTS MI 49444 US"	"-86.2493394"	"43.2055155"
"1524"	"888010.0"	"8013.0"	"Week1"	"8040"	"R"	"1"	"JOHNSON TECHNOLOGY PLANT 1"	"2034 LATIMER, MUSKEGON MI 49442 US"	"-86.19363"	"43.214958"
"1525"	"888010.0"	"8010.0"	"Week1"	"8040"	"R"	"2"	"JOHNSON TECHNOLOGY"	"2034 LATIMER, MUSKEGON MI 49442 US"	"-86.19363"	"43.214958"
"1526"	"888010.0"	"8012.0"	"Week1"	"8040"	"R"	"3"	"JOHNSON TECHNOLOGY"	"2034 LATIMER DR, MUSKEGON MI 49442 US"	"-86.19363"	"43.214958"
"1527"	"888010.0"	"8005.0"	"Week1"	"8040"	"R"	"4"	"JOHNSON TECHNOLOGY"	"2140 LATIMER DR, MUSKEGON MI 49442 US"	"-86.191421"	"43.214515"
"1528"	"807880.0"	"0.0"	"Week1"	"8040"	"R"	"5"	"SELECT AUDITORIUM (MAY RENTAL)"	"1445 E LAKETON, MUSKEGON MI 49442 US"	"-86.207927"	"43.218206"
"1529"	"806121.0"	"0.0"	"Week1"	"8040"	"R"	"6"	"CHETS TIRE SERVICE"	"1281 E LAKETON AVE, MUSKEGON MI  US"	"-86.212216"	"43.219127"
"1530"	"807806.0"	"0.0"	"Week1"	"8040"	"R"	"7"	"SRS FIBERGLASS LLC"	"1041 E KEATING AVE, MUSKEGON MI 49442 US"	"-86.217956"	"43.214947"
"1531"	"808457.0"	"0.0"	"Week1"	"8040"	"R"	"8"	"MUSKEGON FAMILY CARE"	"2201 S. GETTY, MUSKEGON MI 49444 US"	"-86.225474"	"43.211759"
"1532"	"802891.0"	"0.0"	"Week1"	"8040"	"R"	"9"	"ASAP AUTO PARTS"	"2486 S GETTY, MUSKEGON MI 49444 US"	"-86.2241205"	"43.2066421"
"1533"	"808471.0"	"0.0"	"Week2"	"8040"	"R"	"9"	"PORTER STEEL & WELDING COMPANY"	"831 E. HOVEY, MUSKEGON MI 49444 US"	"-86.2235923"	"43.2082554"
"1534"	"803614.0"	"0.0"	"Week1"	"8040"	"R"	"10"	"OSTEOPATHIC SERVICES"	"1150 E SHERMAN SUITE 2400, MUSKEGON MI 49444 US"	"-86.216214"	"43.20606"
"1535"	"802570.0"	"0.0"	"Week3"	"8040"	"R"	"10"	"SERVICE 1 FEDERAL CREDIT UNION"	"1075 E. SHERMAN BLVD, MUSKEGON MI  US"	"-86.2177603"	"43.2044935"
"1536"	"802578.0"	"0.0"	"Week2"	"8040"	"R"	"11"	"DR SUSANNE SANFORD"	"971 E. SHERMAN BLVD, MUSKEGON HEIGHTS MI 49444 US"	"-86.22006"	"43.204549"
"1537"	"805737.0"	"0.0"	"Week1"	"8040"	"R"	"11"	"WESTSHORE INTERNAL MEDICINE"	"1150 E SHERMAN SUITE 1100, MUSKEGON MI 49443 US"	"-86.216214"	"43.20606"
"1538"	"802588.0"	"0.0"	"Week1"	"8040"	"R"	"12"	"SHORELINE DENTAL PLLC"	"1221 E. SHERMAN BLVD., MUSKEGON MI 49444 US"	"-86.214315"	"43.204668"
"1539"	"882595.0"	"2594.0"	"Week1"	"8040"	"R"	"13"	"WESTSHORE CARDIO CONSULTANTS"	"1212 E. Sherman Boulevard, MUSKEGON MI  US"	"-86.21391"	"43.205522"
"1540"	"803891.0"	"0.0"	"Week1"	"8040"	"R"	"14"	"JOHNSON FAMILY CANCER CENTER"	"1440 E SHERMAN SUITE 300, MUSKEGON MI 49444 US"	"-86.208888"	"43.205743"
"1541"	"805630.0"	"0.0"	"Week1"	"8040"	"R"	"15"	"PULMONARY MEDICINE-MERCY HEALT"	"1560 E. SHERMAN STE 250, MUSKEGON HEIGHTS MI 49444 US"	"-86.208494"	"43.207206"
"1542"	"802622.0"	"0.0"	"Week1"	"8040"	"R"	"16"	"CARDIOTHORACIC SURGERY"	"1560 E SHERMAN SUITE 309, MUSKEGON MI 49444 US"	"-86.208494"	"43.207206"
"1543"	"802591.0"	"0.0"	"Week1"	"8040"	"R"	"17"	"MUSKEGON SURGERY CENTER"	"1400 MERCY DR SUITE 150, MUSKEGON MI  US"	"-86.210724"	"43.208263"
"1544"	"802590.0"	"0.0"	"Week1"	"8040"	"R"	"18"	"ORTHOPAEDIC ASSOCIATES OF MUSK"	"1400 MERCY DRIVE, MUSKEGON MI  US"	"-86.210724"	"43.208263"
"1545"	"885730.0"	"5731.0"	"Week1"	"8040"	"R"	"19"	"MUSKEGON SURGICAL ASSOC-MERCY"	"1316 MERCY DRIVE, MUSKEGON MI  US"	"-86.211751"	"43.20795"
"1546"	"805621.0"	"0.0"	"Week1"	"8040"	"R"	"20"	"UNIVERSITY OF MICHIGAN"	"1301 MERCY, MUSKEGON MI 49444 US"	"-86.212512"	"43.206998"
"1547"	"805734.0"	"0.0"	"Week1"	"8040"	"R"	"21"	"WEST MICHIGAN NEPHROLOGY PC"	"1250 MERCY DRIVE, MUSKEGON MI 49442 US"	"-86.212783"	"43.207983"
"1548"	"805732.0"	"0.0"	"Week1"	"8040"	"R"	"22"	"DAVITA TRC"	"1250 MERCY DRIVE SUITE 201, MUSKEGON MI 49442 US"	"-86.212783"	"43.207983"
"1549"	"806586.0"	"0.0"	"Week2"	"8040"	"R"	"23"	"CRICKET'S PUB LLC"	"1281 E BROADWAY, MUSKEGON HEIGHTS MI 49444 US"	"-86.212719"	"43.201206"
"1550"	"805735.0"	"0.0"	"Week1"	"8040"	"R"	"23"	"WEST MICHIGAN RENAL PROPERTIES"	"1250 MERCY DRIVE, MUSKEGON MI 49442 US"	"-86.212783"	"43.207983"
"1551"	"882595.0"	"2595.0"	"Week1"	"8040"	"R"	"24"	"WESTSHORE CARDIOLOGY"	"2525 ROBERTS, MUSKEGON MI  US"	"-86.2153907"	"43.2061431"
"1552"	"807830.0"	"0.0"	"Week1"	"8040"	"R"	"25"	"MUSKEGON HEARING & SPEECH CENT"	"1155 E SHERMAN, MUSKEGON MI 49444 US"	"-86.215699"	"43.204439"
"1553"	"806530.0"	"0.0"	"Week1"	"8040"	"R"	"26"	"SHEPHERD GARAGE DOOR"	"950 E. BROADWAY, MUSKEGON MI 49444 US"	"-86.221361"	"43.201718"
"1554"	"803782.0"	"0.0"	"Week1"	"8040"	"R"	"27"	"SUNNY MART/TWO BROTHERZ"	"2906 S GETTY, MUSKEGON MI 49444 US"	"-86.2246586"	"43.1995876"
"1555"	"805361.0"	"0.0"	"Week1"	"8040"	"R"	"28"	"NORTON SHORES ESTATES 0325"	"3223 BAILEY, NORTON SHORES MI 49444 US"	"-86.212693"	"43.192742"
"1556"	"526653.0"	"0.0"	"Week1"	"8040"	"T"	"1"	"MICHIGAN FAMILY RESOURCES"	"2626 WALKER AVE NW, WALKER MI 49544 US"	"-85.7211558"	"43.0119063"
"1557"	"528158.0"	"0.0"	"Week1"	"8040"	"T"	"2"	"BISSELL"	"2345 WALKER AVE, WALKER MI 49544 US"	"-85.723918"	"43.007413"
"1558"	"830002.0"	"0.0"	"Week1"	"8040"	"T"	"3"	"MICHIGAN PAIN CONSULTANTS"	"1675 E MOUNT GARFIELD SUITE 13, MUSKEGON HEIGHTS MI 49444 US"	"-86.204273"	"43.146272"
"1559"	"885730.0"	"5728.0"	"Week1"	"8040"	"T"	"4"	"MUSK SURG-DOWNSTAIRS-PATRIOT"	"1675 PATRIOT, MUSKEGON MI  US"	"-86.204053"	"43.158058"
"1560"	"885730.0"	"5726.0"	"Week1"	"8040"	"T"	"5"	"MUSK SURG-UPSTAIRS-PATRIOT"	"1675 PATRIOT, MUSKEGON MI  US"	"-86.204053"	"43.158058"
"1561"	"533472.0"	"0.0"	"Week1"	"8040"	"T"	"6"	"CHICK-FIL-A"	"356 WILSON AVE NORTHWEST, WALKER MI 49534 US"	"-85.775676"	"42.972049"
"1562"	"599000.0"	"16.0"	"Week1"	"8040"	"T"	"7"	"NEW BEGINNINGS RESTAURANT"	"4735 LAKE MICHIGAN DRIVE, STANDALE MI 49534 US"	"-85.783127"	"42.972728"
"1563"	"99051.0"	"52.0"	"Week1"	"8040"	"T"	"8"	"JET'S PIZZA MI-141"	"4482 LAKE MICHIGAN DR, WALKER MI 49534 US"	"-85.77885"	"42.971808"
"1564"	"99100.0"	"3.0"	"Week1"	"8040"	"T"	"9"	"AAC CU-STANDALE"	"177 WILSON NW, GRAND RAPIDS MI 49534 US"	"-85.776937"	"42.968071"
"1565"	"532514.0"	"0.0"	"Week1"	"8040"	"T"	"10"	"TAQUERIA MANRIQUEZ-GR"	"411 WILSON NW, GRAND RAPIDS MI 49534 US"	"-85.776779"	"42.973437"
"1566"	"27828.0"	"3.0"	"Week1"	"8040"	"T"	"11"	"PEPPINOS PIZZA 1"	"4170 LAKE MICHIGAN DRIVE, GRAND RAPIDS MI 49534 US"	"-85.770316"	"42.971853"
"1567"	"521739.0"	"0.0"	"Week1"	"8040"	"T"	"12"	"SICILIANOS MARKET"	"2840 LAKE MICHIGAN DR N.W., GRAND RAPIDS MI 49504 US"	"-85.737826"	"42.97149"
"1568"	"99061.0"	"334.0"	"Week1"	"8040"	"T"	"13"	"SPT. FAMILY FARE FRONT 339"	"2755 LAKE MI DR. NW, GR. RAPIDS MI 49504 US"	"-85.735992"	"42.972554"
"1569"	"531660.0"	"0.0"	"Week2"	"8040"	"T"	"14"	"LAKE MICHIGAN SPORTS BAR"	"4072 LAKE MICHIGAN DRIVE, WALKER MI 49534 US"	"-85.768125"	"42.971883"
"1570"	"99161.0"	"334.0"	"Week1"	"8040"	"T"	"14"	"SPT. FAMILY FARE 339 FIRST AID"	"2755 LAKE MI DR. NW, GR. RAPIDS MI 49504 US"	"-85.735992"	"42.972554"
"1571"	"99161.0"	"201.0"	"Week1"	"8040"	"T"	"15"	"SPT FAMILY FARE #771 FIRST AID"	"2755 LAKE MICHIGAN DR, GRAND RAPIDS, MI MI 49504 US"	"-85.735992"	"42.972554"
"1572"	"99035.0"	"71.0"	"Week4"	"8040"	"T"	"16"	"INDEPENDENT BANK 525"	"4525 LAKE MICHIGAN DR, STANDALE MI 49534 US"	"-85.779585"	"42.972698"
"1573"	"99061.0"	"201.0"	"Week1"	"8040"	"T"	"16"	"SPT FAMILY FARE-QUICK STOP 771"	"2755 LAKE MICHIGAN DR, GRAND RAPIDS, MI MI 49504 US"	"-85.735992"	"42.972554"
"1574"	"99094.0"	"2.0"	"Week1"	"8040"	"T"	"17"	"LMCU 70"	"2720 LAKE MICHIGAN DR NW, GRAND RAPIDS MI 49504 US"	"-85.735924"	"42.971384"
"1575"	"99104.0"	"11.0"	"Week2"	"8040"	"T"	"18"	"AUNT MILLIE'S WALKER OUTLET"	"3738 NORTHRIDGE DR NW, GRAND RAPIDS MI 49544 US"	"-85.762989"	"43.025881"
"1576"	"99059.0"	"5.0"	"Week1"	"8040"	"T"	"18"	"MR BURGER #1"	"2101 LAKE MICHIGAN DR, GRAND RAPIDS MI 49504 US"	"-85.719827"	"42.971878"
"1577"	"532114.0"	"0.0"	"Week1"	"8040"	"T"	"19"	"BIG APPLE BAGELS LAKE MI DR"	"2058 LAKE MICHIGAN DR, GRAND RAPIDS MI 49504 US"	"-85.719228"	"42.97085"
"1578"	"499014.0"	"22.0"	"Week4"	"8040"	"T"	"19"	"RX OPTICAL"	"4482 LAKE MICHIGAN N, STANDALE MI 49534 US"	"-85.77885"	"42.971808"
"1579"	"530676.0"	"1.0"	"Week2"	"8040"	"T"	"19"	"STATE OF MICHIGAN-POLICE"	"2290 4 MILE ROAD, WALKER MI 49544 US"	"-85.726314"	"43.028553"
"1580"	"532960.0"	"0.0"	"Week1"	"8040"	"T"	"20"	"WALKER ROADHOUSE"	"3272 REMEMBRANCE RD NW, GRAND RAPIDS MI 49534 US"	"-85.748796"	"42.986722"
"1581"	"513658.0"	"0.0"	"Week2"	"8040"	"T"	"21"	"ALLIED ELECTRIC, INC"	"2503 WALDORF CT., GRAND RAPIDS MI 49544 US"	"-85.7166842"	"43.0097605"
"1582"	"533261.0"	"0.0"	"Week1"	"8040"	"T"	"21"	"LOST ART BREWHOUSE"	"3393 REMEMBERENCE ROAD, WALKER MI 49534 US"	"-85.751364"	"42.989675"
"1583"	"516758.0"	"0.0"	"Week1"	"8040"	"T"	"22"	"POP'S RESTAURANT"	"1339 WALKER VILLAGE, WALKER MI 49504 US"	"-85.754243"	"42.988725"
"1584"	"532741.0"	"0.0"	"Week1"	"8040"	"T"	"23"	"DAVE ZYLSTRA AGENCY"	"4201 RICHMOND NE, GRAND RAPDIS MI 49534 US"	"-85.77266853"	"43.00143746"
"1585"	"530885.0"	"0.0"	"Week4"	"8040"	"T"	"23"	"STANDALE VETERINARY HOSPITAL"	"456 KINNEY AVE, GRAND RAPIDS MI 49534 US"	"-85.766064"	"42.973238"
"1586"	"529998.0"	"0.0"	"Week1"	"8040"	"T"	"24"	"KAATS WATER CONDITIONING"	"3227 3 MILE RD, WALKER MI 49534 US"	"-85.7495433"	"43.0168533"
"1587"	"99063.0"	"14.0"	"Week1"	"8040"	"T"	"25"	"DTE ENERGY-WALKER"	"2689 WALKENT DRIVE NW, WALKER MI 49544 US"	"-85.721307"	"43.013604"
"1588"	"515738.0"	"0.0"	"Week1"	"8040"	"T"	"26"	"DIETRICH MACH REP, I"	"1790 BRISTOL RIDGE DR. NW, WALKER MI 49544 US"	"-85.714129"	"43.017208"
"1589"	"523574.0"	"0.0"	"Week1"	"8040"	"T"	"27"	"ERICKSONS INCORPORATED"	"3128 THREE MILE RD NW, GRAND RAPIDS MI 49544 US"	"-85.746964"	"43.011257"
"1590"	"523097.0"	"0.0"	"Week1"	"8040"	"T"	"28"	"ERICKSONS INCORPORATED"	"3128 THREE MILE RD NW, GRAND RAPIDS MI 49544 US"	"-85.746964"	"43.011257"
"1591"	"528815.0"	"0.0"	"Week1"	"8040"	"W"	"1"	"LINDENMEYR MUNROE"	"2944 WALKENT DR NW, GRAND RAPIDS MI 49544 US"	"-85.717621"	"43.017132"
"1592"	"806026.0"	"0.0"	"Week1"	"8040"	"W"	"2"	"INTRA CITY DISPATCH"	"1450 E LAKETON, MUSKEGON MI 49442 US"	"-86.20793"	"43.220633"
"1593"	"99160.0"	"0.0"	"Week2"	"8040"	"W"	"2"	"MR. QUICK HAMBURGER-LAKETON"	"915 E. LAKETON AVE, MUSKEGON MI 49442 US"	"-86.22148"	"43.219113"
"1594"	"806074.0"	"0.0"	"Week1"	"8040"	"W"	"3"	"BAUER SHEET METAL"	"1550 EVANSTON AVE., MUSKEGON MI 49442 US"	"-86.205879"	"43.223906"
"1595"	"99033.0"	"30405.0"	"Week1"	"8040"	"W"	"4"	"CHARTWELLS-OAKVIEW"	"1420 MADISON, MUSKEGON MI 49442 US"	"-86.219041"	"43.22682"
"1596"	"804411.0"	"0.0"	"Week1"	"8040"	"W"	"5"	"BLOOD'S FRONT END CLINIC DBA"	"1317 S GETTY, MUSKEGON MI 49442 US"	"-86.224623"	"43.228429"
"1597"	"803985.0"	"0.0"	"Week1"	"8040"	"W"	"6"	"DEXTER'S GARAGE"	"452 S GETTY, MUSKEGON MI 49442 US"	"-86.223633"	"43.244151"
"1598"	"99033.0"	"30408.0"	"Week1"	"8040"	"W"	"7"	"CHARTWELLS-MARQUETTE"	"4080 BENNETT, MUSKEGON MI 49442 US"	"-86.216396"	"43.2464385"
"1599"	"883084.0"	"3082.0"	"Week1"	"8040"	"W"	"8"	"MAISD - WESLEY SCHOOL"	"915 WESLEY AVE., MUSKEGON MI 49442 US"	"-86.221106"	"43.240716"
"1600"	"884502.0"	"4503.0"	"Week2"	"8040"	"W"	"8"	"MUSK RES MISS WOMENS SHELT-LIN"	"1691 PECK ST., MUSKEGON MI 49442 US"	"-86.244737"	"43.221723"
"1601"	"883084.0"	"30415.0"	"Week1"	"8040"	"W"	"9"	"MAISD WESLEY SCHOOL LAKE. LC"	"915 WESLEY AVE., MUSKEGON MI 49442 US"	"-86.221106"	"43.240716"
"1602"	"802990.0"	"0.0"	"Week2"	"8040"	"W"	"9"	"PREVENTIVE HEALTH SERVICES"	"1576 PECK ST., MUSKEGON MI 49442 US"	"-86.244008"	"43.223816"
"1603"	"802697.0"	"0.0"	"Week4"	"8040"	"W"	"10"	"CHARLES HEATING & COOLING, INC"	"422 APPLE AVENUE, MUSKEGON MI  US"	"-86.233563"	"43.234483"
"1604"	"99033.0"	"3039.0"	"Week1"	"8040"	"W"	"10"	"CHARTWELLS-MUSK MS"	"1150AMITY, MUSKEGON MI 49441 US"	"-86.216171"	"43.237059"
"1605"	"802658.0"	"0.0"	"Week2"	"8040"	"W"	"10"	"PANYARD BUILDING LLC"	"1042 TERRACE, MUSKEGON MI 49442 US"	"-86.243581"	"43.233649"
"1606"	"803188.0"	"0.0"	"Week1"	"8040"	"W"	"11"	"DOMINO'S PIZZA (APPLE AVE)"	"1332 E APPLE AVE, MUSKEGON MI 49442 US"	"-86.211026"	"43.234472"
"1607"	"884654.0"	"4658.0"	"Week3"	"8040"	"W"	"11"	"HCCC - INTEGRATED HLTH CLINIC"	"376 E. APPLE, MUSKEGON MI 49442 US"	"-86.235213"	"43.234808"
"1608"	"883960.0"	"3960.0"	"Week4"	"8040"	"W"	"11"	"PROFESSIONAL MED TEAM"	"965 FORK STREET, MUSKEGON MI  US"	"-86.237896"	"43.234802"
"1609"	"804693.0"	"0.0"	"Week1"	"8040"	"W"	"12"	"DIBS ON RESALE"	"1279 E APPLE, MUSKEGON MI 49442 US"	"-86.212591"	"43.233904"
"1610"	"803977.0"	"0.0"	"Week4"	"8040"	"W"	"12"	"NORTHWESTERN INDUSTRIAL SALES"	"820 PINE STREET, MUSKEGON MI 49442 US"	"-86.2448585"	"43.2378501"
"1611"	"808370.0"	"0.0"	"Week1"	"8040"	"W"	"13"	"KAYLA'S TACOS"	"1084 S. GETTY ST., MUSKEGON MI 49442 US"	"-86.2240615"	"43.232595"
"1612"	"804518.0"	"0.0"	"Week4"	"8040"	"W"	"13"	"ST MARY'S CATHOLIC"	"239 W CLAY, MUSKEGON MI 49440 US"	"-86.248897"	"43.23577"
"1613"	"531778.0"	"0.0"	"Week1"	"8040"	"W"	"14"	"FISH-N-CHICKS"	"1177 GETTY ST, MUSKEGON MI 49442 US"	"-86.224651"	"43.230894"
"1614"	"804701.0"	"0.0"	"Week1"	"8040"	"W"	"15"	"CAMPBELL'S AUTO & 24 HR TOWING"	"796 E APPLE AVE, MUSKEGON MI 49442 US"	"-86.224502"	"43.234388"
"1615"	"807811.0"	"0.0"	"Week4"	"8040"	"W"	"15"	"GRAPHICS HOUSE IMAGING"	"444 IRWIN AVENUE, MUSKEGON MI 49442 US"	"-86.233574"	"43.227672"
"1616"	"803990.0"	"0.0"	"Week3"	"8040"	"W"	"16"	"OUR LADY OF GRACE"	"451 S. GETTY, MUSKEGON MI 49442 US"	"-86.2248765"	"43.2443118"
"1617"	"882664.0"	"6194.0"	"Week1"	"8040"	"W"	"16"	"SYTSEMA FUNERAL HOME"	"737 APPLE AVENUE, MUSKEGON MI  US"	"-86.225577"	"43.233841"
"1618"	"803969.0"	"0.0"	"Week1"	"8040"	"W"	"17"	"KEN'S ANOINTED HANDS"	"1040 WOOD ST, MUSKEGON MI 49442 US"	"-86.233861"	"43.233512"
"1619"	"808361.0"	"0.0"	"Week2"	"8040"	"W"	"17"	"MCDONALDS CANDIES"	"1064 S GETTY STREET, MUSKEGON MI 49442 US"	"-86.224016"	"43.232995"
"1620"	"808500.0"	"0.0"	"Week1"	"8040"	"W"	"18"	"MUSKEGON COVENANT ACADEMY"	"125 CATHERINE AVE., MUSKEGON MI  US"	"-86.241102"	"43.227796"
"1621"	"884654.0"	"4655.0"	"Week1"	"8040"	"W"	"19"	"HCCC - TEEN HEALTH CENTER MHS"	"80 W. SOUTHERN, MUSKEGON MI 49441 US"	"-86.2462"	"43.22471"
"1622"	"802466.0"	"0.0"	"Week1"	"8040"	"W"	"20"	"KAMM ELECTRIC MOTORS INC"	"220 W LAKETON, MUSKEGON MI 49441 US"	"-86.2496558"	"43.2201002"
"1623"	"804236.0"	"0.0"	"Week2"	"8040"	"W"	"21"	"MICHIGAN COASTAL CREDIT UNION"	"1086 CRESTON, MUSKEGON MI 49442 US"	"-86.208835"	"43.232641"
"1624"	"809601.0"	"0.0"	"Week1"	"8040"	"W"	"21"	"PORT CITY FEDERAL CREDIT UNION"	"460 W LAKETON, MUSKEGON MI 49442 US"	"-86.254937"	"43.220026"
"1625"	"888021.0"	"8713.0"	"Week3"	"8040"	"W"	"22"	"APPLE DENTURE CENTER DR GASTON"	"900 E. APPLE AVE., MUSKEGON MI 49442 US"	"-86.221786"	"43.234352"
"1626"	"884654.0"	"4652.0"	"Week1"	"8040"	"W"	"22"	"HACKLEY COMMUNITY CARE"	"1675 LEAHY, MUSKEGON MI  US"	"-86.241194"	"43.22162"
"1627"	"806078.0"	"0.0"	"Week2"	"8040"	"W"	"22"	"TRIDONN CONSTRUCTION"	"1461 EVANSTON AVE, MUSKEGON MI 49442 US"	"-86.207821"	"43.223554"
"1628"	"887717.0"	"2659.0"	"Week1"	"8040"	"W"	"23"	"MR SCRIB'S PIZZA"	"565 E. LAKETON AVE., MUSKEGON MI  US"	"-86.230186"	"43.219311"
"1629"	"803071.0"	"0.0"	"Week1"	"8040"	"W"	"24"	"GETTY STREET GRILL"	"1572 GETTY, MUSKEGON MI 49442 US"	"-86.224169"	"43.223569"
"1630"	"807960.0"	"0.0"	"Week1"	"8040"	"W"	"25"	"B & K TRANSMISSION & AUTO"	"1708 S GETTY, MUSKEGON MI 49442 US"	"-86.223699"	"43.221179"
"1631"	"806007.0"	"0.0"	"Week1"	"8040"	"W"	"26"	"NEWKIRK ELECTRIC"	"1875 ROBERTS ST, MUSKEGON MI 49442 US"	"-86.2154357"	"43.2180245"
