cu_id	Account	Customer	New Delivery Day	Alliant Sequence	Customer Name	Address	X_Longitude	Y_Latitude	Route
1020	26721	0	R	180	ANIMAL MEDICAL CENTER         	"994 W. SOUTH BLVD., ROCHESTER HILLS MI 48307 US"	-83.149986	42.622985	78
10212	31213	0	R	230	STRAY CAT LOUNGE	"40813 GARFIELD, CLINTON TWP MI 48038 US"	-82.954845	42.596894	78
10214	31214	0	R	130	HEART AND VASCULAR CARE	"75 BARCLAY CIRCLE SUITE 230, ROCHESTER HILLS MI 48"	-83.130198	42.643312	78
10226	31225	0	M	180	STERLING CONEY	"37372 VANDYKE, STERLING HEIGHTS MI 48312 US"	-83.026705	42.569157	78
10242	31239	0	T	200	FOAM FACTORY	"17500 23 MILE RD, MACOMB MI 48044 US"	-82.94981	42.669869	78
10385	31358	1	W	90	CARDIOVASCULAR INSTITUTE OF MI	"43230 GARFIELD SUITE 150, CLINTON TWNP. MI 48038 U"	-82.951872	42.614977	78
10588	31506	0	T	150	DR. JOSEPH M. HILDEBRAND	"50154 SCHOEHERR, SHELBY TOWNSHIP MI 48315 US"	-82.993138	42.665188	78
10898	31691	0	W	150	TROPICAL SMOOTHIE CAFE	"18353 HALL RD, SHELBY TOWNSHIP MI 48044 US"	-82.93868	42.629194	78
1093	99051	13	T	40	JET'S PIZZA MI-063	"64860 VANDYKE, WASHINGTON TWP MI 48094 US"	-83.016344	42.771602	78
1096	99062	158	R	20	HOLLYWOOD MKT #956 MEAT	"1495 N ROCHESTER RD, ROCHESTER HILLS MI 48307 US"	-83.136344	42.69492	78
10967	99033	96	R	240	VITESCO TECHNOLOGIES	"2400 EXECUTIVE HILLS DR, AUBURN HILLS MI 48236 US"	-83.240964	42.644286	78
1100	99062	152	F	40	HOLLYWOOD MKT #881 MEAT	"29200 N CAMPBELL, MADISON HEIGHTS MI 48071 US"	-83.124621	42.507012	78
1101	99062	153	F	30	HOLLYWOOD MKT #881 DELI/BAKERY	"29200 N CAMPBELL, MADISON HEIGHTS MI 48071 US"	-83.124621	42.507012	78
11010	31726	0	R	160	VAL'S POLISH KITCHEN	"224 E. AUBURN RD, ROCHESTER MI 48307 US"	-83.125735	42.635651	78
11013M	99033	111	M	130	ST JOHN MACOMB OAKLAND 25924	"27351 DEQUINDRE RD, MADISON HTS MI 48071 US"	-83.086861	42.493922	78
11013R	99033	111	R	290	ST JOHN MACOMB OAKLAND 25924	"27351 DEQUINDRE RD, MADISON HTS MI 48071 US"	-83.086885	42.493929	78
11016	99033	114	M	10	ST JOHN MACOMB HOSPITAL 25922	"11800 E. 12 MILE RD, WARREN MI 48093 US"	-83.00544	42.505807	78
1103	99055	11	M	220	"JETS M.E.J.S., INC"	"46370 VANDYKE, SHELBY TOWNSHIP MI 48317 US"	-83.031776	42.636153	78
1104	99055	1	W	60	JET'S PIZZA MI-092 	"42918 SHOENHERR RD, STERLING HEIGHTS MI 48313 US"	-82.991418	42.610047	78
11121	31915	0	R	80	TROPICAL SMOOTHIE CAFE	"1288 WALTON BLVD, ROCHESTER HILLS MI 48307 US"	-83.152187	42.683177	78
11355	31691	2	T	140	TROPICAL SMOOTHIE CAFE 23 MILE	"14901 23 MILE RD., SHELBY TOWNSHIP MI 48316 US"	-82.979538	42.672176	78
11369	31951	0	T	210	ETHEL'S BAKING COMPANY	"15000 COMMERCIAL DRIVE, SHELBY TWSP MI 48315 US"	-82.977046	42.662485	78
11539	99033	140	R	60	HENRY FORD HEALTH	"1101 W. UNIVERSITY DRIVE, ROCHESTER HILLS MI 48307"	-83.149468	42.679808	78
11754	32197	0	T	100	LITTLE INDIA	"8194 23 MILE ROAD, SHELBY TOWNSHIP MI 48316 US"	-83.031269	42.668726	78
12281	31691	9	M	230	TROPICAL SMOOTHIE CAFE 087	"46959 VAN DYKE AVENUE, SHELBY TWP MI 48317 US"	-83.033538	42.640079	78
12333	32495	0	T	170	900 DEGREES	"50925 HAYES ROAD, SHELBY TOWNSHIP MI 48315 US"	-82.975906	42.670195	78
1244	27796	0	T	70	STONY CREEK ROAD HOUSE       	"3000 26 MILE RD, SHELBY TOWNSHIP MI 48316 US"	-83.083929	42.711749	78
1245	27797	0	T	80	UTICA CONEY ISLAND            	"51067 MOUND RD, SHELBY TOWNSHIP MI 48316 US"	-83.054365	42.669948	78
12472	29076	9	R	230	AUBURN HILLS-FIRE STATION 1	"3483 AUBURN RD, AUBURN HILLS MI 48326 US"	-83.218912	42.634356	78
12573	32630	0	F	130	AEG PRESENTS MI LCC	"318 W. 4TH ST., ROYAL OAK MI 48067 US"	-83.147393	42.487354	78
12778	32761	1	R	270	EASTLAKE CARDIOVASCULAR	"2061 W. Auburn Road, Rochester Hills MI 48309 US"	-83.092881	42.618938	78
12779	32761	2	W	160	EASTLAKE CARDIOVASCULAR	"16700 21 MILE ROAD SUITE 106, MACOMB TOWNSHIP MI 4"	-82.95579	42.641459	78
12991	32855	0	F	250	THE COACH SPORTS GRILLE	"26685 DEQUINDRE, MADISON HEIGHTS MI 48071 US"	-83.085536	42.489818	78
1311	28067	0	R	170	ACTION QUICK SERVICE          	"996 E AUBURN RD, ROCHESTER HILLS MI 48307 US"	-83.112338	42.636263	78
1319	28098	0	R	120	ACTION ONE AUTOMOTIVE & TOWING	"111 SOUTH STREET, ROCHESTER MI 48307 US"	-83.132172	42.6755	78
13367	99099	0	M	20	MACOMB PEDIATRIC WARREN	"27070 HOOVER ROAD SUITE A, WARREN MI 48093 US"	-83.005787	42.493345	78
13368	99099	1	W	200	MACOMB PEDIATRIC CLINTON TWP	"39200 GARFIELD SUITE E, CLINTON TWP MI 48048 US"	-82.951299	42.585565	78
1337	28187	0	F	180	"H2 ROYAL OAK, LLC "	"450 WEST 4TH STREET, ROYAL OAK MI 48067 US"	-83.1484547	42.4876016	78
1344	28225	0	M	200	BOZEKS MARKET                 	"42354 VANDYKE, STERLING HEIGHTS MI 48314 US"	-83.030632	42.604698	78
1389	28365	0	W	180	BOSTONS                       	"15133 HALL RD, SHELBY TWP MI 48315 US"	-82.97488	42.628326	78
1404	99124	3	T	90	BANGKOK CUISINE               	"8583 26 MILE RD, WASHINGTON TWP MI 48094 US"	-83.029746	42.715527	78
14297	99082	35	T	10	SUNRISE #34	"68970 NORTH AVE, RAY MI 48096 US"	-82.882537	42.805977	78
1443	28547	0	F	210	TUBBY'S                       	"1612 E. 11 ROAD, ROYAL OAK MI 48067 US"	-83.125093	42.490197	78
14456	99128	3	R	110	BAKEHOUSE 46	"205 S. MAIN STREET, ROCHESTER MI 48307 US"	-83.134272	42.678664	78
14484	33230	0	W	110	IMPERIAL LANES	"44650 GARFIELD ROAD, CLINTON TOWNSHIP MI 48038 US"	-82.952125	42.625162	78
14569	32495	1	T	180	900 DEGREES/LAFATA CABINETS	"50925 HAYES ROAD, SHELBY TOWNSHIP MI 48315 US"	-82.975906	42.670195	78
14586	33267	0	F	220	ROYAL CONEY EXPRESS	"1805 E. 11 MILE ROAD, ROYAL OAK MI 48067 US"	-83.123055	42.490684	78
1465	28622	0	T	20	TIME SQUARE                   	"70927 VAN DYKE, ROMEO MI 48065 US"	-83.020761	42.816278	78
14663	99144	3	F	110	SMART ROTC	"202 SHERMAN AVE, ROYAL OAK MI 48067 US"	-83.147563	42.488327	78
14736	31915	1	R	190	TROPICAL SMOOTHIE CAFE	"2913 CROOKS, ROCHESTER HILLS MI 48309 US"	-83.169616	42.636764	78
14848	99161	149	F	50	HOLLYWOOD MKT #892 FIRST AID	"714 N MAIN ST, ROYAL OAK MI 48067 US"	-83.144084	42.495538	78
14849	99161	152	F	20	HOLLYWOOD MKT #881 FIRST AID	"29200 N CAMPBELL, MADISON HEIGHTS MI 48071 US"	-83.124621	42.507012	78
14851	99161	158	R	10	HOLLYWOOD MKT #956 FIRST AID	"1495 ROCHESTER RD, ROCHESTER HILLS MI 48307 US"	-83.136344	42.69492	78
14862	99062	151	F	10	HOLLYWOOD MKT #881 GROCERY	"29200 N CAMPBELL, MADISON HEIGHTS MI 48071 US"	-83.124621	42.507012	78
14864	99062	148	F	80	HOLLYWOOD MKT #892 GROCERY	"714 N MAIN ST, ROYAL OAK MI 48067 US"	-83.144084	42.495538	78
14865	99062	157	R	30	HOLLYWOOD MKT #956 GROCERY	"1495 N ROCHESTER RD, ROCHESTER MI 48307 US"	-83.136344	42.69492	78
1494	28700	0	F	140	LILYS SEAFOOD GRILL           	"410 S WASHINGTON, ROYAL OAK MI 48067 US"	-83.146811	42.486938	78
14969	99153	4	R	140	BINSON'S MEDICAL	"6475 ROCHESTER, TROY MI 48098 US"	-83.130788	42.614799	78
14972	99153	7	M	60	BINSON'S MEDICAL	"7277 BERNICE, CENTERLINE MI 48015 US"	-83.031263	42.488363	78
14974	99153	9	M	70	BINSON'S MEDICAL	"26819 LAWRENCE, CENTERLINE MI 48015 US"	-83.0330881	42.4906154	78
14976	99153	10	M	80	BINSON'S MEDICAL	"26834 LAWERENCE, CENTERLINE MI 48150 US"	-83.032169	42.490487	78
14977	99153	11	M	50	BINSON'S MEDICAL	"26330 LAWRENCE, CENTERLINE MI 48015 US"	-83.031549	42.486718	78
15578	33433	0	F	230	SILVER STAR AUTO CARE	"741 WEST 11 MILE RD, MADISON HEIGHTS MI 48071 US"	-83.112718	42.490369	78
1559	28955	0	M	250	FLOOR SAVERS                  	"24565 FORTERRA, WARREN MI 48189 US"	-82.992955	42.475818	78
15886	99166	0	T	120	VERONA INSPIRED ITALIAN	"50741 CORPORATE DRIVE, SHELBY TWP MI 48315 US"	-83.011816	42.668024	78
15887	99166	1	T	50	BAR VERONA WASHINGTON	"59145 VAN DYKE AVENUE, WASHINGTON TWP MI 48094 US"	-83.036432	42.7288	78
15934	99033	311	R	280	MEADOW BROOK AMPHITHEATRE	"3554 WALTON BLVD, ROCHESTER HILLS MI 48309 US"	-83.201088	42.680109	78
1602	31183	3	R	210	GRAND TAVERN                  	"3512 MARKET PLACE CIRCLE, ROCHESTER HILLS MI 48309"	-83.201036	42.644084	78
16027	33634	0	F	170	ROYAL OAK MASALA LLC	"106 MAIN STREET, ROYAL OAK MI 48067 US"	-83.144662	42.489473	78
16135	33667	0	M	210	HOST-UTICA	"7759 AUBURN RD, UTICA MI 48317 US"	-83.033899	42.626261	78
16142	33672	0	M	90	MIDDLE EATS BOWLS AND WRAPS 	"32040 VANDYKE AVE, WARREN MI 48093 US"	-83.028737	42.529731	78
16166	33688	0	T	110	FIVE IRON GOLF	"50773 CORPORATE DRIVE, SHELBY TOWNSHIP MI 48315 US"	-83.0108654	42.66798873	78
16267	33736	0	M	100	ALIE'S LEBANESE GRILL	"33355 VAN DYKE AVENUE, STERLING HEIGHTS MI 48312 U"	-83.029919	42.539362	78
16366	33769	0	F	230	SPICE VALLEY INDIAN CUISINE	"49087 SCHOENHERR ROAD, SHELBY TOWNSHIP MI 48315 US"	-82.995725	42.656085	78
16386	99191	1	W	80	NEW YORK DELI-CLINTON TWP	"40700 GARFIELD ROAD, CLINTON TOWNSHIP MI 48038 US"	-82.951288	42.596627	78
16393	33782	0	R	250	OAKLAND UNIV GOLF & LEARNING 	"512 GOLF VIEW LANE, ROCHESTER HILLS MI 48309 US"	-83.1955113	42.6727215	78
16449	33817	0	M	40	ENRX CORPORATION	"31551 DEQUINDRE ROAD, MADISON HEIGHTS MI 48071 US"	-83.08654588	42.52591465	78
16492	33846	0	M	140	CHAO ZHOU	"31682 JOHN R ROAD, MADISON HEIGHTS MI 48071 US"	-83.105603	42.52664	78
16535	99199	1	M	120	DAVE'S HOT CHICKEN	"31101 MOUND ROAD, WARREN MI 48092 US"	-83.048263	42.522196	78
16581	33882	0	M	150	ZHANGS BBQ	"31692 JOHN R ROAD, MADISON HEIGHTS MI 48071 US"	-83.105603	42.52664	78
16594	33889	0	T	130	JAC PRODUCTS	"12000 SHELBY TECH DR, SHELBY TOWNSHIP MI 48315 US"	-83.011942	42.676838	78
16624	33905	0	M	30	COUNTRY OVEN	"28237 HOOVER ROAD, WARREN MI 48093 US"	-83.007073	42.50204	78
16641	33911	0	W	130	MARI GOLD INDIAN CUISINE	"20860 HALL ROAD, CLINTON TOWNSHIP MI 48038 US"	-82.912639	42.627985	78
16706	33946	0	M		SHAAD DESHI CUISINE	"6060 E 12 MILE RD, WARREN MI 48092 US"	-83.0439698	42.5056845	78
16865	33578	1	M		MR. MIGUEL'S-UTICA	"7636 AUBURN RD, UTICA MI 48317 US"	-83.035429	42.625849	78
16884	34019	0	T		AURORA'S FAMILY RESTAURANT	"41830 HAYES ROAD, CLINTON TOWNSHIP MI 48038 US"	-82.971256	42.60326	78
16945	99199	6	T		DAVE'S HOT CHICKEN	"13993 HALL ROAD, SHELBY TOWNSHIP MI 48315 US"	-83.28439	42.499198	78
17005	34071	0	F		THE MODERN VEGAN	"304 N. MAIN STREET, ROYAL OAK MI 48067 US"	-83.143213	42.49102	78
17043	99229	11	M		IGNITE CU-BLUEOX CU-SH	"39900 VAN DYKE AVE, STERLING HEIGHTS MI 48313 US"	-83.029935	42.587107	78
17210	28547	1	T		TUBBY'S                       	"49117 VANDYKE AVE, SHELBY MI 48317 US"	-83.034249	42.655931	78
17235	26173	2	F		TOGETHER WOMENS HEALTH 	"336 NORTH MAIN, ROYAL OAK MI 48067 US"	-83.143955	42.490897	78
17261	34179	0	W		MIDDLE EATS MACOMB	"17636 HALL ROAD, CLINTON TOWNSHIP MI 48038 US"	-82.9413978	42.62777907	78
17283	99191	8	F		NEW YORK DELI	"32906 WOODWARD AVE, ROYAL OAK MI 48073 US"	-83.198586	42.531327	78
1747	99079	22	R	260	BURGERZ INC. 200         	"3204 WALTON BLVD, ROCHESTER HILLS MI 48309 US"	-83.196444	42.681079	78
1750	29417	0	W	100	MICHIGAN OMS                  	"43900 GARFIELD SUITE 103, CLINTON TWP MI 48038 US"	-82.952415	42.619559	78
1804	50407	0	W	120	BUSCEMIS                      	"20750 HALL RD., MT. CLEMENS MI 48044 US"	-82.915172	42.628089	78
1814	50592	0	M	240	C & G PUBLISHING              	"13650 11 MILE, WARREN MI 48089 US"	-82.986306	42.491856	78
1837	50806	0	R	150	AUBURN ANIMAL HOSPIT          	"1619 E. AUBURN RD., ROCHESTER HILLS MI 48307 US"	-83.099984	42.637639	78
364	99062	149	F	60	HOLLYWOOD MKT #892 MEAT	"714 N. MAIN ST., ROYAL OAK MI 48067 US"	-83.144084	42.495538	78
365	99062	150	F	70	HOLLYWOOD MKT #892 DELI/BAKERY	"714 N MAIN ST, ROYAL OAK MI 48067 US"	-83.144084	42.495538	78
40	9577	0	R	90	PIXLEY FUNERAL HOME           	"322 WEST UNIVERSITY, ROCHESTER MI 48307 US"	-83.137107	42.682446	78
402	22457	0	F	90	CLUB VENETIAN 	"29310 JOHN R, MADISON HEIGHTS MI 48071 US"	-83.104791	42.507269	78
417	22838	0	T	60	DEBBY'S DOLLAR                	"58952 VANDYKE, WASHINGTON TWP MI 48094 US"	-83.033964	42.727066	78
543	24029	0	F	120	ROYAL OAK THEATER             	"318 W 4TH ST., ROYAL OAK MI 48067 US"	-83.147393	42.487354	78
546	24041	0	M	170	ANGELO'S	"34834 VANDYKE, STERLING HEIGHTS MI 48312 US"	-83.028204	42.550143	78
551	99079	0	W	20	RED ROBIN 385                	"15780 HALL ROAD, CLINTON TWNP. MI 48038 US"	-82.966849	42.62672	78
583	24187	0	M	190	MACKENZIE TAVERN              	"40860 VANDYKE, STERLING HEIGHTS MI 48313 US"	-83.028616	42.59452	78
591	24214	0	W	140	DRAGON PHEONIX	"18411 HALL RD, MACOMB MI 48044 US"	-82.938151	42.62932	78
603	24251	0	F	240	THE TELWAY                    	"27000 JOHN R, MADISON HEIGHTS MI 48071 US"	-83.104997	42.491057	78
635	24392	0	T	220	MESSINA MEATS                 	"46639 HAYES, UTICA MI 48315 US"	-82.975079	42.639205	78
637	24398	0	M	110	GOLDEN HARVEST                	"6880 12 MILE ROAD, WARREN MI 48092 US"	-83.034328	42.505934	78
646	24507	0	W	50	ZERILLI'S BAKERY              	"42171 GARFIELD RD, CLINTON TOWNSHIP MI 48038 US"	-82.953639	42.60678	78
649	24517	0	W	220	THAI STAR RESTAURANT          	"28841 RYAN RD, WARREN MI 48092 US"	-83.067854	42.505041	78
729	24871	0	M	160	HAM CENTER RESTAURANT         	"28809 VAN DYKE, WARREN MI 48092 US"	-83.028546	42.50519	78
8160	29537	0	R	220	HILTON SUITES	"2300 FEATHERSTONE ROAD, AUBURN HILLS MI 48326 US"	-83.243893	42.648254	78
871	25499	0	F	200	MICHIGAN TOY SOLDIER CO.      	"1400 E. 11 MILE RD., ROYAL OAK MI 48067 US"	-83.1279633	42.4900483	78
893	25763	0	R	50	UPRIGHT HEALTH AND WELLNESS   	"333 LINWOOD AVE, ROCHESTER MI 48308 US"	-83.130434	42.69073	78
8988	30192	0	F	260	RYAN GRILL	"4007 E 11 MILE, WARREN MI 48092 US"	-83.067516	42.491965	78
913	25854	0	R	200	STONEBROOK FAMILY PHYSICIANS  	"2940 CROOKS, ROCHESTER HILLS MI 48309 US"	-83.171258	42.636285	78
9163	30339	0	R	100	MAIN STREET DELI	"709 N MAIN STREET, ROCHESTER MI 48307 US"	-83.134364	42.685128	78
9302	30457	0	T	240	VINCE & JOES PIZZA & DELI	"58865 ROMEO PLANK RD, RAY TWP MI 48096 US"	-82.960599	42.729934	78
936	99124	2	W	30	BANGKOK CUISINE               	"43237 GARFIELD RD, CLINTON TWP MI 48038 US"	-82.954762	42.61468	78
950	26173	0	F	100	WOMEN FIRST OBGYN             	"326 N. MAIN, ROYAL OAK MI 48067 US"	-83.143704	42.490729	78
9518	99035	24	T	270	INDEPENDENT BANK 336	"49785 VAN DYKE AVE, SHELBY TOWNSHIP MI 48317 US"	-83.034179	42.660795	78
9616	30707	0	W	210	CLINTON MACOMB PUBLIC LIBRARY 	"40900 ROMEO PLANK RD, CLINTON TWP MI 48038 US"	-82.929849	42.598883	78
9617	30708	0	T	250	CLINTON MACOMB PUBLIC LIBRARY 	"54100 BROUGHTON ROAD, MACOMB MI 48042 US"	-82.920736	42.695672	78
9858	99055	4	T	260	JET'S PIZZA MI-164 (RED)	"16376 26 MILE RD, MACOMB MI 48042 US"	-82.961408	42.714399	78
