cu_id	Account	Customer	New Delivery Day	Alliant Sequence	Customer Name	Address	X_Longitude	Y_Latitude	Route
10350	31334	0	T		NICKY D'S SPORTS BAR & GRILL L	"2100 E 14 MILE RD, WARREN MI 48092 US"	-83.085209	42.534443	76
10357	16015	1	F		ADVANCED BORING & TOOL        	"1001 W. 13 MILE RD, MADISON HEIGHTS MI 48071 US"	-83.116484	42.518841	76
10589	31507	0	T		CHICKPEA KITCHEN	"39525 MOUND ROAD, STERLING HEIGHTS MI 48314 US"	-83.051183	42.58373	76
10695	31589	0	M		SOLA SALONS	"619 S ADAMS RD, BIRMINGHAM MI 48009 US"	-83.204125	42.542897	76
10715F	99079	24	F		MOTOR CITY PEAKS	"1111 W. 14 MILE, MADISON HEIGHTS MI 48071 US"	-83.119247	42.533284	76
10715T	99079	24	T		MOTOR CITY PEAKS	"1111 W. 14 MILE, MADISON HEIGHTS MI 48071 US"	-83.119247	42.533284	76
10947	99033	79	T		GENERAL DYNAMICS 8793	"38500 MOUND RD, STERLING HEIGHTS MI 48310 US"	-83.046646	42.575822	76
1095	99051	12	T		JET'S PIZZA MI-003 (BLK)	"37160 DEQUINDRE RD, STERLING HEIGHTS MI 48310 US"	-83.087499	42.564968	76
11034	99033	119	R		CRANBROOK-SCIENCE INST 8200	"39221 WOODWARD AVE, BLOOMFIELD HILLS MI 48304 US"	-83.251619	42.567543	76
11035	99033	120	M		KINGSWOOD DINING HALL 8110	"855 CRANBROOK RD, BLOOMFIELD HILLS MI 48304 US"	-83.24331925	42.569373	76
11036M	99033	121	M		CRANBROOK DINING HALL 8110	"508 LONE PINE, BLOOMFIELD HILLS MI 48304 US"	-83.2556897	42.5737055	76
11036R	99033	121	R		CRANBROOK DINING HALL 8110	"508 LONE PINE, BLOOMFIELD HILLS MI 48304 US"	-83.2556897	42.5737055	76
11037M	99033	122	M		CRANBROOK-CATERING 8110	"855 CRANBROOK RD, BLOOMFIELD HILLS MI 48304 US"	-83.24235502	42.5720558	76
11037R	99033	122	R		CRANBROOK-CATERING 8110	"855 CRANBROOK RD, BLOOMFIELD HILLS MI 48304 US"	-83.24235502	42.5720558	76
11057	99033	124	M		CRANBROOK-VAUGHN 8110	"1060 VAUGHN RD, BLOOMFIELD HILLS MI 48303 US"	-83.2557162	42.5737668	76
11058	99033	123	M		CRANBROOK-BROOKSIDE	"550 CRANBROOK RD, BLOOMFIELD HILLS MI 48303 US"	-83.24299896	42.56746713	76
1115	27323	0	T		MEAT WORLD                    	"4163 15 MILE ROAD, STERLING HEIGHTS MI 48310 US"	-83.067255	42.550834	76
1143	99051	16	W		JET'S PIZZA MI-011	"5102 ROCHESTER RD, TROY MI 48098 US"	-83.1283798	42.5935837	76
11611M	32130	0	M		RIVAGE DAY SPA	"210 S. OLD WOODWARD, BIRMINGHAM MI 48009 US"	-83.213358	42.545231	76
11611R	32130	0	R		RIVAGE DAY SPA	"210 S. OLD WOODWARD, BIRMINGHAM MI 48009 US"	-83.213358	42.545231	76
11680	99033	164	M		CAFE AT KINGSWOOD UNIT 32246	"855 CRANBROOK ROAD, BLOOMFIELD HILLS MI 48304 US"	-83.24331925	42.569373	76
11707M	32175	0	M		SEDONA TAPHOUSE	"198 E BIG BEAVER RD., TROY MI 48083 US"	-83.143208	42.562114	76
11707R	32175	0	R		SEDONA TAPHOUSE	"198 E BIG BEAVER RD., TROY MI 48083 US"	-83.143208	42.562114	76
1192M	27576	0	M		MARGOTS EURO SPA              	"101 TOWNSEND, BIRMINGHAM MI 48009 US"	-83.215083	42.544304	76
1192R	27576	0	R		MARGOTS EURO SPA              	"101 TOWNSEND, BIRMINGHAM MI 48009 US"	-83.215083	42.544304	76
12072	32353	0	T		NATIONAL GROCERIES INDIAN CUIS	"33148 RYAN ROAD, STERLING HEIGHTS MI 48120 US"	-83.067137	42.536322	76
1210	27651	0	W		ALCO PRINTING                 	"1431 Rochester Road, Troy MI 48083 US"	-83.13255207	42.54751703	76
12125	32394	0	T		MDOT METRO C&T LAB	"35414 MOUND ROAD, STERLING HEIGHTS MI 48310 US"	-83.0470498	42.5538337	76
12444	32550	0	R		BROTHERS CUSTOM AUTOMOTIVE	"317 PARK DRIVE, TROY MI 48083 US"	-83.139779	42.54388	76
12453	99033	213	M		CRANBROOK GIRLS MIDDLE SCHOOL	"39221 WOODWARD, BLOOMFIELD HILLS MI 48303 US"	-83.251619	42.567543	76
12857	99094	38	W		LMCU 402	"734 W LONG LAKE RD, TROY MI 48098 US"	-83.163306	42.591802	76
13159	32879	0	T		MR. KABOB XPRESS	"2036 W. BIG BEAVER ROAD, TROY MI 48084 US"	-83.17531	42.562005	76
13160	32880	0	W		DEVON TITLE AGENCY	"1680 CROOKS, TROY MI 48084 US"	-83.165693	42.548799	76
13278	32907	0	T		JOHNNY'S CONEY	"5762 15 MILE ROAD, STERLING HEIGHTS MI 48310 US"	-83.049952	42.549777	76
13464	32936	0	T		EMPIRE GRILL	"39485 MOUND ROAD, STERLING HEIGHTS MI 48310 US"	-83.051161	42.583593	76
13970	33003	0	W		MAIN STREET KITCHEN	"309 N MAIN STREET, CLAWSON MI 48017 US"	-83.146871	42.535622	76
1403	28407	0	W		ROYAL GRILL             	"2495 LIVERNOIS RD, TROY MI 48083 US"	-83.148443	42.557368	76
14112	33076	0	F		MIDTOWN POINTE	"1712 MIDTOWN CIRCLE, ROYAL OAK MI 48073 US"	-83.12421026	42.53072377	76
14153	33098	0	W		CHARMINAR BIRYANI HOUSE	"3059 ROCHESTER ROAD, TROY MI 48083 US"	-83.129431	42.563943	76
142	18619	0	M		ANTONINO SALON & SPA	"191 TOWNSEND, BIRMINGHAM MI 48009 US"	-83.21561	42.544274	76
1428	28490	0	T		BP RYAN ROAD                  	"4040 E. 14 MILE RD., WARREN MI 48092 US"	-83.068041	42.535092	76
14338	33166	0	W		QUICKLY BOBA CAFE	"3668 ROCHESTER ROAD, TROY MI 48083 US"	-83.127362	42.572111	76
14342	33170	0	F		VIBRA HEALTH LAB	"1307 ALLEN DRIVE SUITE A, TROY MI 48083 US"	-83.126012	42.544826	76
14352	99062	67	F		VALUE CENTER MARKET #1267	"1485 W. 14 MILE ROAD, MADISON HEIGHTS MI 48071 US"	-83.125175	42.532504	76
14356	99161	67	F		VALUE CENTER MARKET #1267 F.A.	"1485 W. 14 MILE ROAD, MADISON HEIGHTS MI 48071 US"	-83.125175	42.532504	76
14453	99128	0	M		BAKEHOUSE 46 BIRMINGHAM	"250 W. Maple, BIRMINGHAM MI 48009 US"	-83.214157	42.547037	76
14662	99144	2	W		SMART OAKLAND TERMINAL	"2021 BARRETT ST., TROY MI 48084 US"	-83.1600588	42.5526938	76
1468F	28629	0	F		CLAWSON STEAKHOUSE            	"56 S ROCHESTER ROAD, CLAWSON MI 48017 US"	-83.136551	42.532826	76
1468T	28629	0	T		CLAWSON STEAKHOUSE            	"56 S ROCHESTER ROAD, CLAWSON MI 48017 US"	-83.136551	42.532826	76
14705	33319	0	W		SPICE HUB KITCHEN	"166 WEST MAPLE ROAD, TROY MI 48084 US"	-83.1495125	42.5489647	76
14749	31996	1	T		SRODEK'S QUALITY POLISH FOOD	"40211 MOUND ROAD, STERLING HEIGHTS MI 48310 US"	-83.05123	42.588425	76
14847	99161	146	T		HOLLYWOOD MKT #893 FIRST AID	"2670 W MAPLE RD, TROY MI 48084 US"	-83.181707	42.548102	76
14861	99062	145	T		HOLLYWOOD MKT #893 GROCERY	"2670 W. MAPLE RD, TROY MI 48084 US"	-83.181707	42.548102	76
14948	33416	0	W		SOZAI	"449 W 14 MILE RD, CLAWSON MI 48017 US"	-83.153592	42.53289	76
14978	99153	12	W		BINSON'S MEDICAL	"30475 N. WOODWARD, ROYAL OAK MI 48073 US"	-83.182685	42.513543	76
1551	28933	0	F		SHELL 14 MILE/JOHN R          	"32845 JOHN R, MADISON HEIGHTS MI 48071 US"	-83.1075517	42.5337574	76
15560	30920	1	W		KURRYS AT TROY	"3303 ROCHESTER RD, TROY MI 48083 US"	-83.128531	42.56749	76
16096	99179	5	F		ROAD COMMISSION OAKLAND COUNTY	"1930 STEHPENSON HWY, TROY MI 48083 US"	-83.123044	42.553116	76
16119	99128	5	F		BAKEHOUSE 46 COMMISARY	"1224 RANKIN, TROY MI 48083 US"	-83.1281187	42.5419722	76
16354	33766	0	T		FLAMING THAI CAFE	"3045 CROOKS ROAD, TROY MI 48084 US"	-83.168043	42.562424	76
16509	99198	0	W		MJ DIAMONDS	"412 W 14 MILE ROAD, TROY MI 48083 US"	-83.112917	42.534711	76
16518	33859	0	W		KOUCAR MANAGEMENT	"905 W MAPLE RD, CLAWSON MI 48017 US"	-83.158891	42.547467	76
16538	99199	4	R		DAVE'S HOT CHICKEN	"624 WEST BIG BEAVER ROAD, TROY MI 48084 US"	-83.161833	42.562501	76
16610	30039	2	W		AAHAR CAFE OF TROY	"4917 ROCHESTER ROAD, TROY MI 48085 US"	-83.129777	42.590945	76
16665	33927	0	W		PATEL BROTHERS MARKET	"5055 ROCHESTER ROAD, TROY MI 48085 US"	-83.130618	42.593041	76
16670	33928	0	T		COTTON CAKE-TROY	"4972 JOHN R ROAD, TROY MI 48085 US"	-83.1086284	42.5917125	76
16671	33929	0	W		GUS' SNUG IRISH PUB	"38 SOUTH MAIN STREET, CLAWSON MI 48017 US"	-83.146517	42.53278	76
16694	33940	0	T		ENGAUGE WORKFORCE SOLUTIONS	"2063 15 MILE ROAD, STERLING HEIGHTS MI 48310 US"	-83.08710476	42.54944784	76
16875	34016	0	W		THE CITY GRILL & BAR-TROY	"2940 ROCHESTER ROAD, TROY MI 48083 US"	-83.128429	42.562247	76
16923	99220	0	F		MARE MEDITERRANEAN 	"115 WILLITS ST, BIRMINGHAM MI 48009 US"	-83.2166149	42.5472203	76
170	19396	0	W		DIENER FUNERAL HOME           	"705 N MAIN ST., CLAWSON MI 48017 US"	-83.14709	42.538756	76
17284	33672	4	F		MIDDLE EATS COMMISSARY	"32150 HOWARD AVENUE, MADISON HEIGHTS MI 48071 US"	-83.098833	42.528901	76
1751	29418	0	M		BIRMINGHAM OMS	"555 OLD WOODWARD SUITE 777, BIRMINGHAM MI 48009 US"	-83.210155	42.543107	76
268	99062	146	T		HOLLYWOOD MKT #893 DELI/BAKERY	"2670 W MAPLE RD, TROY MI 48084 US"	-83.181707	42.548102	76
349	21960	0	W		TROY VET HOSPITAL             	"3705 ROCHESTER RD, TROY MI 48083 US"	-83.128679	42.572663	76
366	99062	147	T		HOLLYWOOD MKT #893 MEAT  	"2670 W. MAPLE RD., TROY MI 48084 US"	-83.181707	42.548102	76
448M	23035	0	M		ENDOSCOPY CENTER              	"264 W. MAPLE STE 100, TROY MI 48084 US"	-83.151624	42.548727	76
448R	23035	0	R		ENDOSCOPY CENTER              	"264 W. MAPLE STE 100, TROY MI 48084 US"	-83.151624	42.548727	76
558	99079	3	F		RED ROBIN 379                	"31805 JOHN R, MADISON HEIGHTS MI 48071 US"	-83.107563	42.526661	76
570	24113	0	W		CANCER CARE ASSOCIATES        	"3577 W. 13 MILE RD. SUITE 404, ROYAL OAK MI 48073 "	-83.19078	42.512717	76
617	24310	0	W		MSU MGMT AND EDUCATION CENTER	"811 WEST SQUARE LAKE ROAD, TROY MI 48098 US"	-83.16594	42.605003	76
659	24637	0	M		SY THAI RESTAURANT            	"315 HAMILTON, BIRMINGHAM MI 48009 US"	-83.2135765	42.5476824	76
662F	24641	0	F		SOMERSET INN-RESTAURANT ACCT  	"2601 W. BIG BEAVER, TROY MI 48084 US"	-83.180337	42.560213	76
662T	24641	0	T		SOMERSET INN-RESTAURANT ACCT  	"2601 W. BIG BEAVER, TROY MI 48084 US"	-83.180205	42.559863	76
748	25039	0	T		CHINA TOWN RESTAURANT         	"2800 WEST BIG BEAVER, TROY MI 48086 US"	-83.184066	42.562945	76
768	25090	0	T		THE GATHERING PLACE           	"3985 JOHN R, TROY MI 48083 US"	-83.109241	42.577744	76
8660	29861	0	W		MAPLE LEAF	"110 W. MAPLE RD., TROY MI 48084 US"	-83.14873	42.548771	76
872	25515	0	R		THE MELTING POT               	"888 W. BIG BEAVER SUITE 119, TROY MI 48084 US"	-83.165164	42.562728	76
8951	30158	0	W		ST ANDREW'S SOCIETY OF DETROIT	"2360 ROCHESTER COURT, TROY MI 48083 US"	-83.129026	42.556033	76
911	99079	10	W		RED ROBIN 389                	"5460 CORPORATE DRIVE, TROY MI 48098 US"	-83.170783	42.596678	76
9516	99035	23	R		INDEPENDENT BANK 334	"201 W. BIG BEAVER RD. SUITE 125, TROY MI 48098 US"	-83.150258	42.560657	76
9608	99186	5	W		LA MARSA	"3720 ROCHESTER RD, TROY MI 48083 US"	-83.127248	42.57281	76
9757	30824	0	R		SY THAI-TROY	"459 E BIG BEAVER, TROY MI 48083 US"	-83.138764	42.563276	76
9885	30924	0	W		BANGKOK CUISINE EXPRESS	"32166 WOODWARD AVE, ROYAL OAK MI 48073 US"	-83.193857	42.526294	76
